[{"lng": 39.80360971300479, "type": "Airport", "name": "Rostov-on-Don Airport (ROV) (\u0410\u044d\u0440\u043e\u043f\u043e\u0440\u0442 \u0420\u043e\u0441\u0442\u043e\u0432-\u043d\u0430-\u0414\u043e\u043d\u0443)", "lat": 47.25545381275797, "now": true}, {"lng": 37.406089185888405, "type": "Airport", "name": "Sheremetyevo International Airport (SVO) (\u041c\u0435\u0436\u0434\u0443\u043d\u0430\u0440\u043e\u0434\u043d\u044b\u0439 \u0430\u044d\u0440\u043e\u043f\u043e\u0440\u0442 \u0428\u0435\u0440\u0435\u043c\u0435\u0442\u044c\u0435\u0432\u043e)", "lat": 55.9636025861622, "now": false}, {"lng": 4.7625577372555465, "type": "Airport", "name": "Amsterdam Airport Schiphol (AMS)", "lat": 52.30923267175452, "now": false}, {"lng": 4.7625577372555465, "type": "Airport", "name": "Amsterdam Airport Schiphol (AMS)", "lat": 52.30923267175452, "now": false}, {"lng": 19.801819359365993, "type": "Airport", "name": "John Paul II International Airport Krak\u00f3w\u2013Balice (KRK) (Mi\u0119dzynarodowy Port Lotniczy im. Jana Paw\u0142a II Krak\u00f3w-Balice)", "lat": 50.07223010071994, "now": false}, {"lng": 19.788118, "type": "Airport Service", "name": "Krakow", "lat": 50.076977, "now": false}, {"lng": 4.7625577372555465, "type": "Airport", "name": "Amsterdam Airport Schiphol (AMS)", "lat": 52.30923267175452, "now": false}, {"lng": 6.048317551365021, "type": "Airport", "name": "Teuge International Airport (EHTE)", "lat": 52.24111846696927, "now": false}, {"lng": 5.152907255548942, "type": "Airport", "name": "Hilversum Airport (Vliegveld Hilversum)", "lat": 52.193148539617674, "now": false}, {"lng": -22.622909545898438, "type": "Airport", "name": "Keflavik International Airport (KEF) (Keflav\u00edkurflugv\u00f6llur)", "lat": 63.99117062931456, "now": false}, {"lng": -22.622909545898438, "type": "Airport", "name": "Keflavik International Airport (KEF) (Keflav\u00edkurflugv\u00f6llur)", "lat": 63.99117062931456, "now": false}, {"lng": 4.7625577372555465, "type": "Airport", "name": "Amsterdam Airport Schiphol (AMS)", "lat": 52.30923267175452, "now": false}, {"lng": 4.7625577372555465, "type": "Airport", "name": "Amsterdam Airport Schiphol (AMS)", "lat": 52.30923267175452, "now": false}, {"lng": 0.04976896880526665, "type": "Airport", "name": "London City Airport (LCY)", "lat": 51.50396412422985, "now": false}, {"lng": 0.04976896880526665, "type": "Airport", "name": "London City Airport (LCY)", "lat": 51.50396412422985, "now": false}, {"lng": 4.7625577372555465, "type": "Airport", "name": "Amsterdam Airport Schiphol (AMS)", "lat": 52.30923267175452, "now": false}, {"lng": 4.7625577372555465, "type": "Airport", "name": "Amsterdam Airport Schiphol (AMS)", "lat": 52.30923267175452, "now": false}, {"lng": 2.5702929199346776, "type": "Airport", "name": "Paris Charles de Gaulle Airport (CDG) (A\u00e9roport Paris-Charles de Gaulle)", "lat": 49.004685160970574, "now": false}, {"lng": -73.7834624434656, "type": "Airport", "name": "John F. Kennedy International Airport (JFK)", "lat": 40.64505809053733, "now": false}, {"lng": -73.7834624434656, "type": "Airport", "name": "John F. Kennedy International Airport (JFK)", "lat": 40.64505809053733, "now": false}, {"lng": 4.7625577372555465, "type": "Airport", "name": "Amsterdam Airport Schiphol (AMS)", "lat": 52.30923267175452, "now": false}, {"lng": 4.7625577372555465, "type": "Airport", "name": "Amsterdam Airport Schiphol (AMS)", "lat": 52.30923267175452, "now": false}, {"lng": -122.38885916361724, "type": "Airport", "name": "San Francisco International Airport (SFO)", "lat": 37.61692481575441, "now": false}, {"lng": -122.08071924173356, "type": "Convention", "name": "Google I/O 2017", "lat": 37.42676990683185, "now": false}, {"lng": -122.38885916361724, "type": "Airport", "name": "San Francisco International Airport (SFO)", "lat": 37.61692481575441, "now": false}, {"lng": -111.9813333185899, "type": "Airport", "name": "Salt Lake City International Airport (SLC)", "lat": 40.78693504261269, "now": false}, {"lng": 4.7625577372555465, "type": "Airport", "name": "Amsterdam Airport Schiphol (AMS)", "lat": 52.30923267175452, "now": false}, {"lng": 12.645695264827953, "type": "Airport", "name": "Copenhagen Airport (CPH) (K\u00f8benhavns Lufthavn)", "lat": 55.62833695998232, "now": false}, {"lng": -111.9813333185899, "type": "Airport", "name": "Salt Lake City International Airport (SLC)", "lat": 40.78693504261269, "now": false}, {"lng": -115.14644926715971, "type": "Airport", "name": "McCarran International Airport (LAS)", "lat": 36.0829846406578, "now": false}, {"lng": -115.14644926715971, "type": "Airport", "name": "McCarran International Airport (LAS)", "lat": 36.0829846406578, "now": false}, {"lng": -118.405601978302, "type": "Airport", "name": "Los Angeles International Airport (LAX)", "lat": 33.94332434443264, "now": false}, {"lng": -122.38885916361724, "type": "Airport", "name": "San Francisco International Airport (SFO)", "lat": 37.61692481575441, "now": false}, {"lng": -122.38885916361724, "type": "Airport", "name": "San Francisco International Airport (SFO)", "lat": 37.61692481575441, "now": false}, {"lng": -118.405601978302, "type": "Airport", "name": "Los Angeles International Airport (LAX)", "lat": 33.94332434443264, "now": false}, {"lng": -97.6668415425308, "type": "Airport", "name": "Austin Bergstrom International Airport (AUS)", "lat": 30.202310129239955, "now": false}, {"lng": -97.6668415425308, "type": "Airport", "name": "Austin Bergstrom International Airport (AUS)", "lat": 30.202310129239955, "now": false}, {"lng": -111.9813333185899, "type": "Airport", "name": "Salt Lake City International Airport (SLC)", "lat": 40.78693504261269, "now": false}, {"lng": -122.38885916361724, "type": "Airport", "name": "San Francisco International Airport (SFO)", "lat": 37.61692481575441, "now": false}, {"lng": -122.38885916361724, "type": "Airport", "name": "San Francisco International Airport (SFO)", "lat": 37.61692481575441, "now": false}, {"lng": 4.7625577372555465, "type": "Airport", "name": "Amsterdam Airport Schiphol (AMS)", "lat": 52.30923267175452, "now": false}, {"lng": 4.7625577372555465, "type": "Airport", "name": "Amsterdam Airport Schiphol (AMS)", "lat": 52.30923267175452, "now": false}, {"lng": -122.38885916361724, "type": "Airport", "name": "San Francisco International Airport (SFO)", "lat": 37.61692481575441, "now": false}, {"lng": -122.38885916361724, "type": "Airport", "name": "San Francisco International Airport (SFO)", "lat": 37.61692481575441, "now": false}, {"lng": 4.7625577372555465, "type": "Airport", "name": "Amsterdam Airport Schiphol (AMS)", "lat": 52.30923267175452, "now": false}, {"lng": 16.563956981297576, "type": "Airport", "name": "Vienna International Airport (VIE) (Flughafen Wien-Schwechat)", "lat": 48.11945479013332, "now": false}, {"lng": 4.7625577372555465, "type": "Airport", "name": "Amsterdam Airport Schiphol (AMS)", "lat": 52.30923267175452, "now": false}, {"lng": -2.9059542035252615, "type": "Airport", "name": "Aeropuerto de Bilbao (BIO)", "lat": 43.305375778120755, "now": false}, {"lng": -2.9059542035252615, "type": "Airport", "name": "Aeropuerto de Bilbao (BIO)", "lat": 43.305375778120755, "now": false}, {"lng": 4.7625577372555465, "type": "Airport", "name": "Amsterdam Airport Schiphol (AMS)", "lat": 52.30923267175452, "now": false}, {"lng": 0.04976896880526665, "type": "Airport", "name": "London City Airport (LCY)", "lat": 51.50396412422985, "now": false}, {"lng": 0.04976896880526665, "type": "Airport", "name": "London City Airport (LCY)", "lat": 51.50396412422985, "now": false}, {"lng": 4.7625577372555465, "type": "Airport", "name": "Amsterdam Airport Schiphol (AMS)", "lat": 52.30923267175452, "now": false}, {"lng": 17.93097496032715, "type": "Airport", "name": "Stockholm-Arlanda Airport (ARN)", "lat": 59.650527933419625, "now": false}, {"lng": 16.628351651724433, "type": "Airport", "name": "Stockholm V\u00e4ster\u00e5s Flygplats (VST)", "lat": 59.60183262632053, "now": false}, {"lng": 24.96758259012695, "type": "Airport", "name": "Helsinki Airport  (HEL) (Helsinki Airport (HEL))", "lat": 60.318320554472244, "now": false}, {"lng": 4.7625577372555465, "type": "Airport", "name": "Amsterdam Airport Schiphol (AMS)", "lat": 52.30923267175452, "now": false}, {"lng": 14.282985155394492, "type": "Airport", "name": "Naples International Airport \"Ugo Niutta\" (NAP) (Aeroporto Internazionale di Napoli Capodichino \"Ugo Niutta\")", "lat": 40.87793275611709, "now": false}, {"lng": 14.282985155394492, "type": "Airport", "name": "Naples International Airport \"Ugo Niutta\" (NAP) (Aeroporto Internazionale di Napoli Capodichino \"Ugo Niutta\")", "lat": 40.87793275611709, "now": false}, {"lng": 4.7625577372555465, "type": "Airport", "name": "Amsterdam Airport Schiphol (AMS)", "lat": 52.30923267175452, "now": false}, {"lng": 4.7625577372555465, "type": "Airport", "name": "Amsterdam Airport Schiphol (AMS)", "lat": 52.30923267175452, "now": false}, {"lng": 30.273572934764662, "type": "Airport", "name": "Pulkovo International Airport (LED) (\u041c\u0435\u0436\u0434\u0443\u043d\u0430\u0440\u043e\u0434\u043d\u044b\u0439 \u0430\u044d\u0440\u043e\u043f\u043e\u0440\u0442 \u041f\u0443\u043b\u043a\u043e\u0432\u043e)", "lat": 59.79963388793562, "now": false}, {"lng": 30.273572934764662, "type": "Airport", "name": "Pulkovo International Airport (LED) (\u041c\u0435\u0436\u0434\u0443\u043d\u0430\u0440\u043e\u0434\u043d\u044b\u0439 \u0430\u044d\u0440\u043e\u043f\u043e\u0440\u0442 \u041f\u0443\u043b\u043a\u043e\u0432\u043e)", "lat": 59.79963388793562, "now": false}, {"lng": 4.7625577372555465, "type": "Airport", "name": "Amsterdam Airport Schiphol (AMS)", "lat": 52.30923267175452, "now": false}, {"lng": -122.38885916361724, "type": "Airport", "name": "San Francisco International Airport (SFO)", "lat": 37.61692481575441, "now": false}, {"lng": -122.43206667777437, "type": "Cocktail Bar", "name": "The Interval at Long Now", "lat": 37.80654071386508, "now": false}, {"lng": -122.41378448333333, "type": "Coffee Shop", "name": "Haus Coffee", "lat": 37.752603, "now": false}, {"lng": -122.24446997734793, "type": "Brewery", "name": "Devil's Canyon Brewing Company", "lat": 37.49826584400928, "now": false}, {"lng": -122.1368343034103, "type": "Office", "name": "Nest HQ 3.0", "lat": 37.40147715999492, "now": false}, {"lng": -122.38885916361724, "type": "Airport", "name": "San Francisco International Airport (SFO)", "lat": 37.61692481575441, "now": false}, {"lng": 4.7625577372555465, "type": "Airport", "name": "Amsterdam Airport Schiphol (AMS)", "lat": 52.30923267175452, "now": false}, {"lng": 4.912840083414216, "type": "Concert Hall", "name": "Muziekgebouw aan 't IJ", "lat": 52.37809266488914, "now": false}, {"lng": 4.907363123797117, "type": "Restaurant", "name": "Choux", "lat": 52.37768285903766, "now": false}, {"lng": 4.902465220123396, "type": "Italian Restaurant", "name": "Spaghetteria", "lat": 52.35349776449129, "now": false}, {"lng": 4.9534359369595355, "type": "Office", "name": "ING Haarlerbergpark (HBP)", "lat": 52.30276140436009, "now": false}, {"lng": 4.871930635577136, "type": "Office", "name": "Google Amsterdam", "lat": 52.33765478895593, "now": false}, {"lng": 139.6906391, "type": "Hotel", "name": "Park Hyatt Tokyo (\u30d1\u30fc\u30af\u30cf\u30a4\u30a2\u30c3\u30c8\u6771\u4eac)", "lat": 35.68557476, "now": false}, {"lng": 139.81071, "type": "Monument / Landmark", "name": "Tokyo Skytree (\u6771\u4eac\u30b9\u30ab\u30a4\u30c4\u30ea\u30fc)", "lat": 35.710054, "now": false}, {"lng": 139.72963527697652, "type": "Art Museum", "name": "Mori Art Museum (\u68ee\u7f8e\u8853\u9928)", "lat": 35.66035416332519, "now": false}, {"lng": 139.73035991191864, "type": "Art Gallery", "name": "21_21 DESIGN SIGHT", "lat": 35.667477492825796, "now": false}, {"lng": 139.771525, "type": "Hotel", "name": "HOTEL COCOGRAND UENOSHINOBAZU (\u30db\u30c6\u30eb \u30b3\u30b3\u30fb\u30b0\u30e9\u30f3\u4e0a\u91ce\u4e0d\u5fcd)", "lat": 35.709444, "now": false}, {"lng": 140.38687589242883, "type": "Airport", "name": "Narita International Airport (NRT) (\u6210\u7530\u56fd\u969b\u7a7a\u6e2f)", "lat": 35.77190522612856, "now": false}, {"lng": 4.7625577372555465, "type": "Airport", "name": "Amsterdam Airport Schiphol (AMS)", "lat": 52.30923267175452, "now": false}, {"lng": 4.868118166923523, "type": "Food Court", "name": "Foodhallen", "lat": 52.366906780645856, "now": false}, {"lng": 4.889495372772216, "type": "Bookstore", "name": "The American Book Center", "lat": 52.36896703972043, "now": false}, {"lng": 5.906777681079501, "type": "Bar", "name": "Bar Florian", "lat": 51.98230050778086, "now": false}, {"lng": 6.823655466078068, "type": "Office", "name": "METRO", "lat": 51.2345851154123, "now": false}, {"lng": 4.9534359369595355, "type": "Office", "name": "ING Haarlerbergpark (HBP)", "lat": 52.30276140436009, "now": false}, {"lng": 4.926383968338442, "type": "Brewery", "name": "Brouwerij 't IJ", "lat": 52.36662574805283, "now": false}, {"lng": 4.891520255177822, "type": "Bakery", "name": "Le Pain Quotidien - (de Pijp)", "lat": 52.35097166520259, "now": false}, {"lng": 4.894820402019465, "type": "Multiplex", "name": "Path\u00e9 Tuschinski", "lat": 52.366403170086535, "now": false}, {"lng": 4.894820402019465, "type": "Multiplex", "name": "Path\u00e9 Tuschinski", "lat": 52.366403170086535, "now": false}, {"lng": 4.8940605057319, "type": "Burger Joint", "name": "Burger Bar", "lat": 52.36686522514216, "now": false}, {"lng": 5.12362003326416, "type": "Bar", "name": "Ledig Erf", "lat": 52.081642276790845, "now": false}, {"lng": 4.829206787797253, "type": "Coworking Space", "name": "B.Amsterdam", "lat": 52.34294433020198, "now": false}, {"lng": 4.946982375083081, "type": "Office", "name": "ING Acanthus", "lat": 52.31422523381137, "now": false}, {"lng": 4.9534359369595355, "type": "Office", "name": "ING Haarlerbergpark (HBP)", "lat": 52.30276140436009, "now": false}, {"lng": 4.905077493675435, "type": "Hotel", "name": "DoubleTree by Hilton Hotel", "lat": 52.37678563024838, "now": false}, {"lng": 4.902465220123396, "type": "Italian Restaurant", "name": "Spaghetteria", "lat": 52.35349776449129, "now": false}, {"lng": 4.906507679690257, "type": "Restaurant", "name": "De Ysbreeker", "lat": 52.35746646338605, "now": false}, {"lng": 4.894820402019465, "type": "Multiplex", "name": "Path\u00e9 Tuschinski", "lat": 52.366403170086535, "now": false}, {"lng": 4.88324214354567, "type": "Japanese Restaurant", "name": "Hosokawa", "lat": 52.36277849511845, "now": false}, {"lng": 4.878992977693823, "type": "Hotel", "name": "Conservatorium Hotel", "lat": 52.35862410711441, "now": false}, {"lng": 4.868118166923523, "type": "Food Court", "name": "Foodhallen", "lat": 52.366906780645856, "now": false}, {"lng": 5.06915, "type": "French Restaurant", "name": "Brasserie Herengracht 75", "lat": 52.329746, "now": false}, {"lng": 4.829206787797253, "type": "Coworking Space", "name": "B.Amsterdam", "lat": 52.34294433020198, "now": false}, {"lng": 4.9534359369595355, "type": "Office", "name": "ING Haarlerbergpark (HBP)", "lat": 52.30276140436009, "now": false}, {"lng": 5.043145874117438, "type": "Greek Restaurant", "name": "Grieks restaurant Niki", "lat": 52.30809477675751, "now": false}, {"lng": 4.88351945052098, "type": "Steakhouse", "name": "Gauchos Grill-Restaurant", "lat": 52.36414463427992, "now": false}, {"lng": 4.893660533510497, "type": "Multiplex", "name": "Path\u00e9", "lat": 52.36648118187473, "now": false}, {"lng": 4.891520255177822, "type": "Bakery", "name": "Le Pain Quotidien - (de Pijp)", "lat": 52.35097166520259, "now": false}, {"lng": 4.853176258330551, "type": "Belgian Restaurant", "name": "Gent aan de Schinkel", "lat": 52.35470354107215, "now": false}, {"lng": 4.871930635577136, "type": "Office", "name": "Google Amsterdam", "lat": 52.33765478895593, "now": false}, {"lng": 4.855798129255578, "type": "Restaurant", "name": "Franklin Bar & Kitchen", "lat": 52.35364083588143, "now": false}, {"lng": 4.946982375083081, "type": "Office", "name": "ING Acanthus", "lat": 52.31422523381137, "now": false}, {"lng": 4.9534359369595355, "type": "Office", "name": "ING Haarlerbergpark (HBP)", "lat": 52.30276140436009, "now": false}, {"lng": 4.894820402019465, "type": "Multiplex", "name": "Path\u00e9 Tuschinski", "lat": 52.366403170086535, "now": false}, {"lng": 4.860007776364371, "type": "French Restaurant", "name": "Fa. Speijkervet", "lat": 52.37127227602769, "now": false}, {"lng": 4.7625577372555465, "type": "Airport", "name": "Amsterdam Airport Schiphol (AMS)", "lat": 52.30923267175452, "now": false}, {"lng": -122.38885916361724, "type": "Airport", "name": "San Francisco International Airport (SFO)", "lat": 37.61692481575441, "now": false}, {"lng": -122.3938000202179, "type": "Vietnamese Restaurant", "name": "Slanted Door", "lat": 37.79619516102866, "now": false}, {"lng": -122.41303760716224, "type": "Theater", "name": "The Strand", "lat": 37.7798708152251, "now": false}, {"lng": -122.38885916361724, "type": "Airport", "name": "San Francisco International Airport (SFO)", "lat": 37.61692481575441, "now": false}, {"lng": 4.7625577372555465, "type": "Airport", "name": "Amsterdam Airport Schiphol (AMS)", "lat": 52.30923267175452, "now": false}]