[{"lat": 52.310244621325296, "lng": 4.761989321616131, "now": true, "type": "Airport", "name": "Amsterdam Airport Schiphol (AMS)"}, {"lat": 59.79972760043299, "lng": 30.272676944732666, "now": false, "type": "Airport", "name": "Pulkovo International Airport (LED) (\u041c\u0435\u0436\u0434\u0443\u043d\u0430\u0440\u043e\u0434\u043d\u044b\u0439 \u0430\u044d\u0440\u043e\u043f\u043e\u0440\u0442 \u041f\u0443\u043b\u043a\u043e\u0432\u043e)"}, {"lat": 52.310244621325296, "lng": 4.761989321616131, "now": false, "type": "Airport", "name": "Amsterdam Airport Schiphol (AMS)"}, {"lat": 52.35349776449129, "lng": 4.902465220123396, "now": false, "type": "Italian Restaurant", "name": "Spaghetteria"}, {"lat": 52.3127193713622, "lng": 4.945432293001321, "now": false, "type": "Sushi Restaurant", "name": "Ichi-E"}, {"lat": 52.310244621325296, "lng": 4.761989321616131, "now": false, "type": "Airport", "name": "Amsterdam Airport Schiphol (AMS)"}, {"lat": 55.96387530807073, "lng": 37.40808242719677, "now": false, "type": "Airport", "name": "Sheremetyevo International Airport (SVO) (\u041c\u0435\u0436\u0434\u0443\u043d\u0430\u0440\u043e\u0434\u043d\u044b\u0439 \u0430\u044d\u0440\u043e\u043f\u043e\u0440\u0442 \u0428\u0435\u0440\u0435\u043c\u0435\u0442\u044c\u0435\u0432\u043e)"}, {"lat": 47.2555505243379, "lng": 39.80370198965598, "now": false, "type": "Airport", "name": "Rostov-on-Don Airport (ROV) (\u0410\u044d\u0440\u043e\u043f\u043e\u0440\u0442 \u0420\u043e\u0441\u0442\u043e\u0432-\u043d\u0430-\u0414\u043e\u043d\u0443)"}, {"lat": 47.226186655230286, "lng": 39.70411510165484, "now": false, "type": "Asian Restaurant", "name": "\u0420\u0418\u0421-54"}, {"lat": 47.226946865978356, "lng": 39.70369530468808, "now": false, "type": "Hotel", "name": "Marins Park Hotel"}, {"lat": 47.2555505243379, "lng": 39.80370198965598, "now": false, "type": "Airport", "name": "Rostov-on-Don Airport (ROV) (\u0410\u044d\u0440\u043e\u043f\u043e\u0440\u0442 \u0420\u043e\u0441\u0442\u043e\u0432-\u043d\u0430-\u0414\u043e\u043d\u0443)"}, {"lat": 55.96387530807073, "lng": 37.40808242719677, "now": false, "type": "Airport", "name": "Sheremetyevo International Airport (SVO) (\u041c\u0435\u0436\u0434\u0443\u043d\u0430\u0440\u043e\u0434\u043d\u044b\u0439 \u0430\u044d\u0440\u043e\u043f\u043e\u0440\u0442 \u0428\u0435\u0440\u0435\u043c\u0435\u0442\u044c\u0435\u0432\u043e)"}, {"lat": 52.310244621325296, "lng": 4.761989321616131, "now": false, "type": "Airport", "name": "Amsterdam Airport Schiphol (AMS)"}, {"lat": 52.310244621325296, "lng": 4.761989321616131, "now": false, "type": "Airport", "name": "Amsterdam Airport Schiphol (AMS)"}, {"lat": 50.07224620341886, "lng": 19.801693312365792, "now": false, "type": "Airport", "name": "John Paul II International Airport Krak\u00f3w\u2013Balice (KRK) (Mi\u0119dzynarodowy Port Lotniczy im. Jana Paw\u0142a II Krak\u00f3w-Balice)"}, {"lat": 50.076977, "lng": 19.788118, "now": false, "type": "Airport Service", "name": "Krakow"}, {"lat": 52.310244621325296, "lng": 4.761989321616131, "now": false, "type": "Airport", "name": "Amsterdam Airport Schiphol (AMS)"}, {"lat": 52.24111846696927, "lng": 6.048317551365021, "now": false, "type": "Airport", "name": "Teuge International Airport (EHTE)"}, {"lat": 52.193252782368106, "lng": 5.15286265255035, "now": false, "type": "Airport", "name": "Hilversum Airport (Vliegveld Hilversum)"}, {"lat": 63.99117062931456, "lng": -22.622909545898438, "now": false, "type": "Airport", "name": "Keflavik International Airport (KEF) (Keflav\u00edkurflugv\u00f6llur)"}, {"lat": 63.99117062931456, "lng": -22.622909545898438, "now": false, "type": "Airport", "name": "Keflavik International Airport (KEF) (Keflav\u00edkurflugv\u00f6llur)"}, {"lat": 52.310244621325296, "lng": 4.761989321616131, "now": false, "type": "Airport", "name": "Amsterdam Airport Schiphol (AMS)"}, {"lat": 52.310244621325296, "lng": 4.761989321616131, "now": false, "type": "Airport", "name": "Amsterdam Airport Schiphol (AMS)"}, {"lat": 51.50411133334797, "lng": 0.04895487974538035, "now": false, "type": "Airport", "name": "London City Airport (LCY)"}, {"lat": 51.50411133334797, "lng": 0.04895487974538035, "now": false, "type": "Airport", "name": "London City Airport (LCY)"}, {"lat": 52.310244621325296, "lng": 4.761989321616131, "now": false, "type": "Airport", "name": "Amsterdam Airport Schiphol (AMS)"}, {"lat": 52.310244621325296, "lng": 4.761989321616131, "now": false, "type": "Airport", "name": "Amsterdam Airport Schiphol (AMS)"}, {"lat": 49.004685160970574, "lng": 2.5702929199346776, "now": false, "type": "Airport", "name": "Paris Charles de Gaulle Airport (CDG) (A\u00e9roport Paris-Charles de Gaulle)"}, {"lat": 40.64407757727607, "lng": -73.78229046028976, "now": false, "type": "Airport", "name": "John F. Kennedy International Airport (JFK)"}, {"lat": 40.64407757727607, "lng": -73.78229046028976, "now": false, "type": "Airport", "name": "John F. Kennedy International Airport (JFK)"}, {"lat": 52.310244621325296, "lng": 4.761989321616131, "now": false, "type": "Airport", "name": "Amsterdam Airport Schiphol (AMS)"}, {"lat": 52.310244621325296, "lng": 4.761989321616131, "now": false, "type": "Airport", "name": "Amsterdam Airport Schiphol (AMS)"}, {"lat": 37.61681544184565, "lng": -122.38505294512811, "now": false, "type": "Airport", "name": "San Francisco International Airport (SFO)"}, {"lat": 37.61681544184565, "lng": -122.38505294512811, "now": false, "type": "Airport", "name": "San Francisco International Airport (SFO)"}, {"lat": 40.786642436049235, "lng": -111.98068124861207, "now": false, "type": "Airport", "name": "Salt Lake City International Airport (SLC)"}, {"lat": 52.310244621325296, "lng": 4.761989321616131, "now": false, "type": "Airport", "name": "Amsterdam Airport Schiphol (AMS)"}, {"lat": 55.62846451577045, "lng": 12.648707054161264, "now": false, "type": "Airport", "name": "Copenhagen Airport (CPH) (K\u00f8benhavns Lufthavn)"}, {"lat": 40.786642436049235, "lng": -111.98068124861207, "now": false, "type": "Airport", "name": "Salt Lake City International Airport (SLC)"}, {"lat": 36.0832711280774, "lng": -115.1485106341837, "now": false, "type": "Airport", "name": "McCarran International Airport (LAS)"}, {"lat": 36.0832711280774, "lng": -115.1485106341837, "now": false, "type": "Airport", "name": "McCarran International Airport (LAS)"}, {"lat": 33.94332434443264, "lng": -118.405601978302, "now": false, "type": "Airport", "name": "Los Angeles International Airport (LAX)"}, {"lat": 37.61681544184565, "lng": -122.38505294512811, "now": false, "type": "Airport", "name": "San Francisco International Airport (SFO)"}, {"lat": 37.61681544184565, "lng": -122.38505294512811, "now": false, "type": "Airport", "name": "San Francisco International Airport (SFO)"}, {"lat": 33.94332434443264, "lng": -118.405601978302, "now": false, "type": "Airport", "name": "Los Angeles International Airport (LAX)"}, {"lat": 30.202409857789302, "lng": -97.66929506783335, "now": false, "type": "Airport", "name": "Austin Bergstrom International Airport (AUS)"}, {"lat": 30.202409857789302, "lng": -97.66929506783335, "now": false, "type": "Airport", "name": "Austin Bergstrom International Airport (AUS)"}, {"lat": 40.786642436049235, "lng": -111.98068124861207, "now": false, "type": "Airport", "name": "Salt Lake City International Airport (SLC)"}, {"lat": 37.61681544184565, "lng": -122.38505294512811, "now": false, "type": "Airport", "name": "San Francisco International Airport (SFO)"}, {"lat": 37.61681544184565, "lng": -122.38505294512811, "now": false, "type": "Airport", "name": "San Francisco International Airport (SFO)"}, {"lat": 52.310244621325296, "lng": 4.761989321616131, "now": false, "type": "Airport", "name": "Amsterdam Airport Schiphol (AMS)"}, {"lat": 52.310244621325296, "lng": 4.761989321616131, "now": false, "type": "Airport", "name": "Amsterdam Airport Schiphol (AMS)"}, {"lat": 37.61681544184565, "lng": -122.38505294512811, "now": false, "type": "Airport", "name": "San Francisco International Airport (SFO)"}, {"lat": 37.61681544184565, "lng": -122.38505294512811, "now": false, "type": "Airport", "name": "San Francisco International Airport (SFO)"}, {"lat": 52.310244621325296, "lng": 4.761989321616131, "now": false, "type": "Airport", "name": "Amsterdam Airport Schiphol (AMS)"}, {"lat": 48.119337859865524, "lng": 16.563790050404382, "now": false, "type": "Airport", "name": "Vienna International Airport (VIE) (Flughafen Wien-Schwechat)"}, {"lat": 52.310244621325296, "lng": 4.761989321616131, "now": false, "type": "Airport", "name": "Amsterdam Airport Schiphol (AMS)"}, {"lat": 43.30506821648937, "lng": -2.906193095271163, "now": false, "type": "Airport", "name": "Aeropuerto de Bilbao (BIO)"}, {"lat": 43.30506821648937, "lng": -2.906193095271163, "now": false, "type": "Airport", "name": "Aeropuerto de Bilbao (BIO)"}, {"lat": 52.310244621325296, "lng": 4.761989321616131, "now": false, "type": "Airport", "name": "Amsterdam Airport Schiphol (AMS)"}, {"lat": 51.50411133334797, "lng": 0.04895487974538035, "now": false, "type": "Airport", "name": "London City Airport (LCY)"}, {"lat": 51.50411133334797, "lng": 0.04895487974538035, "now": false, "type": "Airport", "name": "London City Airport (LCY)"}, {"lat": 52.310244621325296, "lng": 4.761989321616131, "now": false, "type": "Airport", "name": "Amsterdam Airport Schiphol (AMS)"}, {"lat": 59.650527933419625, "lng": 17.93097496032715, "now": false, "type": "Airport", "name": "Stockholm-Arlanda Airport (ARN)"}, {"lat": 59.60183262632053, "lng": 16.628351651724433, "now": false, "type": "Airport", "name": "Stockholm V\u00e4ster\u00e5s Flygplats (VST)"}, {"lat": 60.318483329798084, "lng": 24.967755547739205, "now": false, "type": "Airport", "name": "Helsinki Airport  (HEL) (Helsinki Airport (HEL))"}, {"lat": 52.310244621325296, "lng": 4.761989321616131, "now": false, "type": "Airport", "name": "Amsterdam Airport Schiphol (AMS)"}, {"lat": 40.87793476627525, "lng": 14.28242859593664, "now": false, "type": "Airport", "name": "Naples International Airport \"Ugo Niutta\" (NAP) (Aeroporto Internazionale di Napoli Capodichino \"Ugo Niutta\")"}, {"lat": 40.87793476627525, "lng": 14.28242859593664, "now": false, "type": "Airport", "name": "Naples International Airport \"Ugo Niutta\" (NAP) (Aeroporto Internazionale di Napoli Capodichino \"Ugo Niutta\")"}, {"lat": 52.310244621325296, "lng": 4.761989321616131, "now": false, "type": "Airport", "name": "Amsterdam Airport Schiphol (AMS)"}, {"lat": 52.310244621325296, "lng": 4.761989321616131, "now": false, "type": "Airport", "name": "Amsterdam Airport Schiphol (AMS)"}, {"lat": 59.79963388793562, "lng": 30.273572934764662, "now": false, "type": "Airport", "name": "Pulkovo International Airport (LED) (\u041c\u0435\u0436\u0434\u0443\u043d\u0430\u0440\u043e\u0434\u043d\u044b\u0439 \u0430\u044d\u0440\u043e\u043f\u043e\u0440\u0442 \u041f\u0443\u043b\u043a\u043e\u0432\u043e)"}, {"lat": 59.79963388793562, "lng": 30.273572934764662, "now": false, "type": "Airport", "name": "Pulkovo International Airport (LED) (\u041c\u0435\u0436\u0434\u0443\u043d\u0430\u0440\u043e\u0434\u043d\u044b\u0439 \u0430\u044d\u0440\u043e\u043f\u043e\u0440\u0442 \u041f\u0443\u043b\u043a\u043e\u0432\u043e)"}, {"lat": 52.310244621325296, "lng": 4.761989321616131, "now": false, "type": "Airport", "name": "Amsterdam Airport Schiphol (AMS)"}, {"lat": 37.61681544184565, "lng": -122.38505294512811, "now": false, "type": "Airport", "name": "San Francisco International Airport (SFO)"}, {"lat": 37.61681544184565, "lng": -122.38505294512811, "now": false, "type": "Airport", "name": "San Francisco International Airport (SFO)"}, {"lat": 52.310244621325296, "lng": 4.761989321616131, "now": false, "type": "Airport", "name": "Amsterdam Airport Schiphol (AMS)"}, {"lat": 52.377693060623656, "lng": 4.907260213346564, "now": false, "type": "Restaurant", "name": "Choux"}, {"lat": 52.35349776449129, "lng": 4.902465220123396, "now": false, "type": "Italian Restaurant", "name": "Spaghetteria"}, {"lat": 35.68557476, "lng": 139.6906391, "now": false, "type": "Hotel", "name": "Park Hyatt Tokyo (\u30d1\u30fc\u30af\u30cf\u30a4\u30a2\u30c3\u30c8\u6771\u4eac)"}, {"lat": 35.709444, "lng": 139.771525, "now": false, "type": "Hotel", "name": "HOTEL COCOGRAND UENOSHINOBAZU (\u30db\u30c6\u30eb \u30b3\u30b3\u30fb\u30b0\u30e9\u30f3\u4e0a\u91ce\u4e0d\u5fcd)"}, {"lat": 35.77285329514216, "lng": 140.38690110877957, "now": false, "type": "Airport", "name": "Narita International Airport (NRT) (\u6210\u7530\u56fd\u969b\u7a7a\u6e2f)"}, {"lat": 52.310244621325296, "lng": 4.761989321616131, "now": false, "type": "Airport", "name": "Amsterdam Airport Schiphol (AMS)"}, {"lat": 52.37678563024838, "lng": 4.905077493675435, "now": false, "type": "Hotel", "name": "DoubleTree by Hilton Hotel"}, {"lat": 52.35349776449129, "lng": 4.902465220123396, "now": false, "type": "Italian Restaurant", "name": "Spaghetteria"}, {"lat": 52.35746646338605, "lng": 4.906507679690257, "now": false, "type": "Restaurant", "name": "De Ysbreeker"}, {"lat": 52.362653101865135, "lng": 4.883136925315649, "now": false, "type": "Japanese Restaurant", "name": "Hosokawa"}, {"lat": 52.35862410711441, "lng": 4.878992977693823, "now": false, "type": "Hotel", "name": "Conservatorium Hotel"}, {"lat": 52.329746, "lng": 5.06915, "now": false, "type": "French Restaurant", "name": "Brasserie Herengracht 75"}, {"lat": 52.30809477675751, "lng": 5.043145874117438, "now": false, "type": "Greek Restaurant", "name": "Grieks restaurant Niki"}, {"lat": 52.35475521974998, "lng": 4.853131516068616, "now": false, "type": "Belgian Restaurant", "name": "Gent aan de Schinkel"}, {"lat": 52.35364083588143, "lng": 4.855798129255578, "now": false, "type": "Restaurant", "name": "Franklin Bar & Kitchen"}, {"lat": 52.37127227602769, "lng": 4.860007776364371, "now": false, "type": "French Restaurant", "name": "Fa. Speijkervet"}, {"lat": 52.310244621325296, "lng": 4.761989321616131, "now": false, "type": "Airport", "name": "Amsterdam Airport Schiphol (AMS)"}, {"lat": 37.61681544184565, "lng": -122.38505294512811, "now": false, "type": "Airport", "name": "San Francisco International Airport (SFO)"}, {"lat": 37.79619516102866, "lng": -122.3938000202179, "now": false, "type": "Vietnamese Restaurant", "name": "Slanted Door"}, {"lat": 37.61681544184565, "lng": -122.38505294512811, "now": false, "type": "Airport", "name": "San Francisco International Airport (SFO)"}, {"lat": 52.310244621325296, "lng": 4.761989321616131, "now": false, "type": "Airport", "name": "Amsterdam Airport Schiphol (AMS)"}, {"lat": 52.310244621325296, "lng": 4.761989321616131, "now": false, "type": "Airport", "name": "Amsterdam Airport Schiphol (AMS)"}, {"lat": 51.469407923261336, "lng": -0.46234846115112305, "now": false, "type": "Airport", "name": "London Heathrow Airport (LHR)"}, {"lat": 51.50411133334797, "lng": 0.04895487974538035, "now": false, "type": "Airport", "name": "London City Airport (LCY)"}, {"lat": 52.310244621325296, "lng": 4.761989321616131, "now": false, "type": "Airport", "name": "Amsterdam Airport Schiphol (AMS)"}, {"lat": 53.427327564801736, "lng": -6.245220088431431, "now": false, "type": "Airport", "name": "Dublin Airport (DUB)"}, {"lat": 52.310244621325296, "lng": 4.761989321616131, "now": false, "type": "Airport", "name": "Amsterdam Airport Schiphol (AMS)"}, {"lat": 51.50411133334797, "lng": 0.04895487974538035, "now": false, "type": "Airport", "name": "London City Airport (LCY)"}, {"lat": 52.310244621325296, "lng": 4.761989321616131, "now": false, "type": "Airport", "name": "Amsterdam Airport Schiphol (AMS)"}, {"lat": 52.310244621325296, "lng": 4.761989321616131, "now": false, "type": "Airport", "name": "Amsterdam Airport Schiphol (AMS)"}, {"lat": 51.469407923261336, "lng": -0.46234846115112305, "now": false, "type": "Airport", "name": "London Heathrow Airport (LHR)"}, {"lat": 51.75924697957355, "lng": -1.1515311995626192, "now": false, "type": "Airport Terminal", "name": "Heathrow Terminal 4"}, {"lat": 52.310244621325296, "lng": 4.761989321616131, "now": false, "type": "Airport", "name": "Amsterdam Airport Schiphol (AMS)"}, {"lat": 52.310244621325296, "lng": 4.761989321616131, "now": false, "type": "Airport", "name": "Amsterdam Airport Schiphol (AMS)"}, {"lat": 39.899160357131585, "lng": -84.22042429447174, "now": false, "type": "Airport", "name": "Dayton International Airport (DAY)"}, {"lat": 42.209767343095564, "lng": -83.35651025025011, "now": false, "type": "Airport", "name": "Detroit Metropolitan Wayne County Airport (DTW)"}, {"lat": 52.310244621325296, "lng": 4.761989321616131, "now": false, "type": "Airport", "name": "Amsterdam Airport Schiphol (AMS)"}, {"lat": 51.469407923261336, "lng": -0.46234846115112305, "now": false, "type": "Airport", "name": "London Heathrow Airport (LHR)"}, {"lat": 52.310244621325296, "lng": 4.761989321616131, "now": false, "type": "Airport", "name": "Amsterdam Airport Schiphol (AMS)"}, {"lat": 51.98297213340511, "lng": 5.904831506429136, "now": false, "type": "Italian Restaurant", "name": "Zappa's"}, {"lat": 51.98334436464271, "lng": 5.903859123377906, "now": false, "type": "Hotel Bar", "name": "Hotel Arnhem Centraal"}, {"lat": 52.30809477675751, "lng": 5.043145874117438, "now": false, "type": "Greek Restaurant", "name": "Grieks restaurant Niki"}, {"lat": 40.7722435782595, "lng": -73.95575441021364, "now": false, "type": "Italian Restaurant", "name": "Uva"}, {"lat": 53.097924841200125, "lng": 4.75850895678621, "now": false, "type": "Hotel", "name": "Grand Hotel Opduin"}, {"lat": 52.35349776449129, "lng": 4.902465220123396, "now": false, "type": "Italian Restaurant", "name": "Spaghetteria"}, {"lat": 35.77285329514216, "lng": 140.38690110877957, "now": false, "type": "Airport", "name": "Narita International Airport (NRT) (\u6210\u7530\u56fd\u969b\u7a7a\u6e2f)"}, {"lat": 41.909199, "lng": 12.459096, "now": false, "type": "Hotel", "name": "Hotel Silla"}, {"lat": 52.34437339706789, "lng": 4.890674122783253, "now": false, "type": "Seafood Restaurant", "name": "Vis aan de Schelde"}, {"lat": 52.310244621325296, "lng": 4.761989321616131, "now": false, "type": "Airport", "name": "Amsterdam Airport Schiphol (AMS)"}, {"lat": 52.26812771181026, "lng": 5.531882351362181, "now": false, "type": "Hotel", "name": "Postillion Hotel Amersfoort Veluwemeer"}, {"lat": 52.35997758410264, "lng": 4.877296694005315, "now": false, "type": "Seafood Restaurant", "name": "The Seafood Bar"}, {"lat": 52.35997758410264, "lng": 4.877296694005315, "now": false, "type": "Seafood Restaurant", "name": "The Seafood Bar"}, {"lat": 52.38051919611826, "lng": 4.886164544346121, "now": false, "type": "Spanish Restaurant", "name": "Duende"}, {"lat": 52.35997758410264, "lng": 4.877296694005315, "now": false, "type": "Seafood Restaurant", "name": "The Seafood Bar"}, {"lat": 52.35997758410264, "lng": 4.877296694005315, "now": false, "type": "Seafood Restaurant", "name": "The Seafood Bar"}, {"lat": 52.08996414763104, "lng": 5.117180819982263, "now": false, "type": "Restaurant", "name": "Stairway"}, {"lat": 52.35997758410264, "lng": 4.877296694005315, "now": false, "type": "Seafood Restaurant", "name": "The Seafood Bar"}, {"lat": 52.3561997940526, "lng": 4.880129843307251, "now": false, "type": "Mediterranean Restaurant", "name": "Solo Eten & Drinken"}, {"lat": 52.33750345633959, "lng": 4.870025764727189, "now": false, "type": "Restaurant", "name": "B&B"}, {"lat": 51.979587014391136, "lng": 5.907118685942359, "now": false, "type": "Restaurant", "name": "Graave Eten & Drinken"}, {"lat": 52.40142216544955, "lng": 4.891044172856121, "now": false, "type": "Restaurant", "name": "Restaurant caf\u00e9 de IJ-kantine"}, {"lat": 52.193252782368106, "lng": 5.15286265255035, "now": false, "type": "Airport", "name": "Hilversum Airport (Vliegveld Hilversum)"}, {"lat": 53.44855094529289, "lng": 5.686102758128594, "now": false, "type": "Airport", "name": "Ameland Airport Ballum"}, {"lat": 52.193252782368106, "lng": 5.15286265255035, "now": false, "type": "Airport", "name": "Hilversum Airport (Vliegveld Hilversum)"}, {"lat": 52.12080618365361, "lng": 5.038626567352132, "now": false, "type": "Hotel", "name": "Carlton President Hotel Utrecht"}, {"lat": 52.35349776449129, "lng": 4.902465220123396, "now": false, "type": "Italian Restaurant", "name": "Spaghetteria"}, {"lat": 52.3774770216862, "lng": 4.988679206045916, "now": false, "type": "Restaurant", "name": "De Oude Taveerne"}, {"lat": 52.27332321278238, "lng": 5.159725713647212, "now": false, "type": "Italian Restaurant", "name": "El Verano"}, {"lat": 52.364934149674596, "lng": 4.87396300270025, "now": false, "type": "French Restaurant", "name": "Pastis"}, {"lat": 52.092068326987, "lng": 5.116218477487564, "now": false, "type": "Restaurant", "name": "Straks"}, {"lat": 52.35349776449129, "lng": 4.902465220123396, "now": false, "type": "Italian Restaurant", "name": "Spaghetteria"}, {"lat": 52.35349776449129, "lng": 4.902465220123396, "now": false, "type": "Italian Restaurant", "name": "Spaghetteria"}, {"lat": 52.37460230771827, "lng": 4.872804290847635, "now": false, "type": "French Restaurant", "name": "Razmataz"}, {"lat": 52.310244621325296, "lng": 4.761989321616131, "now": false, "type": "Airport", "name": "Amsterdam Airport Schiphol (AMS)"}, {"lat": 48.865447411624466, "lng": 2.352915032199677, "now": false, "type": "Hotel", "name": "H\u00f4tel de Roubaix"}, {"lat": 48.20254569518358, "lng": 15.62530363453676, "now": false, "type": "Hotel", "name": "Hotel Metropol"}, {"lat": 49.999296829135986, "lng": 8.258091895158243, "now": false, "type": "Hotel", "name": "InterCityHotel Mainz"}, {"lat": 51.31665876848661, "lng": 9.459874808862608, "now": false, "type": "Hotel", "name": "H4 Hotel Kassel"}, {"lat": 49.665269266586265, "lng": 8.016133244053206, "now": false, "type": "Hotel", "name": "Hotel Braun"}, {"lat": 52.25210292704504, "lng": 6.156761852045855, "now": false, "type": "American Restaurant", "name": "Restaurant Jackies"}, {"lat": 52.25621416576005, "lng": 5.225149597463314, "now": false, "type": "Tapas Restaurant", "name": "Bodega-Bodega"}, {"lat": 51.21999839716136, "lng": 4.399359833489032, "now": false, "type": "French Restaurant", "name": "'t Hofke"}, {"lat": 51.22564836683305, "lng": 4.406642407667383, "now": false, "type": "Hotel", "name": "Zeemanshuis Hotel"}, {"lat": 51.220673124093594, "lng": 4.402365613553338, "now": false, "type": "Restaurant", "name": "Grote Gans"}, {"lat": 52.372807362158746, "lng": 4.89416009359262, "now": false, "type": "Hotel", "name": "NH Collection Amsterdam Grand Hotel Krasnapolsky"}, {"lat": 55.68242253662171, "lng": 12.582041728884308, "now": false, "type": "French Restaurant", "name": "Pastis"}, {"lat": 54.16433899093954, "lng": 9.879510376768918, "now": false, "type": "Hotel", "name": "Landhotel M\u00f6llhagen"}, {"lat": 52.08998813378618, "lng": 5.1174190274194284, "now": false, "type": "Sushi Restaurant", "name": "Konnichi Wa"}, {"lat": 51.98242066698302, "lng": 5.907581985417506, "now": false, "type": "Italian Restaurant", "name": "ZILLI"}, {"lat": 52.26812771181026, "lng": 5.531882351362181, "now": false, "type": "Hotel", "name": "Postillion Hotel Amersfoort Veluwemeer"}, {"lat": 51.982615784683915, "lng": 5.904691852085376, "now": false, "type": "Restaurant", "name": "Le Grand Caf\u00e9"}]