[{"name": "Rostov-on-Don Airport (ROV) (\u0410\u044d\u0440\u043e\u043f\u043e\u0440\u0442 \u0420\u043e\u0441\u0442\u043e\u0432-\u043d\u0430-\u0414\u043e\u043d\u0443)", "lat": 47.25545381275797, "lng": 39.80360971300479}, {"name": "Sheremetyevo International Airport (SVO) (\u041c\u0435\u0436\u0434\u0443\u043d\u0430\u0440\u043e\u0434\u043d\u044b\u0439 \u0430\u044d\u0440\u043e\u043f\u043e\u0440\u0442 \u0428\u0435\u0440\u0435\u043c\u0435\u0442\u044c\u0435\u0432\u043e)", "lat": 55.9636025861622, "lng": 37.406089185888405}, {"name": "Amsterdam Airport Schiphol (AMS)", "lat": 52.30923267175452, "lng": 4.7625577372555465}, {"name": "Amsterdam Airport Schiphol (AMS)", "lat": 52.30923267175452, "lng": 4.7625577372555465}, {"name": "John Paul II International Airport Krak\u00f3w\u2013Balice (KRK) (Mi\u0119dzynarodowy Port Lotniczy im. Jana Paw\u0142a II Krak\u00f3w-Balice)", "lat": 50.07223010071994, "lng": 19.801819359365993}, {"name": "Krakow", "lat": 50.076977, "lng": 19.788118}, {"name": "Amsterdam Airport Schiphol (AMS)", "lat": 52.30923267175452, "lng": 4.7625577372555465}, {"name": "Teuge International Airport (EHTE)", "lat": 52.24111846696927, "lng": 6.048317551365021}, {"name": "Hilversum Airport (Vliegveld Hilversum)", "lat": 52.193148539617674, "lng": 5.152907255548942}, {"name": "Keflavik International Airport (KEF) (Keflav\u00edkurflugv\u00f6llur)", "lat": 63.99117062931456, "lng": -22.622909545898438}, {"name": "Keflavik International Airport (KEF) (Keflav\u00edkurflugv\u00f6llur)", "lat": 63.99117062931456, "lng": -22.622909545898438}, {"name": "Amsterdam Airport Schiphol (AMS)", "lat": 52.30923267175452, "lng": 4.7625577372555465}, {"name": "Amsterdam Airport Schiphol (AMS)", "lat": 52.30923267175452, "lng": 4.7625577372555465}, {"name": "London City Airport (LCY)", "lat": 51.50396412422985, "lng": 0.04976896880526665}, {"name": "London City Airport (LCY)", "lat": 51.50396412422985, "lng": 0.04976896880526665}, {"name": "Amsterdam Airport Schiphol (AMS)", "lat": 52.30923267175452, "lng": 4.7625577372555465}, {"name": "Amsterdam Airport Schiphol (AMS)", "lat": 52.30923267175452, "lng": 4.7625577372555465}, {"name": "Paris Charles de Gaulle Airport (CDG) (A\u00e9roport Paris-Charles de Gaulle)", "lat": 49.004685160970574, "lng": 2.5702929199346776}, {"name": "John F. Kennedy International Airport (JFK)", "lat": 40.64505809053733, "lng": -73.7834624434656}, {"name": "John F. Kennedy International Airport (JFK)", "lat": 40.64505809053733, "lng": -73.7834624434656}, {"name": "Amsterdam Airport Schiphol (AMS)", "lat": 52.30923267175452, "lng": 4.7625577372555465}, {"name": "Amsterdam Airport Schiphol (AMS)", "lat": 52.30923267175452, "lng": 4.7625577372555465}, {"name": "San Francisco International Airport (SFO)", "lat": 37.61692481575441, "lng": -122.38885916361724}, {"name": "Google I/O 2017", "lat": 37.42676990683185, "lng": -122.08071924173356}, {"name": "San Francisco International Airport (SFO)", "lat": 37.61692481575441, "lng": -122.38885916361724}, {"name": "Salt Lake City International Airport (SLC)", "lat": 40.78693504261269, "lng": -111.9813333185899}, {"name": "Amsterdam Airport Schiphol (AMS)", "lat": 52.30923267175452, "lng": 4.7625577372555465}, {"name": "Copenhagen Airport (CPH) (K\u00f8benhavns Lufthavn)", "lat": 55.62833695998232, "lng": 12.645695264827953}, {"name": "Salt Lake City International Airport (SLC)", "lat": 40.78693504261269, "lng": -111.9813333185899}, {"name": "McCarran International Airport (LAS)", "lat": 36.0829846406578, "lng": -115.14644926715971}, {"name": "McCarran International Airport (LAS)", "lat": 36.0829846406578, "lng": -115.14644926715971}, {"name": "Los Angeles International Airport (LAX)", "lat": 33.94332434443264, "lng": -118.405601978302}, {"name": "San Francisco International Airport (SFO)", "lat": 37.61692481575441, "lng": -122.38885916361724}, {"name": "San Francisco International Airport (SFO)", "lat": 37.61692481575441, "lng": -122.38885916361724}, {"name": "Los Angeles International Airport (LAX)", "lat": 33.94332434443264, "lng": -118.405601978302}, {"name": "Austin Bergstrom International Airport (AUS)", "lat": 30.202310129239955, "lng": -97.6668415425308}, {"name": "Austin Bergstrom International Airport (AUS)", "lat": 30.202310129239955, "lng": -97.6668415425308}, {"name": "Salt Lake City International Airport (SLC)", "lat": 40.78693504261269, "lng": -111.9813333185899}, {"name": "San Francisco International Airport (SFO)", "lat": 37.61692481575441, "lng": -122.38885916361724}, {"name": "San Francisco International Airport (SFO)", "lat": 37.61692481575441, "lng": -122.38885916361724}, {"name": "Amsterdam Airport Schiphol (AMS)", "lat": 52.30923267175452, "lng": 4.7625577372555465}, {"name": "Amsterdam Airport Schiphol (AMS)", "lat": 52.30923267175452, "lng": 4.7625577372555465}, {"name": "San Francisco International Airport (SFO)", "lat": 37.61692481575441, "lng": -122.38885916361724}, {"name": "San Francisco International Airport (SFO)", "lat": 37.61692481575441, "lng": -122.38885916361724}, {"name": "Amsterdam Airport Schiphol (AMS)", "lat": 52.30923267175452, "lng": 4.7625577372555465}, {"name": "Vienna International Airport (VIE) (Flughafen Wien-Schwechat)", "lat": 48.11945479013332, "lng": 16.563956981297576}, {"name": "Amsterdam Airport Schiphol (AMS)", "lat": 52.30923267175452, "lng": 4.7625577372555465}, {"name": "Aeropuerto de Bilbao (BIO)", "lat": 43.305375778120755, "lng": -2.9059542035252615}, {"name": "Aeropuerto de Bilbao (BIO)", "lat": 43.305375778120755, "lng": -2.9059542035252615}, {"name": "Amsterdam Airport Schiphol (AMS)", "lat": 52.30923267175452, "lng": 4.7625577372555465}, {"name": "London City Airport (LCY)", "lat": 51.50396412422985, "lng": 0.04976896880526665}, {"name": "London City Airport (LCY)", "lat": 51.50396412422985, "lng": 0.04976896880526665}, {"name": "Amsterdam Airport Schiphol (AMS)", "lat": 52.30923267175452, "lng": 4.7625577372555465}, {"name": "Stockholm-Arlanda Airport (ARN)", "lat": 59.650527933419625, "lng": 17.93097496032715}, {"name": "Stockholm V\u00e4ster\u00e5s Flygplats (VST)", "lat": 59.60183262632053, "lng": 16.628351651724433}, {"name": "Helsinki Airport  (HEL) (Helsinki Airport (HEL))", "lat": 60.318320554472244, "lng": 24.96758259012695}, {"name": "Amsterdam Airport Schiphol (AMS)", "lat": 52.30923267175452, "lng": 4.7625577372555465}, {"name": "Naples International Airport \"Ugo Niutta\" (NAP) (Aeroporto Internazionale di Napoli Capodichino \"Ugo Niutta\")", "lat": 40.87793275611709, "lng": 14.282985155394492}, {"name": "Naples International Airport \"Ugo Niutta\" (NAP) (Aeroporto Internazionale di Napoli Capodichino \"Ugo Niutta\")", "lat": 40.87793275611709, "lng": 14.282985155394492}, {"name": "Amsterdam Airport Schiphol (AMS)", "lat": 52.30923267175452, "lng": 4.7625577372555465}, {"name": "Amsterdam Airport Schiphol (AMS)", "lat": 52.30923267175452, "lng": 4.7625577372555465}, {"name": "Pulkovo International Airport (LED) (\u041c\u0435\u0436\u0434\u0443\u043d\u0430\u0440\u043e\u0434\u043d\u044b\u0439 \u0430\u044d\u0440\u043e\u043f\u043e\u0440\u0442 \u041f\u0443\u043b\u043a\u043e\u0432\u043e)", "lat": 59.79963388793562, "lng": 30.273572934764662}, {"name": "Pulkovo International Airport (LED) (\u041c\u0435\u0436\u0434\u0443\u043d\u0430\u0440\u043e\u0434\u043d\u044b\u0439 \u0430\u044d\u0440\u043e\u043f\u043e\u0440\u0442 \u041f\u0443\u043b\u043a\u043e\u0432\u043e)", "lat": 59.79963388793562, "lng": 30.273572934764662}, {"name": "Amsterdam Airport Schiphol (AMS)", "lat": 52.30923267175452, "lng": 4.7625577372555465}, {"name": "San Francisco International Airport (SFO)", "lat": 37.61692481575441, "lng": -122.38885916361724}, {"name": "The Interval at Long Now", "lat": 37.80654071386508, "lng": -122.43206667777437}, {"name": "Haus Coffee", "lat": 37.752603, "lng": -122.41378448333333}, {"name": "Devil's Canyon Brewing Company", "lat": 37.49826584400928, "lng": -122.24446997734793}, {"name": "Nest HQ 3.0", "lat": 37.40147715999492, "lng": -122.1368343034103}, {"name": "San Francisco International Airport (SFO)", "lat": 37.61692481575441, "lng": -122.38885916361724}, {"name": "Amsterdam Airport Schiphol (AMS)", "lat": 52.30923267175452, "lng": 4.7625577372555465}, {"name": "Muziekgebouw aan 't IJ", "lat": 52.37809266488914, "lng": 4.912840083414216}, {"name": "Choux", "lat": 52.37768285903766, "lng": 4.907363123797117}, {"name": "Spaghetteria", "lat": 52.35349776449129, "lng": 4.902465220123396}, {"name": "ING Haarlerbergpark (HBP)", "lat": 52.30276140436009, "lng": 4.9534359369595355}, {"name": "Google Amsterdam", "lat": 52.33765478895593, "lng": 4.871930635577136}, {"name": "Park Hyatt Tokyo (\u30d1\u30fc\u30af\u30cf\u30a4\u30a2\u30c3\u30c8\u6771\u4eac)", "lat": 35.68557476, "lng": 139.6906391}, {"name": "Tokyo Skytree (\u6771\u4eac\u30b9\u30ab\u30a4\u30c4\u30ea\u30fc)", "lat": 35.710054, "lng": 139.81071}, {"name": "Mori Art Museum (\u68ee\u7f8e\u8853\u9928)", "lat": 35.66035416332519, "lng": 139.72963527697652}, {"name": "21_21 DESIGN SIGHT", "lat": 35.667477492825796, "lng": 139.73035991191864}, {"name": "HOTEL COCOGRAND UENOSHINOBAZU (\u30db\u30c6\u30eb \u30b3\u30b3\u30fb\u30b0\u30e9\u30f3\u4e0a\u91ce\u4e0d\u5fcd)", "lat": 35.709444, "lng": 139.771525}, {"name": "Narita International Airport (NRT) (\u6210\u7530\u56fd\u969b\u7a7a\u6e2f)", "lat": 35.77190522612856, "lng": 140.38687589242883}, {"name": "Amsterdam Airport Schiphol (AMS)", "lat": 52.30923267175452, "lng": 4.7625577372555465}, {"name": "Foodhallen", "lat": 52.366906780645856, "lng": 4.868118166923523}, {"name": "The American Book Center", "lat": 52.36896703972043, "lng": 4.889495372772216}, {"name": "Bar Florian", "lat": 51.98230050778086, "lng": 5.906777681079501}, {"name": "METRO", "lat": 51.2345851154123, "lng": 6.823655466078068}, {"name": "ING Haarlerbergpark (HBP)", "lat": 52.30276140436009, "lng": 4.9534359369595355}, {"name": "Brouwerij 't IJ", "lat": 52.36662574805283, "lng": 4.926383968338442}, {"name": "Le Pain Quotidien - (de Pijp)", "lat": 52.35097166520259, "lng": 4.891520255177822}, {"name": "Path\u00e9 Tuschinski", "lat": 52.366403170086535, "lng": 4.894820402019465}, {"name": "Path\u00e9 Tuschinski", "lat": 52.366403170086535, "lng": 4.894820402019465}, {"name": "Burger Bar", "lat": 52.36686522514216, "lng": 4.8940605057319}, {"name": "Ledig Erf", "lat": 52.081642276790845, "lng": 5.12362003326416}, {"name": "B.Amsterdam", "lat": 52.34294433020198, "lng": 4.829206787797253}, {"name": "ING Acanthus", "lat": 52.31422523381137, "lng": 4.946982375083081}, {"name": "ING Haarlerbergpark (HBP)", "lat": 52.30276140436009, "lng": 4.9534359369595355}, {"name": "DoubleTree by Hilton Hotel", "lat": 52.37678563024838, "lng": 4.905077493675435}, {"name": "Spaghetteria", "lat": 52.35349776449129, "lng": 4.902465220123396}, {"name": "De Ysbreeker", "lat": 52.35746646338605, "lng": 4.906507679690257}, {"name": "Path\u00e9 Tuschinski", "lat": 52.366403170086535, "lng": 4.894820402019465}, {"name": "Hosokawa", "lat": 52.36277849511845, "lng": 4.88324214354567}, {"name": "Conservatorium Hotel", "lat": 52.35862410711441, "lng": 4.878992977693823}, {"name": "Foodhallen", "lat": 52.366906780645856, "lng": 4.868118166923523}, {"name": "Brasserie Herengracht 75", "lat": 52.329746, "lng": 5.06915}, {"name": "B.Amsterdam", "lat": 52.34294433020198, "lng": 4.829206787797253}, {"name": "ING Haarlerbergpark (HBP)", "lat": 52.30276140436009, "lng": 4.9534359369595355}, {"name": "Grieks restaurant Niki", "lat": 52.30809477675751, "lng": 5.043145874117438}, {"name": "Gauchos Grill-Restaurant", "lat": 52.36414463427992, "lng": 4.88351945052098}, {"name": "Path\u00e9", "lat": 52.36648118187473, "lng": 4.893660533510497}, {"name": "Le Pain Quotidien - (de Pijp)", "lat": 52.35097166520259, "lng": 4.891520255177822}, {"name": "Gent aan de Schinkel", "lat": 52.35470354107215, "lng": 4.853176258330551}, {"name": "Google Amsterdam", "lat": 52.33765478895593, "lng": 4.871930635577136}, {"name": "Franklin Bar & Kitchen", "lat": 52.35364083588143, "lng": 4.855798129255578}, {"name": "ING Acanthus", "lat": 52.31422523381137, "lng": 4.946982375083081}, {"name": "ING Haarlerbergpark (HBP)", "lat": 52.30276140436009, "lng": 4.9534359369595355}, {"name": "Path\u00e9 Tuschinski", "lat": 52.366403170086535, "lng": 4.894820402019465}, {"name": "Fa. Speijkervet", "lat": 52.37127227602769, "lng": 4.860007776364371}, {"name": "Amsterdam Airport Schiphol (AMS)", "lat": 52.30923267175452, "lng": 4.7625577372555465}, {"name": "San Francisco International Airport (SFO)", "lat": 37.61692481575441, "lng": -122.38885916361724}, {"name": "Slanted Door", "lat": 37.79619516102866, "lng": -122.3938000202179}, {"name": "The Strand", "lat": 37.7798708152251, "lng": -122.41303760716224}, {"name": "San Francisco International Airport (SFO)", "lat": 37.61692481575441, "lng": -122.38885916361724}, {"name": "Amsterdam Airport Schiphol (AMS)", "lat": 52.30923267175452, "lng": 4.7625577372555465}, {"name": "Amsterdam Airport Schiphol (AMS)", "lat": 52.30923267175452, "lng": 4.7625577372555465}, {"name": "London Heathrow Airport (LHR)", "lat": 51.469407923261336, "lng": -0.46234846115112305}, {"name": "London City Airport (LCY)", "lat": 51.50396412422985, "lng": 0.04976896880526665}, {"name": "Amsterdam Airport Schiphol (AMS)", "lat": 52.30923267175452, "lng": 4.7625577372555465}, {"name": "Dublin Airport (DUB)", "lat": 53.42643943630694, "lng": -6.243851173903524}, {"name": "Amsterdam Airport Schiphol (AMS)", "lat": 52.30923267175452, "lng": 4.7625577372555465}, {"name": "London City Airport (LCY)", "lat": 51.50396412422985, "lng": 0.04976896880526665}, {"name": "Amsterdam Airport Schiphol (AMS)", "lat": 52.30923267175452, "lng": 4.7625577372555465}, {"name": "Amsterdam Airport Schiphol (AMS)", "lat": 52.30923267175452, "lng": 4.7625577372555465}, {"name": "London Heathrow Airport (LHR)", "lat": 51.469407923261336, "lng": -0.46234846115112305}, {"name": "Heathrow Terminal 4", "lat": 51.75924697957355, "lng": -1.1515311995626192}, {"name": "Amsterdam Airport Schiphol (AMS)", "lat": 52.30923267175452, "lng": 4.7625577372555465}, {"name": "Amsterdam Airport Schiphol (AMS)", "lat": 52.30923267175452, "lng": 4.7625577372555465}, {"name": "Dayton International Airport (DAY)", "lat": 39.899160357131585, "lng": -84.22042429447174}, {"name": "Detroit Metropolitan Wayne County Airport (DTW)", "lat": 42.20819442185789, "lng": -83.35678162246185}, {"name": "Amsterdam Airport Schiphol (AMS)", "lat": 52.30923267175452, "lng": 4.7625577372555465}, {"name": "Caf\u00e9 Sarphaat", "lat": 52.354361365215375, "lng": 4.899178147315979}, {"name": "London Heathrow Airport (LHR)", "lat": 51.469407923261336, "lng": -0.46234846115112305}, {"name": "Amsterdam Airport Schiphol (AMS)", "lat": 52.30923267175452, "lng": 4.7625577372555465}, {"name": "De Koffie Salon", "lat": 52.363317, "lng": 4.874774}, {"name": "Zappa's", "lat": 51.98306223905086, "lng": 5.904732181790947}, {"name": "Hotel Arnhem Centraal", "lat": 51.98334436464271, "lng": 5.903859123377906}, {"name": "Amsterdam Central Railway Station (Station Amsterdam Centraal)", "lat": 52.37878224866535, "lng": 4.900374412536621}, {"name": "BRET", "lat": 52.389597591721106, "lng": 4.836822092513592}, {"name": "Amsterdam Central Railway Station (Station Amsterdam Centraal)", "lat": 52.37878224866535, "lng": 4.900374412536621}, {"name": "Weesp", "lat": 52.310630158587166, "lng": 5.036458969116211}, {"name": "Grieks restaurant Niki", "lat": 52.30809477675751, "lng": 5.043145874117438}, {"name": "RELX", "lat": 52.39303628126104, "lng": 4.837201280497649}, {"name": "Weesp", "lat": 52.310630158587166, "lng": 5.036458969116211}, {"name": "Zwolle Railway Station (Station Zwolle)", "lat": 52.504980233065716, "lng": 6.091332580018552}, {"name": "Amersfoort Railway Station (Station Amersfoort)", "lat": 52.153576994222696, "lng": 5.373310646468697}, {"name": "Weesp", "lat": 52.310630158587166, "lng": 5.036458969116211}, {"name": "Uva", "lat": 40.7722435782595, "lng": -73.95575441021364}, {"name": "Salvo's Pizzabar", "lat": 40.77078584567459, "lng": -73.9510590675992}, {"name": "Kubrickology", "lat": 52.3605643449918, "lng": 4.880496370462649}, {"name": "Grand Hotel Opduin", "lat": 53.0979555766938, "lng": 4.758798254443129}, {"name": "Santa Clara Convention Center", "lat": 37.40441187160836, "lng": -121.97567375214359}, {"name": "Spaghetteria", "lat": 52.35349776449129, "lng": 4.902465220123396}, {"name": "Narita International Airport (NRT) (\u6210\u7530\u56fd\u969b\u7a7a\u6e2f)", "lat": 35.77190522612856, "lng": 140.38687589242883}, {"name": "Hotel Silla", "lat": 41.909199, "lng": 12.459096}, {"name": "Tate Modern", "lat": 51.507719557012486, "lng": -0.09966519882371298}, {"name": "Harlow Mill Railway Station (HWM)", "lat": 51.790403, "lng": 0.13233}, {"name": "Caf\u00e9 De Klos", "lat": 52.365283959032816, "lng": 4.885558417939811}, {"name": "Toussaint", "lat": 52.36572102359264, "lng": 4.876341819763184}, {"name": "Toussaint", "lat": 52.36572102359264, "lng": 4.876341819763184}, {"name": "Toussaint", "lat": 52.36572102359264, "lng": 4.876341819763184}, {"name": "Vis aan de Schelde", "lat": 52.344414, "lng": 4.890473}, {"name": "De Balie", "lat": 52.36311683217743, "lng": 4.883090257644653}, {"name": "Comedy Theater", "lat": 52.37001781, "lng": 4.893272}, {"name": "Toussaint", "lat": 52.36572102359264, "lng": 4.876341819763184}, {"name": "Toussaint", "lat": 52.36572102359264, "lng": 4.876341819763184}, {"name": "Caf\u00e9 De Klos", "lat": 52.365283959032816, "lng": 4.885558417939811}, {"name": "Caf\u00e9 Luxembourg", "lat": 52.368775, "lng": 4.889142}, {"name": "Caf\u00e9 Vrijdag", "lat": 51.98204590303066, "lng": 5.9152034190847465}, {"name": "Sugarfactory", "lat": 52.36479810916446, "lng": 4.881749153137207}, {"name": "North Sea Jazz Club", "lat": 52.38612558829538, "lng": 4.8744123060044915}, {"name": "Path\u00e9 Tuschinski", "lat": 52.366403170086535, "lng": 4.894820402019465}, {"name": "P.King", "lat": 52.36547862734887, "lng": 4.892563819885254}, {"name": "Bar Florian", "lat": 51.98230050778086, "lng": 5.906777681079501}, {"name": "Advena Bistro Cafe", "lat": 52.27250973947813, "lng": 8.058302455840424}, {"name": "Amsterdam Airport Schiphol (AMS)", "lat": 52.30923267175452, "lng": 4.7625577372555465}, {"name": "Theo Klaassen Drumservice", "lat": 52.30985405472443, "lng": 4.761218160197415}, {"name": "Toussaint", "lat": 52.36572102359264, "lng": 4.876341819763184}, {"name": "Koninklijk Theater Carr\u00e9", "lat": 52.362389021805356, "lng": 4.90393976086156}, {"name": "Bethani\u00ebnklooster", "lat": 52.372338788573224, "lng": 4.89862310363732}, {"name": "Postillion Hotel Amersfoort Veluwemeer", "lat": 52.26817145828311, "lng": 5.532025314649446}, {"name": "Rikkers gitaarbouw", "lat": 53.22661893256066, "lng": 6.598663682229057}, {"name": "The Seafood Bar", "lat": 52.35997477942264, "lng": 4.877381174216328}, {"name": "Caf\u00e9 Vrijdag", "lat": 51.98204590303066, "lng": 5.9152034190847465}, {"name": "People's Place", "lat": 52.36329487903528, "lng": 4.879533214381348}, {"name": "De Balie", "lat": 52.36311683217743, "lng": 4.883090257644653}, {"name": "The Seafood Bar", "lat": 52.35997477942264, "lng": 4.877381174216328}, {"name": "Toussaint", "lat": 52.36572102359264, "lng": 4.876341819763184}, {"name": "Caff\u00e8 Belmondo", "lat": 52.080361579305276, "lng": 4.3184460072101425}, {"name": "Hoppe", "lat": 52.368824824272146, "lng": 4.888866852515016}, {"name": "RELX", "lat": 52.39303628126104, "lng": 4.837201280497649}, {"name": "Duende", "lat": 52.38051919611826, "lng": 4.886164544346121}, {"name": "Caf\u00e9 't Bonte Paard", "lat": 52.25693190564774, "lng": 5.223698616027832}, {"name": "Kubrickolo.gy", "lat": 52.39093650557797, "lng": 4.830464964101317}, {"name": "The Seafood Bar", "lat": 52.35997477942264, "lng": 4.877381174216328}, {"name": "RELX", "lat": 52.39303628126104, "lng": 4.837201280497649}, {"name": "Path\u00e9 Tuschinski", "lat": 52.366403170086535, "lng": 4.894820402019465}, {"name": "P.King", "lat": 52.36547862734887, "lng": 4.892563819885254}, {"name": "RELX", "lat": 52.39303628126104, "lng": 4.837201280497649}, {"name": "The Seafood Bar", "lat": 52.35997477942264, "lng": 4.877381174216328}, {"name": "Toussaint", "lat": 52.36572102359264, "lng": 4.876341819763184}, {"name": "Spa Wellness", "lat": 52.29827052715252, "lng": 5.027661323547363}, {"name": "Stairway", "lat": 52.08994469336466, "lng": 5.116977834176556}, {"name": "RELX", "lat": 52.39303628126104, "lng": 4.837201280497649}, {"name": "The Seafood Bar", "lat": 52.35997477942264, "lng": 4.877381174216328}, {"name": "RELX", "lat": 52.39303628126104, "lng": 4.837201280497649}, {"name": "Kubrickolo.gy", "lat": 52.39093650557797, "lng": 4.830464964101317}, {"name": "Kubrickolo.gy", "lat": 52.39093650557797, "lng": 4.830464964101317}, {"name": "Kamer Van Koophandel", "lat": 52.38251518892232, "lng": 4.8940229415893555}, {"name": "Toussaint", "lat": 52.36572102359264, "lng": 4.876341819763184}, {"name": "Eetcaf\u00e9 Van Beeren", "lat": 52.37210069702588, "lng": 4.902357738264245}, {"name": "The American Book Center", "lat": 52.36896703972043, "lng": 4.889495372772216}, {"name": "Toussaint", "lat": 52.36572102359264, "lng": 4.876341819763184}, {"name": "Fit For Free", "lat": 52.381323, "lng": 4.891156}, {"name": "Path\u00e9 Tuschinski", "lat": 52.366403170086535, "lng": 4.894820402019465}, {"name": "Starbucks", "lat": 52.3660492867161, "lng": 4.89748556343617}, {"name": "Toussaint", "lat": 52.36572102359264, "lng": 4.876341819763184}, {"name": "RELX", "lat": 52.39303628126104, "lng": 4.837201280497649}, {"name": "Compagnietheater", "lat": 52.37020140044718, "lng": 4.897781077788455}, {"name": "Het Concertgebouw", "lat": 52.356151185800115, "lng": 4.8794529897790975}, {"name": "Solo Eten & Drinken", "lat": 52.3561997940526, "lng": 4.880129843307251}, {"name": "RELX", "lat": 52.39303628126104, "lng": 4.837201280497649}, {"name": "Cafe Pleinzicht", "lat": 52.37391574432005, "lng": 4.898456595452706}, {"name": "Dijk 120", "lat": 52.37349682734866, "lng": 4.9001596361510975}, {"name": "Gauchos", "lat": 52.36670697298532, "lng": 4.894028306007385}, {"name": "Hoppe", "lat": 52.368824824272146, "lng": 4.888866852515016}, {"name": "Caf\u00e9 Luxembourg", "lat": 52.368775, "lng": 4.889142}, {"name": "Amsterdam EXPO", "lat": 52.33693864261881, "lng": 4.8720502853393555}, {"name": "B&B", "lat": 52.33750345633959, "lng": 4.870025764727189}, {"name": "RELX", "lat": 52.39303628126104, "lng": 4.837201280497649}, {"name": "Toussaint", "lat": 52.36572102359264, "lng": 4.876341819763184}, {"name": "Earforce", "lat": 52.33755, "lng": 4.935832}, {"name": "RELX", "lat": 52.39303628126104, "lng": 4.837201280497649}, {"name": "RELX", "lat": 52.39303628126104, "lng": 4.837201280497649}, {"name": "Fit For Free", "lat": 52.381323, "lng": 4.891156}, {"name": "Cr\u00eaperie Le Berger", "lat": 52.37968604210279, "lng": 4.8935723304748535}, {"name": "Espressobar Tazzina", "lat": 52.38156168226328, "lng": 4.886129396206873}, {"name": "Toussaint", "lat": 52.36572102359264, "lng": 4.876341819763184}, {"name": "Fit For Free", "lat": 52.381323, "lng": 4.891156}, {"name": "Earforce", "lat": 52.33755, "lng": 4.935832}, {"name": "Babo Caf\u00e9", "lat": 51.98287909861344, "lng": 5.909174276468052}, {"name": "Graave Eten & Drinken", "lat": 51.979587014391136, "lng": 5.907118685942359}, {"name": "Fit For Free", "lat": 52.381323, "lng": 4.891156}, {"name": "RELX", "lat": 52.39303628126104, "lng": 4.837201280497649}, {"name": "Fit For Free", "lat": 52.381323, "lng": 4.891156}, {"name": "Fit For Free", "lat": 52.381323, "lng": 4.891156}, {"name": "Kubrickolo.gy", "lat": 52.39093650557797, "lng": 4.830464964101317}, {"name": "Fit For Free", "lat": 52.381323, "lng": 4.891156}, {"name": "Fit For Free", "lat": 52.381323, "lng": 4.891156}, {"name": "RELX", "lat": 52.39303628126104, "lng": 4.837201280497649}, {"name": "Spa Wellness", "lat": 52.29827052715252, "lng": 5.027661323547363}, {"name": "RELX", "lat": 52.39303628126104, "lng": 4.837201280497649}, {"name": "Cafe 020", "lat": 52.375186, "lng": 4.871015}, {"name": "Restaurant caf\u00e9 de IJ-kantine", "lat": 52.401495, "lng": 4.891021}, {"name": "Espressobar Tazzina", "lat": 52.38156168226328, "lng": 4.886129396206873}, {"name": "Toussaint", "lat": 52.36572102359264, "lng": 4.876341819763184}, {"name": "Path\u00e9 Rembrandt Arnhem", "lat": 51.984381266217916, "lng": 5.9120312333106995}, {"name": "Bar Florian", "lat": 51.98230050778086, "lng": 5.906777681079501}, {"name": "Espressobar Tazzina", "lat": 52.38156168226328, "lng": 4.886129396206873}, {"name": "Toussaint", "lat": 52.36572102359264, "lng": 4.876341819763184}, {"name": "Hilversum Airport (Vliegveld Hilversum)", "lat": 52.193148539617674, "lng": 5.152907255548942}, {"name": "Ameland Airport Ballum", "lat": 53.44855094529289, "lng": 5.686102758128594}, {"name": "Caf\u00e9 Nobel", "lat": 53.44367148137013, "lng": 5.687318196080954}, {"name": "Hilversum Airport (Vliegveld Hilversum)", "lat": 52.193148539617674, "lng": 5.152907255548942}, {"name": "Kubrickolo.gy", "lat": 52.39093650557797, "lng": 4.830464964101317}, {"name": "Carlton President Hotel Utrecht", "lat": 52.12076281382748, "lng": 5.0381433963775635}, {"name": "Koop Bronbemaling", "lat": 52.129195, "lng": 5.088132}, {"name": "Toussaint", "lat": 52.36572102359264, "lng": 4.876341819763184}, {"name": "Spaghetteria", "lat": 52.35349776449129, "lng": 4.902465220123396}, {"name": "Toussaint", "lat": 52.36572102359264, "lng": 4.876341819763184}, {"name": "Stadskasteel Oudaen", "lat": 52.09275451032142, "lng": 5.116911761774721}, {"name": "Koop Bronbemaling", "lat": 52.129195, "lng": 5.088132}, {"name": "The American Book Center", "lat": 52.36896703972043, "lng": 4.889495372772216}, {"name": "De Oude Taveerne", "lat": 52.3774592940137, "lng": 4.988672868032491}, {"name": "Toussaint", "lat": 52.36572102359264, "lng": 4.876341819763184}, {"name": "Path\u00e9 Tuschinski", "lat": 52.366403170086535, "lng": 4.894820402019465}, {"name": "Kubrickolo.gy", "lat": 52.39093650557797, "lng": 4.830464964101317}, {"name": "Kubrickolo.gy", "lat": 52.39093650557797, "lng": 4.830464964101317}, {"name": "Toussaint", "lat": 52.36572102359264, "lng": 4.876341819763184}, {"name": "RELX", "lat": 52.39303628126104, "lng": 4.837201280497649}, {"name": "Toussaint", "lat": 52.36572102359264, "lng": 4.876341819763184}, {"name": "RELX", "lat": 52.39303628126104, "lng": 4.837201280497649}, {"name": "Fit For Free Arnhem", "lat": 51.987205815370785, "lng": 5.933415494934803}, {"name": "Toussaint", "lat": 52.36572102359264, "lng": 4.876341819763184}, {"name": "Theater Odeon", "lat": 52.51047721502893, "lng": 6.091852549607971}, {"name": "Kubrickolo.gy", "lat": 52.39093650557797, "lng": 4.830464964101317}, {"name": "El Verano", "lat": 52.27333740063165, "lng": 5.159035921096802}, {"name": "Toussaint", "lat": 52.36572102359264, "lng": 4.876341819763184}, {"name": "Kubrickolo.gy", "lat": 52.39093650557797, "lng": 4.830464964101317}, {"name": "RELX", "lat": 52.39303628126104, "lng": 4.837201280497649}, {"name": "RELX", "lat": 52.39303628126104, "lng": 4.837201280497649}, {"name": "RELX", "lat": 52.39303628126104, "lng": 4.837201280497649}, {"name": "Cinetone", "lat": 52.337429, "lng": 4.936267}, {"name": "Earforce", "lat": 52.33755, "lng": 4.935832}, {"name": "MoBa", "lat": 51.980858076581704, "lng": 5.904175517874297}, {"name": "Eetcaf\u00e9 Van Beeren", "lat": 52.37210069702588, "lng": 4.902357738264245}, {"name": "RELX", "lat": 52.39303628126104, "lng": 4.837201280497649}, {"name": "Vischmarkt", "lat": 52.3513582953187, "lng": 5.619723356507592}, {"name": "Smith & Jones Poolcentrum", "lat": 52.090124, "lng": 5.116853}, {"name": "Racketcentrum Houten", "lat": 52.02805697688054, "lng": 5.173876197182411}, {"name": "Tapperij de Zwijger", "lat": 52.02704358430311, "lng": 5.16236605799776}, {"name": "Bar Florian", "lat": 51.98230050778086, "lng": 5.906777681079501}, {"name": "RELX", "lat": 52.39303628126104, "lng": 4.837201280497649}, {"name": "RELX", "lat": 52.39303628126104, "lng": 4.837201280497649}, {"name": "Racketcentrum Houten", "lat": 52.02805697688054, "lng": 5.173876197182411}, {"name": "Earforce", "lat": 52.33755, "lng": 4.935832}, {"name": "Noorderlicht", "lat": 52.399570226754, "lng": 4.8966890483948715}, {"name": "Pastis", "lat": 52.364862, "lng": 4.874088}, {"name": "Het Concertgebouw", "lat": 52.356151185800115, "lng": 4.8794529897790975}, {"name": "Toussaint", "lat": 52.36572102359264, "lng": 4.876341819763184}, {"name": "Kubrickolo.gy", "lat": 52.39093650557797, "lng": 4.830464964101317}, {"name": "Straks", "lat": 52.092068326987, "lng": 5.116218477487564}, {"name": "Kubrickolo.gy", "lat": 52.39093650557797, "lng": 4.830464964101317}, {"name": "Toussaint", "lat": 52.36572102359264, "lng": 4.876341819763184}, {"name": "Babo Caf\u00e9", "lat": 51.98287909861344, "lng": 5.909174276468052}, {"name": "Freaky Pianobar", "lat": 51.98248564488, "lng": 5.904500042418391}, {"name": "Arneym Lunch & Bites", "lat": 51.98227350171531, "lng": 5.906688565927889}, {"name": "Kubrickolo.gy", "lat": 52.39093650557797, "lng": 4.830464964101317}, {"name": "RELX", "lat": 52.39303628126104, "lng": 4.837201280497649}, {"name": "Kubrickolo.gy", "lat": 52.39093650557797, "lng": 4.830464964101317}, {"name": "RELX", "lat": 52.39303628126104, "lng": 4.837201280497649}, {"name": "Toussaint", "lat": 52.36572102359264, "lng": 4.876341819763184}, {"name": "Path\u00e9", "lat": 52.36648118187473, "lng": 4.893660533510497}, {"name": "Artez", "lat": 52.514067635174676, "lng": 6.095811125275468}, {"name": "Spaghetteria", "lat": 52.35349776449129, "lng": 4.902465220123396}, {"name": "Kubrickolo.gy", "lat": 52.39093650557797, "lng": 4.830464964101317}, {"name": "Fit For Free", "lat": 52.381323, "lng": 4.891156}, {"name": "Terra Preta Multimedia Studio", "lat": 52.382521, "lng": 4.857742}, {"name": "Kubrickolo.gy", "lat": 52.39093650557797, "lng": 4.830464964101317}, {"name": "Spaghetteria", "lat": 52.35349776449129, "lng": 4.902465220123396}, {"name": "Terra Preta Multimedia Studio", "lat": 52.382521, "lng": 4.857742}, {"name": "Starbucks", "lat": 52.389080498532294, "lng": 4.83766379804228}, {"name": "Eetcaf\u00e9 Van Beeren", "lat": 52.37210069702588, "lng": 4.902357738264245}, {"name": "Razmataz", "lat": 52.374531662802255, "lng": 4.872830208345636}, {"name": "Toussaint", "lat": 52.36572102359264, "lng": 4.876341819763184}, {"name": "Kubrickolo.gy", "lat": 52.39093650557797, "lng": 4.830464964101317}, {"name": "EYE", "lat": 52.384122836878994, "lng": 4.901005240759131}, {"name": "Toussaint", "lat": 52.36572102359264, "lng": 4.876341819763184}, {"name": "Kubrickolo.gy", "lat": 52.39093650557797, "lng": 4.830464964101317}, {"name": "Toussaint", "lat": 52.36572102359264, "lng": 4.876341819763184}, {"name": "Kubrickolo.gy", "lat": 52.39093650557797, "lng": 4.830464964101317}, {"name": "Spa Wellness", "lat": 52.29827052715252, "lng": 5.027661323547363}, {"name": "Zoomers", "lat": 52.55754055114569, "lng": 4.606487970150741}, {"name": "Strand Castricum", "lat": 52.55740465722111, "lng": 4.606658844662898}, {"name": "Kubrickolo.gy", "lat": 52.39093650557797, "lng": 4.830464964101317}, {"name": "Toussaint", "lat": 52.36572102359264, "lng": 4.876341819763184}, {"name": "Kubrickolo.gy", "lat": 52.39093650557797, "lng": 4.830464964101317}, {"name": "Whisky Caf\u00e9 L&B", "lat": 52.362817010861974, "lng": 4.885097573264141}, {"name": "Jazz Caf\u00e9 Alto", "lat": 52.36349242651208, "lng": 4.884371300142634}, {"name": "Hoppe", "lat": 52.368824824272146, "lng": 4.888866852515016}, {"name": "Squashcentrum Match", "lat": 52.34544416812631, "lng": 4.809552856907437}, {"name": "Toussaint", "lat": 52.36572102359264, "lng": 4.876341819763184}, {"name": "Kubrickolo.gy", "lat": 52.39093650557797, "lng": 4.830464964101317}, {"name": "Kubrickolo.gy", "lat": 52.39093650557797, "lng": 4.830464964101317}, {"name": "Toussaint", "lat": 52.36572102359264, "lng": 4.876341819763184}, {"name": "Kubrickolo.gy", "lat": 52.39093650557797, "lng": 4.830464964101317}, {"name": "Terra Preta Multimedia Studio", "lat": 52.382521, "lng": 4.857742}, {"name": "Kubrickolo.gy", "lat": 52.39093650557797, "lng": 4.830464964101317}, {"name": "Caf\u00e9 Luxembourg", "lat": 52.368775, "lng": 4.889142}, {"name": "Athenaeum Boekhandel", "lat": 52.368852511633456, "lng": 4.889081321504096}, {"name": "Toussaint", "lat": 52.36572102359264, "lng": 4.876341819763184}, {"name": "Kubrickolo.gy", "lat": 52.39093650557797, "lng": 4.830464964101317}, {"name": "Toussaint", "lat": 52.36572102359264, "lng": 4.876341819763184}, {"name": "Kubrickolo.gy", "lat": 52.39093650557797, "lng": 4.830464964101317}, {"name": "Kubrickolo.gy", "lat": 52.39093650557797, "lng": 4.830464964101317}, {"name": "Vlaams Friteshuis Vleminckx", "lat": 52.36787663174073, "lng": 4.8909186831423215}, {"name": "Athenaeum Boekhandel", "lat": 52.368852511633456, "lng": 4.889081321504096}, {"name": "Hoppe", "lat": 52.368824824272146, "lng": 4.888866852515016}, {"name": "Toussaint", "lat": 52.36572102359264, "lng": 4.876341819763184}, {"name": "Kubrickolo.gy", "lat": 52.39093650557797, "lng": 4.830464964101317}, {"name": "Terra Preta Multimedia Studio", "lat": 52.382521, "lng": 4.857742}, {"name": "Kubrickolo.gy", "lat": 52.39093650557797, "lng": 4.830464964101317}, {"name": "Kubrickolo.gy", "lat": 52.39093650557797, "lng": 4.830464964101317}, {"name": "Hoppe", "lat": 52.368824824272146, "lng": 4.888866852515016}, {"name": "Kubrickolo.gy", "lat": 52.39093650557797, "lng": 4.830464964101317}, {"name": "Kubrickolo.gy", "lat": 52.39093650557797, "lng": 4.830464964101317}, {"name": "Kubrickolo.gy", "lat": 52.39093650557797, "lng": 4.830464964101317}, {"name": "Kubrickolo.gy", "lat": 52.39093650557797, "lng": 4.830464964101317}, {"name": "Terra Preta Multimedia Studio", "lat": 52.382521, "lng": 4.857742}, {"name": "Kubrickolo.gy", "lat": 52.39093650557797, "lng": 4.830464964101317}, {"name": "Kubrickolo.gy", "lat": 52.39093650557797, "lng": 4.830464964101317}, {"name": "Noorderlicht", "lat": 52.399570226754, "lng": 4.8966890483948715}, {"name": "Das Spectrum", "lat": 52.111184428041916, "lng": 5.111520232117907}, {"name": "Squashcentrum Match", "lat": 52.34544416812631, "lng": 4.809552856907437}, {"name": "Kubrickolo.gy", "lat": 52.39093650557797, "lng": 4.830464964101317}, {"name": "Fit For Free", "lat": 52.381323, "lng": 4.891156}, {"name": "Kubrickolo.gy", "lat": 52.39093650557797, "lng": 4.830464964101317}, {"name": "Path\u00e9 Tuschinski", "lat": 52.366403170086535, "lng": 4.894820402019465}, {"name": "Toussaint", "lat": 52.36572102359264, "lng": 4.876341819763184}, {"name": "Terra Preta Multimedia Studio", "lat": 52.382521, "lng": 4.857742}, {"name": "Kubrickolo.gy", "lat": 52.39093650557797, "lng": 4.830464964101317}, {"name": "Toussaint", "lat": 52.36572102359264, "lng": 4.876341819763184}, {"name": "Caf\u00e9 de Postillon", "lat": 52.089120858499975, "lng": 5.121092032661903}, {"name": "NS Stations", "lat": 52.09053031127685, "lng": 5.109741222004852}, {"name": "Kubrickolo.gy", "lat": 52.39093650557797, "lng": 4.830464964101317}, {"name": "Amsterdam Airport Schiphol (AMS)", "lat": 52.30923267175452, "lng": 4.7625577372555465}, {"name": "Kubrickolo.gy", "lat": 52.39093650557797, "lng": 4.830464964101317}, {"name": "Kubrickolo.gy", "lat": 52.39093650557797, "lng": 4.830464964101317}, {"name": "Eetcaf\u00e9 Van Beeren", "lat": 52.37210069702588, "lng": 4.902357738264245}, {"name": "Kubrickolo.gy", "lat": 52.39093650557797, "lng": 4.830464964101317}, {"name": "Caf\u00e9 Vrijdag", "lat": 51.98204590303066, "lng": 5.9152034190847465}, {"name": "Kubrickolo.gy", "lat": 52.39093650557797, "lng": 4.830464964101317}, {"name": "Fit For Free", "lat": 52.381323, "lng": 4.891156}, {"name": "Kubrickolo.gy", "lat": 52.39093650557797, "lng": 4.830464964101317}, {"name": "Terra Preta Multimedia Studio", "lat": 52.382521, "lng": 4.857742}, {"name": "Kubrickolo.gy", "lat": 52.39093650557797, "lng": 4.830464964101317}, {"name": "Noorderlicht", "lat": 52.399570226754, "lng": 4.8966890483948715}, {"name": "Kubrickolo.gy", "lat": 52.39093650557797, "lng": 4.830464964101317}, {"name": "Kubrickolo.gy", "lat": 52.39093650557797, "lng": 4.830464964101317}, {"name": "Kubrickolo.gy", "lat": 52.39093650557797, "lng": 4.830464964101317}, {"name": "Fit For Free", "lat": 52.381323, "lng": 4.891156}, {"name": "Kubrickolo.gy", "lat": 52.39093650557797, "lng": 4.830464964101317}, {"name": "Toussaint", "lat": 52.36572102359264, "lng": 4.876341819763184}, {"name": "Terra Preta Multimedia Studio", "lat": 52.382521, "lng": 4.857742}, {"name": "Squashcentrum Match", "lat": 52.34544416812631, "lng": 4.809552856907437}, {"name": "Kubrickolo.gy", "lat": 52.39093650557797, "lng": 4.830464964101317}, {"name": "Kubrickolo.gy", "lat": 52.39093650557797, "lng": 4.830464964101317}, {"name": "Kubrickolo.gy", "lat": 52.39093650557797, "lng": 4.830464964101317}, {"name": "Jos\u00e9's Huis", "lat": 52.368133599013646, "lng": 5.234582246393173}, {"name": "Les T\u00eates Br\u00fbl\u00e9es", "lat": 48.864206594101105, "lng": 2.3500388860702515}, {"name": "La Ga\u00eet\u00e9 Lyrique", "lat": 48.866775611250205, "lng": 2.3535633087158203}, {"name": "Bistrot de la Gait\u00e9", "lat": 48.86710025787718, "lng": 2.353348731994629}, {"name": "H\u00f4tel de Roubaix", "lat": 48.865447411624466, "lng": 2.352915032199677}, {"name": "Kubrickolo.gy", "lat": 52.39093650557797, "lng": 4.830464964101317}, {"name": "Kubrickolo.gy", "lat": 52.39093650557797, "lng": 4.830464964101317}, {"name": "Earforce", "lat": 52.33755, "lng": 4.935832}, {"name": "Kubrickolo.gy", "lat": 52.39093650557797, "lng": 4.830464964101317}, {"name": "Fit For Free", "lat": 52.381323, "lng": 4.891156}, {"name": "Terra Preta Multimedia Studio", "lat": 52.382521, "lng": 4.857742}, {"name": "Kubrickolo.gy", "lat": 52.39093650557797, "lng": 4.830464964101317}, {"name": "Toussaint", "lat": 52.36572102359264, "lng": 4.876341819763184}, {"name": "Spa Wellness", "lat": 52.29827052715252, "lng": 5.027661323547363}, {"name": "Kubrickolo.gy", "lat": 52.39093650557797, "lng": 4.830464964101317}, {"name": "Stadthalle Speyer", "lat": 49.31824421292565, "lng": 8.42458041518783}, {"name": "Speyer", "lat": 49.31756930688871, "lng": 8.438272476196289}, {"name": "Cinema Paradiso", "lat": 48.205407907556, "lng": 15.623007756729677}, {"name": "Hotel Metropol", "lat": 48.20248, "lng": 15.625345985714288}, {"name": "InterCityHotel Mainz", "lat": 49.999296829135986, "lng": 8.258091895158243}, {"name": "Hot Jazz Club", "lat": 51.95179869705182, "lng": 7.643538545512308}, {"name": "Rosendahl", "lat": 52.01928393915481, "lng": 7.206348256605179}, {"name": "Universit\u00e4t Kassel", "lat": 51.322543001183135, "lng": 9.506351294587903}, {"name": "H4 Hotel Kassel", "lat": 51.31662198799767, "lng": 9.459918483726456}, {"name": "Hotel Braun", "lat": 49.665269266586265, "lng": 8.016133244053206}, {"name": "Rosendahl", "lat": 52.01928393915481, "lng": 7.206348256605179}, {"name": "Rosendahl", "lat": 52.01928393915481, "lng": 7.206348256605179}, {"name": "Restaurant Jackies", "lat": 52.25210292704504, "lng": 6.156761852045855}, {"name": "Albert Heijn", "lat": 52.463630219977524, "lng": 4.80970046767981}, {"name": "Toussaint", "lat": 52.36572102359264, "lng": 4.876341819763184}, {"name": "Apple Store", "lat": 52.363551, "lng": 4.882461}, {"name": "Kubrickolo.gy", "lat": 52.39093650557797, "lng": 4.830464964101317}, {"name": "Caf\u00e9 De Doelen", "lat": 52.36835454030276, "lng": 4.896572381258011}, {"name": "De Kleine Komedie", "lat": 52.367063, "lng": 4.895987}, {"name": "EYE", "lat": 52.384122836878994, "lng": 4.901005240759131}, {"name": "Hermitage Amsterdam", "lat": 52.365463961290274, "lng": 4.902853100025056}, {"name": "Terra Preta Multimedia Studio", "lat": 52.382521, "lng": 4.857742}, {"name": "Jos\u00e9's Huis", "lat": 52.368133599013646, "lng": 5.234582246393173}, {"name": "Caf\u00e9 Van Zuylen", "lat": 52.37461906118459, "lng": 4.889687020629518}, {"name": "Noorderlicht", "lat": 52.399570226754, "lng": 4.8966890483948715}, {"name": "Kubrickolo.gy", "lat": 52.39093650557797, "lng": 4.830464964101317}, {"name": "Terra Preta Multimedia Studio", "lat": 52.382521, "lng": 4.857742}, {"name": "Toussaint", "lat": 52.36572102359264, "lng": 4.876341819763184}, {"name": "Kubrickolo.gy", "lat": 52.39093650557797, "lng": 4.830464964101317}, {"name": "Kubrickolo.gy", "lat": 52.39093650557797, "lng": 4.830464964101317}, {"name": "Noorderlicht", "lat": 52.399570226754, "lng": 4.8966890483948715}, {"name": "Kubrickolo.gy", "lat": 52.39093650557797, "lng": 4.830464964101317}, {"name": "Kubrickolo.gy", "lat": 52.39093650557797, "lng": 4.830464964101317}, {"name": "ad & francesca", "lat": 52.22712745210302, "lng": 5.287798401476186}, {"name": "Kubrickolo.gy", "lat": 52.39093650557797, "lng": 4.830464964101317}, {"name": "Statens Museum for Kunst - SMK", "lat": 55.68848399318558, "lng": 12.578197717666626}, {"name": "Cafe Norden", "lat": 55.67886687253232, "lng": 12.57982313632965}, {"name": "Terra Preta Multimedia Studio", "lat": 52.382521, "lng": 4.857742}, {"name": "Jos\u00e9's Huis", "lat": 52.368133599013646, "lng": 5.234582246393173}, {"name": "EYE", "lat": 52.384122836878994, "lng": 4.901005240759131}, {"name": "Bob's huis", "lat": 52.46086950613447, "lng": 4.811379005522942}, {"name": "Terra Preta Multimedia Studio", "lat": 52.382521, "lng": 4.857742}, {"name": "Bodega-Bodega", "lat": 52.25621416576005, "lng": 5.225149597463314}, {"name": "Caf\u00e9 't Bonte Paard", "lat": 52.25693190564774, "lng": 5.223698616027832}, {"name": "'t Hofke", "lat": 51.21999839716136, "lng": 4.399359833489032}, {"name": "Cafe De Singel", "lat": 51.197823395797535, "lng": 4.393988549118464}, {"name": "Zeemanshuis Hotel", "lat": 51.22564836683305, "lng": 4.406642407667383}, {"name": "Amnesia", "lat": 51.21785860359396, "lng": 4.420715367597144}, {"name": "Kelly's Irish Pub", "lat": 51.21765295812299, "lng": 4.418356324619787}, {"name": "Ultimatum", "lat": 51.22086850253511, "lng": 4.3993089707106545}, {"name": "Grote Gans", "lat": 51.220673124093594, "lng": 4.402365613553338}, {"name": "Antwerp-Central Railway Station (Station Antwerpen-Centraal)", "lat": 51.21618610985961, "lng": 4.420931129469446}, {"name": "Amsterdam Central Railway Station (Station Amsterdam Centraal)", "lat": 52.37878224866535, "lng": 4.900374412536621}, {"name": "NH Collection Amsterdam Grand Hotel Krasnapolsky", "lat": 52.37279019614373, "lng": 4.894897565548369}, {"name": "Kubrickolo.gy", "lat": 52.39093650557797, "lng": 4.830464964101317}, {"name": "Toussaint", "lat": 52.36572102359264, "lng": 4.876341819763184}, {"name": "EYE", "lat": 52.384122836878994, "lng": 4.901005240759131}, {"name": "rijbewijsgigant", "lat": 52.46086805417788, "lng": 4.813915607773605}, {"name": "Caf\u00e9 Kobalt", "lat": 52.379522312779656, "lng": 4.894334077835083}, {"name": "Fit For Free", "lat": 52.381323, "lng": 4.891156}, {"name": "Kubrickolo.gy", "lat": 52.39093650557797, "lng": 4.830464964101317}, {"name": "Caf\u00e9 Kobalt", "lat": 52.379522312779656, "lng": 4.894334077835083}, {"name": "Fit For Free", "lat": 52.381323, "lng": 4.891156}, {"name": "Kubrickolo.gy", "lat": 52.39093650557797, "lng": 4.830464964101317}, {"name": "EYE", "lat": 52.384122836878994, "lng": 4.901005240759131}, {"name": "Bob's huis", "lat": 52.46086950613447, "lng": 4.811379005522942}, {"name": "Kubrickolo.gy", "lat": 52.39093650557797, "lng": 4.830464964101317}, {"name": "Fit For Free", "lat": 52.381323, "lng": 4.891156}, {"name": "Eetcaf\u00e9 De Toog", "lat": 52.45759834435768, "lng": 4.81120357042186}, {"name": "Kubrickolo.gy", "lat": 52.39093650557797, "lng": 4.830464964101317}, {"name": "Fit For Free", "lat": 52.381323, "lng": 4.891156}, {"name": "Kubrickolo.gy", "lat": 52.39093650557797, "lng": 4.830464964101317}, {"name": "Kubrickolo.gy", "lat": 52.39093650557797, "lng": 4.830464964101317}, {"name": "Artez", "lat": 52.514067635174676, "lng": 6.095811125275468}, {"name": "Terra Preta Multimedia Studio", "lat": 52.382521, "lng": 4.857742}, {"name": "Bar Florian", "lat": 51.98230050778086, "lng": 5.906777681079501}, {"name": "Kubrickolo.gy", "lat": 52.39093650557797, "lng": 4.830464964101317}, {"name": "Caf\u00e9 Kobalt", "lat": 52.379522312779656, "lng": 4.894334077835083}, {"name": "EYE", "lat": 52.384122836878994, "lng": 4.901005240759131}, {"name": "Kubrickolo.gy", "lat": 52.39093650557797, "lng": 4.830464964101317}, {"name": "Kubrickolo.gy", "lat": 52.39093650557797, "lng": 4.830464964101317}, {"name": "Kubrickolo.gy", "lat": 52.39093650557797, "lng": 4.830464964101317}, {"name": "Terra Preta Multimedia Studio", "lat": 52.382521, "lng": 4.857742}, {"name": "Jos\u00e9's Huis", "lat": 52.368133599013646, "lng": 5.234582246393173}, {"name": "Fit For Free", "lat": 52.381323, "lng": 4.891156}, {"name": "Bob's huis", "lat": 52.46086950613447, "lng": 4.811379005522942}, {"name": "EYE", "lat": 52.384122836878994, "lng": 4.901005240759131}, {"name": "Museumplein", "lat": 52.3574525953504, "lng": 4.881491661071777}, {"name": "Kubrickolo.gy", "lat": 52.39093650557797, "lng": 4.830464964101317}, {"name": "Zaal 100", "lat": 52.3830052542326, "lng": 4.8781351000064}, {"name": "Kubrickolo.gy", "lat": 52.39093650557797, "lng": 4.830464964101317}, {"name": "Bob's huis", "lat": 52.46086950613447, "lng": 4.811379005522942}, {"name": "Kubrickolo.gy", "lat": 52.39093650557797, "lng": 4.830464964101317}, {"name": "Caf\u00e9 Luxembourg", "lat": 52.368775, "lng": 4.889142}, {"name": "Kubrickolo.gy", "lat": 52.39093650557797, "lng": 4.830464964101317}, {"name": "Toussaint", "lat": 52.36572102359264, "lng": 4.876341819763184}, {"name": "Kubrickolo.gy", "lat": 52.39093650557797, "lng": 4.830464964101317}, {"name": "Fit For Free", "lat": 52.381323, "lng": 4.891156}, {"name": "Kubrickolo.gy", "lat": 52.39093650557797, "lng": 4.830464964101317}, {"name": "Caf\u00e9 Kobalt", "lat": 52.379522312779656, "lng": 4.894334077835083}, {"name": "Caf\u00e9 Luxembourg", "lat": 52.368775, "lng": 4.889142}, {"name": "Kubrickolo.gy", "lat": 52.39093650557797, "lng": 4.830464964101317}, {"name": "Toussaint", "lat": 52.36572102359264, "lng": 4.876341819763184}, {"name": "Kubrickolo.gy", "lat": 52.39093650557797, "lng": 4.830464964101317}, {"name": "Rosendahl", "lat": 52.01928393915481, "lng": 7.206348256605179}, {"name": "Fit For Free", "lat": 52.381323, "lng": 4.891156}, {"name": "Kubrickolo.gy", "lat": 52.39093650557797, "lng": 4.830464964101317}, {"name": "Bob's huis", "lat": 52.46086950613447, "lng": 4.811379005522942}, {"name": "Kubrickolo.gy", "lat": 52.39093650557797, "lng": 4.830464964101317}, {"name": "EYE", "lat": 52.384122836878994, "lng": 4.901005240759131}, {"name": "De Kroeg", "lat": 51.978621974999996, "lng": 5.9058184125}, {"name": "Kubrickolo.gy", "lat": 52.39093650557797, "lng": 4.830464964101317}, {"name": "Terra Preta Multimedia Studio", "lat": 52.382521, "lng": 4.857742}, {"name": "Jos\u00e9's Huis", "lat": 52.368133599013646, "lng": 5.234582246393173}, {"name": "Fit For Free", "lat": 52.381323, "lng": 4.891156}, {"name": "EYE", "lat": 52.384122836878994, "lng": 4.901005240759131}, {"name": "Bob's huis", "lat": 52.46086950613447, "lng": 4.811379005522942}, {"name": "Caf\u00e9 Kobalt", "lat": 52.379522312779656, "lng": 4.894334077835083}, {"name": "Bob's huis", "lat": 52.46086950613447, "lng": 4.811379005522942}, {"name": "Terra Preta Multimedia Studio", "lat": 52.382521, "lng": 4.857742}, {"name": "Jos\u00e9's Huis", "lat": 52.368133599013646, "lng": 5.234582246393173}, {"name": "EYE", "lat": 52.384122836878994, "lng": 4.901005240759131}, {"name": "Caf\u00e9 Van Velsen", "lat": 52.08993065053857, "lng": 5.117480316454088}, {"name": "'t College", "lat": 52.09062079282885, "lng": 5.11714586958312}, {"name": "Jos\u00e9's Huis", "lat": 52.368133599013646, "lng": 5.234582246393173}, {"name": "Kubrickolo.gy", "lat": 52.39093650557797, "lng": 4.830464964101317}, {"name": "Bob's huis", "lat": 52.46086950613447, "lng": 4.811379005522942}, {"name": "Kubrickolo.gy", "lat": 52.39093650557797, "lng": 4.830464964101317}, {"name": "Toussaint", "lat": 52.36572102359264, "lng": 4.876341819763184}, {"name": "Kubrickolo.gy", "lat": 52.39093650557797, "lng": 4.830464964101317}, {"name": "Bob's huis", "lat": 52.46086950613447, "lng": 4.811379005522942}, {"name": "Jos\u00e9's Huis", "lat": 52.368133599013646, "lng": 5.234582246393173}, {"name": "Kubrickolo.gy", "lat": 52.39093650557797, "lng": 4.830464964101317}, {"name": "Toussaint", "lat": 52.36572102359264, "lng": 4.876341819763184}, {"name": "Mary en Roel", "lat": 51.96064742397841, "lng": 5.967434850250667}, {"name": "Far\u00f8broerne", "lat": 54.946458266779665, "lng": 11.97911024093628}, {"name": "McJoy's Choice", "lat": 55.68010089950764, "lng": 12.590675354003906}, {"name": "Rundet\u00e5rn", "lat": 55.68129556990495, "lng": 12.575746178627014}, {"name": "Torvehallerne", "lat": 55.68380535833204, "lng": 12.569522883750302}, {"name": "Bellah\u00f8j Camping", "lat": 55.7013940150627, "lng": 12.513916701134153}, {"name": "Pastis", "lat": 55.68242253662171, "lng": 12.582041728884308}, {"name": "Caf\u00e9 Dan Turell", "lat": 55.68153916625204, "lng": 12.58172515790418}, {"name": "Statens Museum for Kunst - SMK", "lat": 55.68848399318558, "lng": 12.578197717666626}, {"name": "Cafe Norden", "lat": 55.67886687253232, "lng": 12.57982313632965}, {"name": "LEGO Store", "lat": 55.678658, "lng": 12.576179}, {"name": "Bellah\u00f8j Camping", "lat": 55.7013940150627, "lng": 12.513916701134153}, {"name": "Jernalderlandsbyen", "lat": 55.427809323430246, "lng": 10.329233169079322}, {"name": "Egeskov Slot", "lat": 55.174448094802436, "lng": 10.487514334729802}, {"name": "Svendborg Havn", "lat": 55.05931164279671, "lng": 10.614676423772215}, {"name": "Roel and Mary's Secret Camping Spot", "lat": 54.922328, "lng": 10.244806}, {"name": "Fynshav F\u00e6rgehavn", "lat": 54.9938531870742, "lng": 9.985692501068115}, {"name": "Landhotel M\u00f6llhagen", "lat": 54.16433899093954, "lng": 9.879510376768918}, {"name": "Caf\u00e9 Vrijdag", "lat": 51.98204590303066, "lng": 5.9152034190847465}, {"name": "Amsterdam Sloterdijk Station (Station Amsterdam Sloterdijk)", "lat": 52.38897225483043, "lng": 4.837861500336683}, {"name": "Caf\u00e9 Kobalt", "lat": 52.379522312779656, "lng": 4.894334077835083}, {"name": "Fit For Free", "lat": 52.381323, "lng": 4.891156}, {"name": "Ziggo Dome", "lat": 52.3136105761727, "lng": 4.938552509832211}, {"name": "Terra Preta Multimedia Studio", "lat": 52.382521, "lng": 4.857742}, {"name": "Mary en Roel", "lat": 51.96064742397841, "lng": 5.967434850250667}, {"name": "Caf\u00e9 Vrijdag", "lat": 51.98204590303066, "lng": 5.9152034190847465}, {"name": "Springhaver Theater", "lat": 52.08820829268549, "lng": 5.1191801195495765}, {"name": "Stripwinkel Blunder", "lat": 52.088328477217814, "lng": 5.1213508463897055}, {"name": "Terra Preta Multimedia Studio", "lat": 52.382521, "lng": 4.857742}, {"name": "Strandpavilioen Corazon", "lat": 51.74010751929659, "lng": 3.8146340887795707}, {"name": "Marina Port Z\u00e9lande", "lat": 51.75926079459099, "lng": 3.8585400581359863}, {"name": "Beachclub Perry's", "lat": 51.741969, "lng": 3.82231497}, {"name": "Center Parcs Port Z\u00e9lande", "lat": 51.755995243966616, "lng": 3.8593413739147397}, {"name": "Brasserie Het Vliegerhuys", "lat": 52.51306442637838, "lng": 6.094385509701484}, {"name": "Bob's huis", "lat": 52.46086950613447, "lng": 4.811379005522942}, {"name": "Kubrickolo.gy", "lat": 52.39093650557797, "lng": 4.830464964101317}, {"name": "Eetcaf\u00e9 Westpoort", "lat": 52.39159009324955, "lng": 4.852870333917722}, {"name": "Terra Preta Multimedia Studio", "lat": 52.382521, "lng": 4.857742}, {"name": "Terra Preta Multimedia Studio", "lat": 52.382521, "lng": 4.857742}, {"name": "Bob's huis", "lat": 52.46086950613447, "lng": 4.811379005522942}, {"name": "Fit For Free", "lat": 52.381323, "lng": 4.891156}, {"name": "Jos\u00e9's Huis", "lat": 52.368133599013646, "lng": 5.234582246393173}, {"name": "rijbewijsgigant", "lat": 52.46086805417788, "lng": 4.813915607773605}, {"name": "Bob's huis", "lat": 52.46086950613447, "lng": 4.811379005522942}, {"name": "Caf\u00e9 Kobalt", "lat": 52.379522312779656, "lng": 4.894334077835083}, {"name": "Station Zaandam Kogerveld", "lat": 52.45691581899127, "lng": 4.818988688251826}, {"name": "Kubrickolo.gy", "lat": 52.39093650557797, "lng": 4.830464964101317}, {"name": "Fit For Free", "lat": 52.381323, "lng": 4.891156}, {"name": "Caf\u00e9 Kobalt", "lat": 52.379522312779656, "lng": 4.894334077835083}, {"name": "Kubrickolo.gy", "lat": 52.39093650557797, "lng": 4.830464964101317}, {"name": "P.King", "lat": 52.36547862734887, "lng": 4.892563819885254}, {"name": "Terra Preta Multimedia Studio", "lat": 52.382521, "lng": 4.857742}, {"name": "Bob's huis", "lat": 52.46086950613447, "lng": 4.811379005522942}, {"name": "EYE", "lat": 52.384122836878994, "lng": 4.901005240759131}, {"name": "Bimhuis", "lat": 52.3779766780531, "lng": 4.912809133529663}, {"name": "Terra Preta Multimedia Studio", "lat": 52.382521, "lng": 4.857742}, {"name": "Bob's huis", "lat": 52.46086950613447, "lng": 4.811379005522942}, {"name": "Kubrickolo.gy", "lat": 52.39093650557797, "lng": 4.830464964101317}, {"name": "Terra Preta Multimedia Studio", "lat": 52.382521, "lng": 4.857742}, {"name": "Bob's huis", "lat": 52.46086950613447, "lng": 4.811379005522942}, {"name": "Caf\u00e9 Loetje", "lat": 52.25382315665254, "lng": 5.227911592831392}, {"name": "ad & francesca", "lat": 52.22712745210302, "lng": 5.287798401476186}, {"name": "Bob's huis", "lat": 52.46086950613447, "lng": 4.811379005522942}, {"name": "Path\u00e9 Tuschinski", "lat": 52.366403170086535, "lng": 4.894820402019465}, {"name": "In De Keulse Pot", "lat": 51.809584, "lng": 3.935639}, {"name": "Concert at SEA 2013", "lat": 51.74811617859468, "lng": 3.825156257678536}, {"name": "Fit For Free", "lat": 52.381323, "lng": 4.891156}, {"name": "rijbewijsgigant", "lat": 52.46086805417788, "lng": 4.813915607773605}, {"name": "Jos\u00e9's Huis", "lat": 52.368133599013646, "lng": 5.234582246393173}, {"name": "Kubrickolo.gy", "lat": 52.39093650557797, "lng": 4.830464964101317}, {"name": "De Bakkerswinkel", "lat": 52.38576324505702, "lng": 4.874711036682129}, {"name": "Konnichi Wa", "lat": 52.08998813378618, "lng": 5.1174190274194284}, {"name": "Fit For Free", "lat": 52.381323, "lng": 4.891156}, {"name": "Kubrickolo.gy", "lat": 52.39093650557797, "lng": 4.830464964101317}, {"name": "De Koekfabriek", "lat": 52.446305, "lng": 4.819934}, {"name": "De Bakkerswinkel", "lat": 52.38576324505702, "lng": 4.874711036682129}, {"name": "Fit For Free", "lat": 52.381323, "lng": 4.891156}, {"name": "Kubrickolo.gy", "lat": 52.39093650557797, "lng": 4.830464964101317}, {"name": "Kennmerduinen", "lat": 52.44980660113806, "lng": 4.575140770721518}, {"name": "Terra Preta Multimedia Studio", "lat": 52.382521, "lng": 4.857742}, {"name": "Caf\u00e9 Kobalt", "lat": 52.379522312779656, "lng": 4.894334077835083}, {"name": "Bob's huis", "lat": 52.46086950613447, "lng": 4.811379005522942}, {"name": "Kubrickolo.gy", "lat": 52.39093650557797, "lng": 4.830464964101317}, {"name": "Eetcaf\u00e9 Westpoort", "lat": 52.39159009324955, "lng": 4.852870333917722}, {"name": "Fit For Free", "lat": 52.381323, "lng": 4.891156}, {"name": "Kubrickolo.gy", "lat": 52.39093650557797, "lng": 4.830464964101317}, {"name": "Esso", "lat": 52.44256986729758, "lng": 4.855119915676098}, {"name": "Muziekgebouw aan 't IJ", "lat": 52.37809266488914, "lng": 4.912840083414216}, {"name": "Bimhuis", "lat": 52.3779766780531, "lng": 4.912809133529663}, {"name": "Bimhuis", "lat": 52.3779766780531, "lng": 4.912809133529663}, {"name": "Muziekgebouw aan 't IJ", "lat": 52.37809266488914, "lng": 4.912840083414216}, {"name": "Caf\u00e9 Kobalt", "lat": 52.379522312779656, "lng": 4.894334077835083}, {"name": "Terra Preta Multimedia Studio", "lat": 52.382521, "lng": 4.857742}, {"name": "Caf\u00e9 Kobalt", "lat": 52.379522312779656, "lng": 4.894334077835083}, {"name": "Spa Wellness", "lat": 52.29827052715252, "lng": 5.027661323547363}, {"name": "Terra Preta Multimedia Studio", "lat": 52.382521, "lng": 4.857742}, {"name": "EYE", "lat": 52.384122836878994, "lng": 4.901005240759131}, {"name": "Caf\u00e9 Kobalt", "lat": 52.379522312779656, "lng": 4.894334077835083}, {"name": "Fit For Free", "lat": 52.381323, "lng": 4.891156}, {"name": "Het Huis", "lat": 52.09683827106821, "lng": 5.1049213087102565}, {"name": "Kubrickolo.gy", "lat": 52.39093650557797, "lng": 4.830464964101317}, {"name": "ad & francesca", "lat": 52.22712745210302, "lng": 5.287798401476186}, {"name": "Kubrickolo.gy", "lat": 52.39093650557797, "lng": 4.830464964101317}, {"name": "P.King", "lat": 52.36547862734887, "lng": 4.892563819885254}, {"name": "Kubrickolo.gy", "lat": 52.39093650557797, "lng": 4.830464964101317}, {"name": "EYE", "lat": 52.384122836878994, "lng": 4.901005240759131}, {"name": "Bob's huis", "lat": 52.46086950613447, "lng": 4.811379005522942}, {"name": "rijbewijsgigant", "lat": 52.46086805417788, "lng": 4.813915607773605}, {"name": "Starbucks", "lat": 52.3660492867161, "lng": 4.89748556343617}, {"name": "Kubrickolo.gy", "lat": 52.39093650557797, "lng": 4.830464964101317}, {"name": "Fit For Free", "lat": 52.381323, "lng": 4.891156}, {"name": "Bob's huis", "lat": 52.46086950613447, "lng": 4.811379005522942}, {"name": "Bob's huis", "lat": 52.46086950613447, "lng": 4.811379005522942}, {"name": "rijbewijsgigant", "lat": 52.46086805417788, "lng": 4.813915607773605}, {"name": "Bob's huis", "lat": 52.46086950613447, "lng": 4.811379005522942}, {"name": "Fit For Free", "lat": 52.381323, "lng": 4.891156}, {"name": "Bob's huis", "lat": 52.46086950613447, "lng": 4.811379005522942}, {"name": "Terra Preta Multimedia Studio", "lat": 52.382521, "lng": 4.857742}, {"name": "Bob's huis", "lat": 52.46086950613447, "lng": 4.811379005522942}, {"name": "Bimhuis", "lat": 52.3779766780531, "lng": 4.912809133529663}, {"name": "Kubrickolo.gy", "lat": 52.39093650557797, "lng": 4.830464964101317}, {"name": "Bob's huis", "lat": 52.46086950613447, "lng": 4.811379005522942}, {"name": "Caf\u00e9 Luxembourg", "lat": 52.368775, "lng": 4.889142}, {"name": "Kubrickolo.gy", "lat": 52.39093650557797, "lng": 4.830464964101317}, {"name": "Starbucks", "lat": 52.3660492867161, "lng": 4.89748556343617}, {"name": "Fit For Free", "lat": 52.381323, "lng": 4.891156}, {"name": "Kubrickolo.gy", "lat": 52.39093650557797, "lng": 4.830464964101317}, {"name": "Spa Wellness", "lat": 52.29827052715252, "lng": 5.027661323547363}, {"name": "Fit For Free", "lat": 52.381323, "lng": 4.891156}, {"name": "Bob's huis", "lat": 52.46086950613447, "lng": 4.811379005522942}, {"name": "Kubrickolo.gy", "lat": 52.39093650557797, "lng": 4.830464964101317}, {"name": "UPS pickup centre", "lat": 52.3982466442635, "lng": 4.837192895741965}, {"name": "Kubrickolo.gy", "lat": 52.39093650557797, "lng": 4.830464964101317}, {"name": "Fit For Free", "lat": 52.381323, "lng": 4.891156}, {"name": "Kubrickolo.gy", "lat": 52.39093650557797, "lng": 4.830464964101317}, {"name": "Bob's huis", "lat": 52.46086950613447, "lng": 4.811379005522942}, {"name": "Kubrickolo.gy", "lat": 52.39093650557797, "lng": 4.830464964101317}, {"name": "Terra Preta Multimedia Studio", "lat": 52.382521, "lng": 4.857742}, {"name": "Dollars Rock Caf\u00e9", "lat": 51.982317680214415, "lng": 5.90383532678306}, {"name": "ZILLI", "lat": 51.98242066698302, "lng": 5.907581985417506}, {"name": "Bar Florian", "lat": 51.98230050778086, "lng": 5.906777681079501}, {"name": "Kr\u00f6ller M\u00fcller", "lat": 52.102907075462106, "lng": 5.786996981608223}, {"name": "Bob's huis", "lat": 52.46086950613447, "lng": 4.811379005522942}, {"name": "Kubrickolo.gy", "lat": 52.39093650557797, "lng": 4.830464964101317}, {"name": "Fit For Free", "lat": 52.381323, "lng": 4.891156}, {"name": "Bob's huis", "lat": 52.46086950613447, "lng": 4.811379005522942}, {"name": "Kubrickolo.gy", "lat": 52.39093650557797, "lng": 4.830464964101317}, {"name": "Terra Preta Multimedia Studio", "lat": 52.382521, "lng": 4.857742}, {"name": "Bob's huis", "lat": 52.46086950613447, "lng": 4.811379005522942}, {"name": "Kubrickolo.gy", "lat": 52.39093650557797, "lng": 4.830464964101317}, {"name": "Terra Preta Multimedia Studio", "lat": 52.382521, "lng": 4.857742}, {"name": "Fit For Free", "lat": 52.381323, "lng": 4.891156}, {"name": "Bob's huis", "lat": 52.46086950613447, "lng": 4.811379005522942}, {"name": "Bob's huis", "lat": 52.46086950613447, "lng": 4.811379005522942}, {"name": "Terra Preta Multimedia Studio", "lat": 52.382521, "lng": 4.857742}, {"name": "Bob's huis", "lat": 52.46086950613447, "lng": 4.811379005522942}, {"name": "De Kleine Komedie", "lat": 52.367063, "lng": 4.895987}, {"name": "Starbucks", "lat": 52.3660492867161, "lng": 4.89748556343617}, {"name": "Bob's huis", "lat": 52.46086950613447, "lng": 4.811379005522942}, {"name": "Babo Caf\u00e9", "lat": 51.98287909861344, "lng": 5.909174276468052}, {"name": "Kubrickolo.gy", "lat": 52.39093650557797, "lng": 4.830464964101317}, {"name": "Bob's huis", "lat": 52.46086950613447, "lng": 4.811379005522942}, {"name": "Kubrickolo.gy", "lat": 52.39093650557797, "lng": 4.830464964101317}, {"name": "Bob's huis", "lat": 52.46086950613447, "lng": 4.811379005522942}, {"name": "Kubrickolo.gy", "lat": 52.39093650557797, "lng": 4.830464964101317}, {"name": "Kubrickolo.gy", "lat": 52.39093650557797, "lng": 4.830464964101317}, {"name": "Bob's huis", "lat": 52.46086950613447, "lng": 4.811379005522942}, {"name": "Postillion Hotel Amersfoort Veluwemeer", "lat": 52.26817145828311, "lng": 5.532025314649446}, {"name": "Bob's huis", "lat": 52.46086950613447, "lng": 4.811379005522942}, {"name": "Caf\u00e9 Langereis", "lat": 52.366235156570035, "lng": 4.900115162186789}, {"name": "De Kleine Komedie", "lat": 52.367063, "lng": 4.895987}, {"name": "Starbucks", "lat": 52.3660492867161, "lng": 4.89748556343617}, {"name": "De Bijenkorf", "lat": 52.37367647640282, "lng": 4.894392057276645}, {"name": "Athenaeum Boekhandel", "lat": 52.368852511633456, "lng": 4.889081321504096}, {"name": "De Bakkerswinkel", "lat": 52.38576324505702, "lng": 4.874711036682129}, {"name": "O'Leary's Irish Pub & Restaurant", "lat": 52.099196007254, "lng": 5.115825820256804}, {"name": "EKKO", "lat": 52.09748970135219, "lng": 5.114489793777466}, {"name": "Kubrickolo.gy", "lat": 52.39093650557797, "lng": 4.830464964101317}, {"name": "Bob's huis", "lat": 52.46086950613447, "lng": 4.811379005522942}, {"name": "Kubrickolo.gy", "lat": 52.39093650557797, "lng": 4.830464964101317}, {"name": "Caf\u00e9 Kobalt", "lat": 52.379522312779656, "lng": 4.894334077835083}, {"name": "Kubrickolo.gy", "lat": 52.39093650557797, "lng": 4.830464964101317}, {"name": "Fit For Free", "lat": 52.381323, "lng": 4.891156}, {"name": "Kubrickolo.gy", "lat": 52.39093650557797, "lng": 4.830464964101317}, {"name": "Bob's huis", "lat": 52.46086950613447, "lng": 4.811379005522942}, {"name": "Mary en Roel", "lat": 51.96064742397841, "lng": 5.967434850250667}, {"name": "Bar Florian", "lat": 51.98230050778086, "lng": 5.906777681079501}, {"name": "Le Grand Caf\u00e9", "lat": 51.982615784683915, "lng": 5.904691852085376}, {"name": "Bar Florian", "lat": 51.98230050778086, "lng": 5.906777681079501}, {"name": "De Bakkerswinkel", "lat": 52.38576324505702, "lng": 4.874711036682129}, {"name": "Fit For Free", "lat": 52.381323, "lng": 4.891156}, {"name": "Bob's huis", "lat": 52.46086950613447, "lng": 4.811379005522942}, {"name": "Cirque Royal / Koninklijk Circus (Koninklijk Circus)", "lat": 50.84884060211883, "lng": 4.366006533864883}, {"name": "Brussels-South Railway Station (ZYR) (Station Brussel-Zuid)", "lat": 50.83601179838207, "lng": 4.3365206163458945}, {"name": "Amsterdam Central Railway Station (Station Amsterdam Centraal)", "lat": 52.37878224866535, "lng": 4.900374412536621}, {"name": "Starbucks", "lat": 52.37898061166784, "lng": 4.899619024607492}, {"name": "Bob's huis", "lat": 52.46086950613447, "lng": 4.811379005522942}, {"name": "Kubrickolo.gy", "lat": 52.39093650557797, "lng": 4.830464964101317}, {"name": "De Oude Wester", "lat": 52.374050129615064, "lng": 4.882671833038329}, {"name": "Fit For Free", "lat": 52.381323, "lng": 4.891156}, {"name": "Caf\u00e9 Kobalt", "lat": 52.379522312779656, "lng": 4.894334077835083}, {"name": "De Bijenkorf", "lat": 52.37367647640282, "lng": 4.894392057276645}, {"name": "Athenaeum Boekhandel", "lat": 52.368852511633456, "lng": 4.889081321504096}]