[{"name": "Helsinki Airport  (HEL) (Helsinki Airport (HEL))", "now": true, "lng": 24.967755547739205, "type": "Airport", "lat": 60.318483329798084}, {"name": "Amsterdam Airport Schiphol (AMS)", "now": false, "lng": 4.761989321616131, "type": "Airport", "lat": 52.310244621325296}, {"name": "Pulkovo International Airport (LED) (\u041c\u0435\u0436\u0434\u0443\u043d\u0430\u0440\u043e\u0434\u043d\u044b\u0439 \u0430\u044d\u0440\u043e\u043f\u043e\u0440\u0442 \u041f\u0443\u043b\u043a\u043e\u0432\u043e)", "now": false, "lng": 30.272676944732666, "type": "Airport", "lat": 59.79972760043299}, {"name": "Amsterdam Airport Schiphol (AMS)", "now": false, "lng": 4.761989321616131, "type": "Airport", "lat": 52.310244621325296}, {"name": "Spaghetteria", "now": false, "lng": 4.902465220123396, "type": "Italian Restaurant", "lat": 52.35349776449129}, {"name": "Ichi-E", "now": false, "lng": 4.945432293001321, "type": "Sushi Restaurant", "lat": 52.3127193713622}, {"name": "Amsterdam Airport Schiphol (AMS)", "now": false, "lng": 4.761989321616131, "type": "Airport", "lat": 52.310244621325296}, {"name": "Sheremetyevo International Airport (SVO) (\u041c\u0435\u0436\u0434\u0443\u043d\u0430\u0440\u043e\u0434\u043d\u044b\u0439 \u0430\u044d\u0440\u043e\u043f\u043e\u0440\u0442 \u0428\u0435\u0440\u0435\u043c\u0435\u0442\u044c\u0435\u0432\u043e)", "now": false, "lng": 37.40808242719677, "type": "Airport", "lat": 55.96387530807073}, {"name": "Rostov-on-Don Airport (ROV) (\u0410\u044d\u0440\u043e\u043f\u043e\u0440\u0442 \u0420\u043e\u0441\u0442\u043e\u0432-\u043d\u0430-\u0414\u043e\u043d\u0443)", "now": false, "lng": 39.80370198965598, "type": "Airport", "lat": 47.2555505243379}, {"name": "\u0420\u0418\u0421-54", "now": false, "lng": 39.70411510165484, "type": "Asian Restaurant", "lat": 47.226186655230286}, {"name": "Marins Park Hotel", "now": false, "lng": 39.70369530468808, "type": "Hotel", "lat": 47.226946865978356}, {"name": "Rostov-on-Don Airport (ROV) (\u0410\u044d\u0440\u043e\u043f\u043e\u0440\u0442 \u0420\u043e\u0441\u0442\u043e\u0432-\u043d\u0430-\u0414\u043e\u043d\u0443)", "now": false, "lng": 39.80370198965598, "type": "Airport", "lat": 47.2555505243379}, {"name": "Sheremetyevo International Airport (SVO) (\u041c\u0435\u0436\u0434\u0443\u043d\u0430\u0440\u043e\u0434\u043d\u044b\u0439 \u0430\u044d\u0440\u043e\u043f\u043e\u0440\u0442 \u0428\u0435\u0440\u0435\u043c\u0435\u0442\u044c\u0435\u0432\u043e)", "now": false, "lng": 37.40808242719677, "type": "Airport", "lat": 55.96387530807073}, {"name": "Amsterdam Airport Schiphol (AMS)", "now": false, "lng": 4.761989321616131, "type": "Airport", "lat": 52.310244621325296}, {"name": "Amsterdam Airport Schiphol (AMS)", "now": false, "lng": 4.761989321616131, "type": "Airport", "lat": 52.310244621325296}, {"name": "John Paul II International Airport Krak\u00f3w\u2013Balice (KRK) (Mi\u0119dzynarodowy Port Lotniczy im. Jana Paw\u0142a II Krak\u00f3w-Balice)", "now": false, "lng": 19.801693312365792, "type": "Airport", "lat": 50.07224620341886}, {"name": "Krakow", "now": false, "lng": 19.788118, "type": "Airport Service", "lat": 50.076977}, {"name": "Amsterdam Airport Schiphol (AMS)", "now": false, "lng": 4.761989321616131, "type": "Airport", "lat": 52.310244621325296}, {"name": "Teuge International Airport (EHTE)", "now": false, "lng": 6.048317551365021, "type": "Airport", "lat": 52.24111846696927}, {"name": "Hilversum Airport (Vliegveld Hilversum)", "now": false, "lng": 5.15286265255035, "type": "Airport", "lat": 52.193252782368106}, {"name": "Keflavik International Airport (KEF) (Keflav\u00edkurflugv\u00f6llur)", "now": false, "lng": -22.622909545898438, "type": "Airport", "lat": 63.99117062931456}, {"name": "Keflavik International Airport (KEF) (Keflav\u00edkurflugv\u00f6llur)", "now": false, "lng": -22.622909545898438, "type": "Airport", "lat": 63.99117062931456}, {"name": "Amsterdam Airport Schiphol (AMS)", "now": false, "lng": 4.761989321616131, "type": "Airport", "lat": 52.310244621325296}, {"name": "Amsterdam Airport Schiphol (AMS)", "now": false, "lng": 4.761989321616131, "type": "Airport", "lat": 52.310244621325296}, {"name": "London City Airport (LCY)", "now": false, "lng": 0.04895487974538035, "type": "Airport", "lat": 51.50411133334797}, {"name": "London City Airport (LCY)", "now": false, "lng": 0.04895487974538035, "type": "Airport", "lat": 51.50411133334797}, {"name": "Amsterdam Airport Schiphol (AMS)", "now": false, "lng": 4.761989321616131, "type": "Airport", "lat": 52.310244621325296}, {"name": "Amsterdam Airport Schiphol (AMS)", "now": false, "lng": 4.761989321616131, "type": "Airport", "lat": 52.310244621325296}, {"name": "Paris Charles de Gaulle Airport (CDG) (A\u00e9roport Paris-Charles de Gaulle)", "now": false, "lng": 2.5702929199346776, "type": "Airport", "lat": 49.004685160970574}, {"name": "John F. Kennedy International Airport (JFK)", "now": false, "lng": -73.78301433306402, "type": "Airport", "lat": 40.64561432704259}, {"name": "John F. Kennedy International Airport (JFK)", "now": false, "lng": -73.78301433306402, "type": "Airport", "lat": 40.64561432704259}, {"name": "Amsterdam Airport Schiphol (AMS)", "now": false, "lng": 4.761989321616131, "type": "Airport", "lat": 52.310244621325296}, {"name": "Amsterdam Airport Schiphol (AMS)", "now": false, "lng": 4.761989321616131, "type": "Airport", "lat": 52.310244621325296}, {"name": "San Francisco International Airport (SFO)", "now": false, "lng": -122.38505294512811, "type": "Airport", "lat": 37.61681544184565}, {"name": "San Francisco International Airport (SFO)", "now": false, "lng": -122.38505294512811, "type": "Airport", "lat": 37.61681544184565}, {"name": "Salt Lake City International Airport (SLC)", "now": false, "lng": -111.98068124861207, "type": "Airport", "lat": 40.786642436049235}, {"name": "Amsterdam Airport Schiphol (AMS)", "now": false, "lng": 4.761989321616131, "type": "Airport", "lat": 52.310244621325296}, {"name": "Copenhagen Airport (CPH) (K\u00f8benhavns Lufthavn)", "now": false, "lng": 12.648707054161264, "type": "Airport", "lat": 55.62846451577045}, {"name": "Salt Lake City International Airport (SLC)", "now": false, "lng": -111.98068124861207, "type": "Airport", "lat": 40.786642436049235}, {"name": "McCarran International Airport (LAS)", "now": false, "lng": -115.1485106341837, "type": "Airport", "lat": 36.0832711280774}, {"name": "McCarran International Airport (LAS)", "now": false, "lng": -115.1485106341837, "type": "Airport", "lat": 36.0832711280774}, {"name": "Los Angeles International Airport (LAX)", "now": false, "lng": -118.405601978302, "type": "Airport", "lat": 33.94332434443264}, {"name": "San Francisco International Airport (SFO)", "now": false, "lng": -122.38505294512811, "type": "Airport", "lat": 37.61681544184565}, {"name": "San Francisco International Airport (SFO)", "now": false, "lng": -122.38505294512811, "type": "Airport", "lat": 37.61681544184565}, {"name": "Los Angeles International Airport (LAX)", "now": false, "lng": -118.405601978302, "type": "Airport", "lat": 33.94332434443264}, {"name": "Austin Bergstrom International Airport (AUS)", "now": false, "lng": -97.66929506783335, "type": "Airport", "lat": 30.202409857789302}, {"name": "Austin Bergstrom International Airport (AUS)", "now": false, "lng": -97.66929506783335, "type": "Airport", "lat": 30.202409857789302}, {"name": "Salt Lake City International Airport (SLC)", "now": false, "lng": -111.98068124861207, "type": "Airport", "lat": 40.786642436049235}, {"name": "San Francisco International Airport (SFO)", "now": false, "lng": -122.38505294512811, "type": "Airport", "lat": 37.61681544184565}, {"name": "San Francisco International Airport (SFO)", "now": false, "lng": -122.38505294512811, "type": "Airport", "lat": 37.61681544184565}, {"name": "Amsterdam Airport Schiphol (AMS)", "now": false, "lng": 4.761989321616131, "type": "Airport", "lat": 52.310244621325296}, {"name": "Amsterdam Airport Schiphol (AMS)", "now": false, "lng": 4.761989321616131, "type": "Airport", "lat": 52.310244621325296}, {"name": "San Francisco International Airport (SFO)", "now": false, "lng": -122.38505294512811, "type": "Airport", "lat": 37.61681544184565}, {"name": "San Francisco International Airport (SFO)", "now": false, "lng": -122.38505294512811, "type": "Airport", "lat": 37.61681544184565}, {"name": "Amsterdam Airport Schiphol (AMS)", "now": false, "lng": 4.761989321616131, "type": "Airport", "lat": 52.310244621325296}, {"name": "Vienna International Airport (VIE) (Flughafen Wien-Schwechat)", "now": false, "lng": 16.563790050404382, "type": "Airport", "lat": 48.119337859865524}, {"name": "Amsterdam Airport Schiphol (AMS)", "now": false, "lng": 4.761989321616131, "type": "Airport", "lat": 52.310244621325296}, {"name": "Aeropuerto de Bilbao (BIO)", "now": false, "lng": -2.906193095271163, "type": "Airport", "lat": 43.30506821648937}, {"name": "Aeropuerto de Bilbao (BIO)", "now": false, "lng": -2.906193095271163, "type": "Airport", "lat": 43.30506821648937}, {"name": "Amsterdam Airport Schiphol (AMS)", "now": false, "lng": 4.761989321616131, "type": "Airport", "lat": 52.310244621325296}, {"name": "London City Airport (LCY)", "now": false, "lng": 0.04895487974538035, "type": "Airport", "lat": 51.50411133334797}, {"name": "London City Airport (LCY)", "now": false, "lng": 0.04895487974538035, "type": "Airport", "lat": 51.50411133334797}, {"name": "Amsterdam Airport Schiphol (AMS)", "now": false, "lng": 4.761989321616131, "type": "Airport", "lat": 52.310244621325296}, {"name": "Stockholm-Arlanda Airport (ARN)", "now": false, "lng": 17.93097496032715, "type": "Airport", "lat": 59.650527933419625}, {"name": "Stockholm V\u00e4ster\u00e5s Flygplats (VST)", "now": false, "lng": 16.628351651724433, "type": "Airport", "lat": 59.60183262632053}, {"name": "Helsinki Airport  (HEL) (Helsinki Airport (HEL))", "now": false, "lng": 24.967755547739205, "type": "Airport", "lat": 60.318483329798084}, {"name": "Amsterdam Airport Schiphol (AMS)", "now": false, "lng": 4.761989321616131, "type": "Airport", "lat": 52.310244621325296}, {"name": "Naples International Airport \"Ugo Niutta\" (NAP) (Aeroporto Internazionale di Napoli Capodichino \"Ugo Niutta\")", "now": false, "lng": 14.28242859593664, "type": "Airport", "lat": 40.87793476627525}, {"name": "Naples International Airport \"Ugo Niutta\" (NAP) (Aeroporto Internazionale di Napoli Capodichino \"Ugo Niutta\")", "now": false, "lng": 14.28242859593664, "type": "Airport", "lat": 40.87793476627525}, {"name": "Amsterdam Airport Schiphol (AMS)", "now": false, "lng": 4.761989321616131, "type": "Airport", "lat": 52.310244621325296}, {"name": "Amsterdam Airport Schiphol (AMS)", "now": false, "lng": 4.761989321616131, "type": "Airport", "lat": 52.310244621325296}, {"name": "Pulkovo International Airport (LED) (\u041c\u0435\u0436\u0434\u0443\u043d\u0430\u0440\u043e\u0434\u043d\u044b\u0439 \u0430\u044d\u0440\u043e\u043f\u043e\u0440\u0442 \u041f\u0443\u043b\u043a\u043e\u0432\u043e)", "now": false, "lng": 30.273572934764662, "type": "Airport", "lat": 59.79963388793562}, {"name": "Pulkovo International Airport (LED) (\u041c\u0435\u0436\u0434\u0443\u043d\u0430\u0440\u043e\u0434\u043d\u044b\u0439 \u0430\u044d\u0440\u043e\u043f\u043e\u0440\u0442 \u041f\u0443\u043b\u043a\u043e\u0432\u043e)", "now": false, "lng": 30.273572934764662, "type": "Airport", "lat": 59.79963388793562}, {"name": "Amsterdam Airport Schiphol (AMS)", "now": false, "lng": 4.761989321616131, "type": "Airport", "lat": 52.310244621325296}, {"name": "San Francisco International Airport (SFO)", "now": false, "lng": -122.38505294512811, "type": "Airport", "lat": 37.61681544184565}, {"name": "San Francisco International Airport (SFO)", "now": false, "lng": -122.38505294512811, "type": "Airport", "lat": 37.61681544184565}, {"name": "Amsterdam Airport Schiphol (AMS)", "now": false, "lng": 4.761989321616131, "type": "Airport", "lat": 52.310244621325296}, {"name": "Choux", "now": false, "lng": 4.907260213346564, "type": "Restaurant", "lat": 52.377693060623656}, {"name": "Spaghetteria", "now": false, "lng": 4.902465220123396, "type": "Italian Restaurant", "lat": 52.35349776449129}, {"name": "Park Hyatt Tokyo (\u30d1\u30fc\u30af\u30cf\u30a4\u30a2\u30c3\u30c8\u6771\u4eac)", "now": false, "lng": 139.6906391, "type": "Hotel", "lat": 35.68557476}, {"name": "HOTEL COCOGRAND UENOSHINOBAZU (\u30db\u30c6\u30eb \u30b3\u30b3\u30fb\u30b0\u30e9\u30f3\u4e0a\u91ce\u4e0d\u5fcd)", "now": false, "lng": 139.771525, "type": "Hotel", "lat": 35.709444}, {"name": "Narita International Airport (NRT) (\u6210\u7530\u56fd\u969b\u7a7a\u6e2f)", "now": false, "lng": 140.38690110877957, "type": "Airport", "lat": 35.77285329514216}, {"name": "Amsterdam Airport Schiphol (AMS)", "now": false, "lng": 4.761989321616131, "type": "Airport", "lat": 52.310244621325296}, {"name": "DoubleTree by Hilton Hotel", "now": false, "lng": 4.905077493675435, "type": "Hotel", "lat": 52.37678563024838}, {"name": "Spaghetteria", "now": false, "lng": 4.902465220123396, "type": "Italian Restaurant", "lat": 52.35349776449129}, {"name": "De Ysbreeker", "now": false, "lng": 4.906507679690257, "type": "Restaurant", "lat": 52.35746646338605}, {"name": "Hosokawa", "now": false, "lng": 4.883136925315649, "type": "Japanese Restaurant", "lat": 52.362653101865135}, {"name": "Conservatorium Hotel", "now": false, "lng": 4.878992977693823, "type": "Hotel", "lat": 52.35862410711441}, {"name": "Brasserie Herengracht 75", "now": false, "lng": 5.06915, "type": "French Restaurant", "lat": 52.329746}, {"name": "Grieks restaurant Niki", "now": false, "lng": 5.043145874117438, "type": "Greek Restaurant", "lat": 52.30809477675751}, {"name": "Gent aan de Schinkel", "now": false, "lng": 4.853131516068616, "type": "Belgian Restaurant", "lat": 52.35475521974998}, {"name": "Franklin Bar & Kitchen", "now": false, "lng": 4.855798129255578, "type": "Restaurant", "lat": 52.35364083588143}, {"name": "Fa. Speijkervet", "now": false, "lng": 4.860007776364371, "type": "French Restaurant", "lat": 52.37127227602769}, {"name": "Amsterdam Airport Schiphol (AMS)", "now": false, "lng": 4.761989321616131, "type": "Airport", "lat": 52.310244621325296}, {"name": "San Francisco International Airport (SFO)", "now": false, "lng": -122.38505294512811, "type": "Airport", "lat": 37.61681544184565}, {"name": "Slanted Door", "now": false, "lng": -122.3938000202179, "type": "Vietnamese Restaurant", "lat": 37.79619516102866}, {"name": "San Francisco International Airport (SFO)", "now": false, "lng": -122.38505294512811, "type": "Airport", "lat": 37.61681544184565}, {"name": "Amsterdam Airport Schiphol (AMS)", "now": false, "lng": 4.761989321616131, "type": "Airport", "lat": 52.310244621325296}, {"name": "Amsterdam Airport Schiphol (AMS)", "now": false, "lng": 4.761989321616131, "type": "Airport", "lat": 52.310244621325296}, {"name": "London Heathrow Airport (LHR)", "now": false, "lng": -0.46234846115112305, "type": "Airport", "lat": 51.469407923261336}, {"name": "London City Airport (LCY)", "now": false, "lng": 0.04895487974538035, "type": "Airport", "lat": 51.50411133334797}, {"name": "Amsterdam Airport Schiphol (AMS)", "now": false, "lng": 4.761989321616131, "type": "Airport", "lat": 52.310244621325296}, {"name": "Dublin Airport (DUB)", "now": false, "lng": -6.245220088431431, "type": "Airport", "lat": 53.427327564801736}, {"name": "Amsterdam Airport Schiphol (AMS)", "now": false, "lng": 4.761989321616131, "type": "Airport", "lat": 52.310244621325296}, {"name": "London City Airport (LCY)", "now": false, "lng": 0.04895487974538035, "type": "Airport", "lat": 51.50411133334797}, {"name": "Amsterdam Airport Schiphol (AMS)", "now": false, "lng": 4.761989321616131, "type": "Airport", "lat": 52.310244621325296}, {"name": "Amsterdam Airport Schiphol (AMS)", "now": false, "lng": 4.761989321616131, "type": "Airport", "lat": 52.310244621325296}, {"name": "London Heathrow Airport (LHR)", "now": false, "lng": -0.46234846115112305, "type": "Airport", "lat": 51.469407923261336}, {"name": "Heathrow Terminal 4", "now": false, "lng": -1.1515311995626192, "type": "Airport Terminal", "lat": 51.75924697957355}, {"name": "Amsterdam Airport Schiphol (AMS)", "now": false, "lng": 4.761989321616131, "type": "Airport", "lat": 52.310244621325296}, {"name": "Amsterdam Airport Schiphol (AMS)", "now": false, "lng": 4.761989321616131, "type": "Airport", "lat": 52.310244621325296}, {"name": "Dayton International Airport (DAY)", "now": false, "lng": -84.22042429447174, "type": "Airport", "lat": 39.899160357131585}, {"name": "Detroit Metropolitan Wayne County Airport (DTW)", "now": false, "lng": -83.35651025025011, "type": "Airport", "lat": 42.209767343095564}, {"name": "Amsterdam Airport Schiphol (AMS)", "now": false, "lng": 4.761989321616131, "type": "Airport", "lat": 52.310244621325296}, {"name": "London Heathrow Airport (LHR)", "now": false, "lng": -0.46234846115112305, "type": "Airport", "lat": 51.469407923261336}, {"name": "Amsterdam Airport Schiphol (AMS)", "now": false, "lng": 4.761989321616131, "type": "Airport", "lat": 52.310244621325296}, {"name": "Zappa's", "now": false, "lng": 5.904831506429136, "type": "Italian Restaurant", "lat": 51.98297213340511}, {"name": "Hotel Arnhem Centraal", "now": false, "lng": 5.903859123377906, "type": "Hotel Bar", "lat": 51.98334436464271}, {"name": "Grieks restaurant Niki", "now": false, "lng": 5.043145874117438, "type": "Greek Restaurant", "lat": 52.30809477675751}, {"name": "Uva", "now": false, "lng": -73.95575441021364, "type": "Italian Restaurant", "lat": 40.7722435782595}, {"name": "Grand Hotel Opduin", "now": false, "lng": 4.75850895678621, "type": "Hotel", "lat": 53.097924841200125}, {"name": "Spaghetteria", "now": false, "lng": 4.902465220123396, "type": "Italian Restaurant", "lat": 52.35349776449129}, {"name": "Narita International Airport (NRT) (\u6210\u7530\u56fd\u969b\u7a7a\u6e2f)", "now": false, "lng": 140.38690110877957, "type": "Airport", "lat": 35.77285329514216}, {"name": "Hotel Silla", "now": false, "lng": 12.459096, "type": "Hotel", "lat": 41.909199}, {"name": "Vis aan de Schelde", "now": false, "lng": 4.890674122783253, "type": "Seafood Restaurant", "lat": 52.34437339706789}, {"name": "Amsterdam Airport Schiphol (AMS)", "now": false, "lng": 4.761989321616131, "type": "Airport", "lat": 52.310244621325296}, {"name": "Postillion Hotel Amersfoort Veluwemeer", "now": false, "lng": 5.531882351362181, "type": "Hotel", "lat": 52.26812771181026}, {"name": "The Seafood Bar", "now": false, "lng": 4.877296694005315, "type": "Seafood Restaurant", "lat": 52.35997758410264}, {"name": "The Seafood Bar", "now": false, "lng": 4.877296694005315, "type": "Seafood Restaurant", "lat": 52.35997758410264}, {"name": "Duende", "now": false, "lng": 4.886164544346121, "type": "Spanish Restaurant", "lat": 52.38051919611826}, {"name": "The Seafood Bar", "now": false, "lng": 4.877296694005315, "type": "Seafood Restaurant", "lat": 52.35997758410264}, {"name": "The Seafood Bar", "now": false, "lng": 4.877296694005315, "type": "Seafood Restaurant", "lat": 52.35997758410264}, {"name": "Stairway", "now": false, "lng": 5.117180819982263, "type": "Restaurant", "lat": 52.08996414763104}, {"name": "The Seafood Bar", "now": false, "lng": 4.877296694005315, "type": "Seafood Restaurant", "lat": 52.35997758410264}, {"name": "Solo Eten & Drinken", "now": false, "lng": 4.880129843307251, "type": "Mediterranean Restaurant", "lat": 52.3561997940526}, {"name": "B&B", "now": false, "lng": 4.870025764727189, "type": "Restaurant", "lat": 52.33750345633959}, {"name": "Graave Eten & Drinken", "now": false, "lng": 5.907118685942359, "type": "Restaurant", "lat": 51.979587014391136}, {"name": "Restaurant caf\u00e9 de IJ-kantine", "now": false, "lng": 4.891044172856121, "type": "Restaurant", "lat": 52.40142216544955}, {"name": "Hilversum Airport (Vliegveld Hilversum)", "now": false, "lng": 5.15286265255035, "type": "Airport", "lat": 52.193252782368106}, {"name": "Ameland Airport Ballum", "now": false, "lng": 5.686102758128594, "type": "Airport", "lat": 53.44855094529289}, {"name": "Hilversum Airport (Vliegveld Hilversum)", "now": false, "lng": 5.15286265255035, "type": "Airport", "lat": 52.193252782368106}, {"name": "Carlton President Hotel Utrecht", "now": false, "lng": 5.038626567352132, "type": "Hotel", "lat": 52.12080618365361}, {"name": "Spaghetteria", "now": false, "lng": 4.902465220123396, "type": "Italian Restaurant", "lat": 52.35349776449129}, {"name": "De Oude Taveerne", "now": false, "lng": 4.988679206045916, "type": "Restaurant", "lat": 52.3774770216862}, {"name": "El Verano", "now": false, "lng": 5.159725713647212, "type": "Italian Restaurant", "lat": 52.27332321278238}, {"name": "Pastis", "now": false, "lng": 4.87396300270025, "type": "French Restaurant", "lat": 52.364934149674596}, {"name": "Straks", "now": false, "lng": 5.116218477487564, "type": "Restaurant", "lat": 52.092068326987}, {"name": "Spaghetteria", "now": false, "lng": 4.902465220123396, "type": "Italian Restaurant", "lat": 52.35349776449129}, {"name": "Spaghetteria", "now": false, "lng": 4.902465220123396, "type": "Italian Restaurant", "lat": 52.35349776449129}, {"name": "Razmataz", "now": false, "lng": 4.872804290847635, "type": "French Restaurant", "lat": 52.37460230771827}, {"name": "Amsterdam Airport Schiphol (AMS)", "now": false, "lng": 4.761989321616131, "type": "Airport", "lat": 52.310244621325296}, {"name": "H\u00f4tel de Roubaix", "now": false, "lng": 2.352915032199677, "type": "Hotel", "lat": 48.865447411624466}, {"name": "Hotel Metropol", "now": false, "lng": 15.62530363453676, "type": "Hotel", "lat": 48.20254569518358}, {"name": "InterCityHotel Mainz", "now": false, "lng": 8.258091895158243, "type": "Hotel", "lat": 49.999296829135986}, {"name": "H4 Hotel Kassel", "now": false, "lng": 9.459874808862608, "type": "Hotel", "lat": 51.31665876848661}, {"name": "Hotel Braun", "now": false, "lng": 8.016133244053206, "type": "Hotel", "lat": 49.665269266586265}, {"name": "Restaurant Jackies", "now": false, "lng": 6.156761852045855, "type": "American Restaurant", "lat": 52.25210292704504}, {"name": "Bodega-Bodega", "now": false, "lng": 5.225149597463314, "type": "Tapas Restaurant", "lat": 52.25621416576005}, {"name": "'t Hofke", "now": false, "lng": 4.399359833489032, "type": "French Restaurant", "lat": 51.21999839716136}, {"name": "Zeemanshuis Hotel", "now": false, "lng": 4.406642407667383, "type": "Hotel", "lat": 51.22564836683305}, {"name": "Grote Gans", "now": false, "lng": 4.402365613553338, "type": "Restaurant", "lat": 51.220673124093594}, {"name": "NH Collection Amsterdam Grand Hotel Krasnapolsky", "now": false, "lng": 4.89416009359262, "type": "Hotel", "lat": 52.372807362158746}, {"name": "Pastis", "now": false, "lng": 12.582041728884308, "type": "French Restaurant", "lat": 55.68242253662171}, {"name": "Landhotel M\u00f6llhagen", "now": false, "lng": 9.879510376768918, "type": "Hotel", "lat": 54.16433899093954}, {"name": "Konnichi Wa", "now": false, "lng": 5.1174190274194284, "type": "Sushi Restaurant", "lat": 52.08998813378618}, {"name": "ZILLI", "now": false, "lng": 5.907581985417506, "type": "Italian Restaurant", "lat": 51.98242066698302}, {"name": "Postillion Hotel Amersfoort Veluwemeer", "now": false, "lng": 5.531882351362181, "type": "Hotel", "lat": 52.26812771181026}, {"name": "Le Grand Caf\u00e9", "now": false, "lng": 5.904691852085376, "type": "Restaurant", "lat": 51.982615784683915}]