[{"lng": 30.272676944732666, "lat": 59.79972760043299, "name": "Pulkovo International Airport (LED) (\u041c\u0435\u0436\u0434\u0443\u043d\u0430\u0440\u043e\u0434\u043d\u044b\u0439 \u0430\u044d\u0440\u043e\u043f\u043e\u0440\u0442 \u041f\u0443\u043b\u043a\u043e\u0432\u043e)", "type": "Airport", "now": true}, {"lng": 4.763414531356302, "lat": 52.30852130858928, "name": "Amsterdam Airport Schiphol (AMS)", "type": "Airport", "now": false}, {"lng": 4.902465220123396, "lat": 52.35349776449129, "name": "Spaghetteria", "type": "Italian Restaurant", "now": false}, {"lng": 4.945432293001321, "lat": 52.3127193713622, "name": "Ichi-E", "type": "Sushi Restaurant", "now": false}, {"lng": 4.763414531356302, "lat": 52.30852130858928, "name": "Amsterdam Airport Schiphol (AMS)", "type": "Airport", "now": false}, {"lng": 37.408475912469115, "lat": 55.964716884121636, "name": "Sheremetyevo International Airport (SVO) (\u041c\u0435\u0436\u0434\u0443\u043d\u0430\u0440\u043e\u0434\u043d\u044b\u0439 \u0430\u044d\u0440\u043e\u043f\u043e\u0440\u0442 \u0428\u0435\u0440\u0435\u043c\u0435\u0442\u044c\u0435\u0432\u043e)", "type": "Airport", "now": false}, {"lng": 39.80370198965598, "lat": 47.2555505243379, "name": "Rostov-on-Don Airport (ROV) (\u0410\u044d\u0440\u043e\u043f\u043e\u0440\u0442 \u0420\u043e\u0441\u0442\u043e\u0432-\u043d\u0430-\u0414\u043e\u043d\u0443)", "type": "Airport", "now": false}, {"lng": 39.70411510165484, "lat": 47.226186655230286, "name": "\u0420\u0418\u0421-54", "type": "Asian Restaurant", "now": false}, {"lng": 39.70369530468808, "lat": 47.226946865978356, "name": "Marins Park Hotel", "type": "Hotel", "now": false}, {"lng": 39.80370198965598, "lat": 47.2555505243379, "name": "Rostov-on-Don Airport (ROV) (\u0410\u044d\u0440\u043e\u043f\u043e\u0440\u0442 \u0420\u043e\u0441\u0442\u043e\u0432-\u043d\u0430-\u0414\u043e\u043d\u0443)", "type": "Airport", "now": false}, {"lng": 37.408475912469115, "lat": 55.964716884121636, "name": "Sheremetyevo International Airport (SVO) (\u041c\u0435\u0436\u0434\u0443\u043d\u0430\u0440\u043e\u0434\u043d\u044b\u0439 \u0430\u044d\u0440\u043e\u043f\u043e\u0440\u0442 \u0428\u0435\u0440\u0435\u043c\u0435\u0442\u044c\u0435\u0432\u043e)", "type": "Airport", "now": false}, {"lng": 4.763414531356302, "lat": 52.30852130858928, "name": "Amsterdam Airport Schiphol (AMS)", "type": "Airport", "now": false}, {"lng": 4.763414531356302, "lat": 52.30852130858928, "name": "Amsterdam Airport Schiphol (AMS)", "type": "Airport", "now": false}, {"lng": 19.801693312365792, "lat": 50.07224620341886, "name": "John Paul II International Airport Krak\u00f3w\u2013Balice (KRK) (Mi\u0119dzynarodowy Port Lotniczy im. Jana Paw\u0142a II Krak\u00f3w-Balice)", "type": "Airport", "now": false}, {"lng": 19.788118, "lat": 50.076977, "name": "Krakow", "type": "Airport Service", "now": false}, {"lng": 4.763414531356302, "lat": 52.30852130858928, "name": "Amsterdam Airport Schiphol (AMS)", "type": "Airport", "now": false}, {"lng": 6.048317551365021, "lat": 52.24111846696927, "name": "Teuge International Airport (EHTE)", "type": "Airport", "now": false}, {"lng": 5.152907255548942, "lat": 52.193148539617674, "name": "Hilversum Airport (Vliegveld Hilversum)", "type": "Airport", "now": false}, {"lng": -22.622909545898438, "lat": 63.99117062931456, "name": "Keflavik International Airport (KEF) (Keflav\u00edkurflugv\u00f6llur)", "type": "Airport", "now": false}, {"lng": -22.622909545898438, "lat": 63.99117062931456, "name": "Keflavik International Airport (KEF) (Keflav\u00edkurflugv\u00f6llur)", "type": "Airport", "now": false}, {"lng": 4.763414531356302, "lat": 52.30852130858928, "name": "Amsterdam Airport Schiphol (AMS)", "type": "Airport", "now": false}, {"lng": 4.763414531356302, "lat": 52.30852130858928, "name": "Amsterdam Airport Schiphol (AMS)", "type": "Airport", "now": false}, {"lng": 0.04895487974538035, "lat": 51.50411133334797, "name": "London City Airport (LCY)", "type": "Airport", "now": false}, {"lng": 0.04895487974538035, "lat": 51.50411133334797, "name": "London City Airport (LCY)", "type": "Airport", "now": false}, {"lng": 4.763414531356302, "lat": 52.30852130858928, "name": "Amsterdam Airport Schiphol (AMS)", "type": "Airport", "now": false}, {"lng": 4.763414531356302, "lat": 52.30852130858928, "name": "Amsterdam Airport Schiphol (AMS)", "type": "Airport", "now": false}, {"lng": 2.5702929199346776, "lat": 49.004685160970574, "name": "Paris Charles de Gaulle Airport (CDG) (A\u00e9roport Paris-Charles de Gaulle)", "type": "Airport", "now": false}, {"lng": -73.78314646828704, "lat": 40.644444679254306, "name": "John F. Kennedy International Airport (JFK)", "type": "Airport", "now": false}, {"lng": -73.78314646828704, "lat": 40.644444679254306, "name": "John F. Kennedy International Airport (JFK)", "type": "Airport", "now": false}, {"lng": 4.763414531356302, "lat": 52.30852130858928, "name": "Amsterdam Airport Schiphol (AMS)", "type": "Airport", "now": false}, {"lng": 4.763414531356302, "lat": 52.30852130858928, "name": "Amsterdam Airport Schiphol (AMS)", "type": "Airport", "now": false}, {"lng": -122.38700586220294, "lat": 37.617858366738616, "name": "San Francisco International Airport (SFO)", "type": "Airport", "now": false}, {"lng": -122.38700586220294, "lat": 37.617858366738616, "name": "San Francisco International Airport (SFO)", "type": "Airport", "now": false}, {"lng": -111.98068124861207, "lat": 40.786642436049235, "name": "Salt Lake City International Airport (SLC)", "type": "Airport", "now": false}, {"lng": 4.763414531356302, "lat": 52.30852130858928, "name": "Amsterdam Airport Schiphol (AMS)", "type": "Airport", "now": false}, {"lng": 12.648707054161264, "lat": 55.62846451577045, "name": "Copenhagen Airport (CPH) (K\u00f8benhavns Lufthavn)", "type": "Airport", "now": false}, {"lng": -111.98068124861207, "lat": 40.786642436049235, "name": "Salt Lake City International Airport (SLC)", "type": "Airport", "now": false}, {"lng": -115.14705725600331, "lat": 36.0835475442549, "name": "McCarran International Airport (LAS)", "type": "Airport", "now": false}, {"lng": -115.14705725600331, "lat": 36.0835475442549, "name": "McCarran International Airport (LAS)", "type": "Airport", "now": false}, {"lng": -118.405601978302, "lat": 33.94332434443264, "name": "Los Angeles International Airport (LAX)", "type": "Airport", "now": false}, {"lng": -122.38700586220294, "lat": 37.617858366738616, "name": "San Francisco International Airport (SFO)", "type": "Airport", "now": false}, {"lng": -122.38700586220294, "lat": 37.617858366738616, "name": "San Francisco International Airport (SFO)", "type": "Airport", "now": false}, {"lng": -118.405601978302, "lat": 33.94332434443264, "name": "Los Angeles International Airport (LAX)", "type": "Airport", "now": false}, {"lng": -97.66723367686977, "lat": 30.202263721676147, "name": "Austin Bergstrom International Airport (AUS)", "type": "Airport", "now": false}, {"lng": -97.66723367686977, "lat": 30.202263721676147, "name": "Austin Bergstrom International Airport (AUS)", "type": "Airport", "now": false}, {"lng": -111.98068124861207, "lat": 40.786642436049235, "name": "Salt Lake City International Airport (SLC)", "type": "Airport", "now": false}, {"lng": -122.38700586220294, "lat": 37.617858366738616, "name": "San Francisco International Airport (SFO)", "type": "Airport", "now": false}, {"lng": -122.38700586220294, "lat": 37.617858366738616, "name": "San Francisco International Airport (SFO)", "type": "Airport", "now": false}, {"lng": 4.763414531356302, "lat": 52.30852130858928, "name": "Amsterdam Airport Schiphol (AMS)", "type": "Airport", "now": false}, {"lng": 4.763414531356302, "lat": 52.30852130858928, "name": "Amsterdam Airport Schiphol (AMS)", "type": "Airport", "now": false}, {"lng": -122.38700586220294, "lat": 37.617858366738616, "name": "San Francisco International Airport (SFO)", "type": "Airport", "now": false}, {"lng": -122.38700586220294, "lat": 37.617858366738616, "name": "San Francisco International Airport (SFO)", "type": "Airport", "now": false}, {"lng": 4.763414531356302, "lat": 52.30852130858928, "name": "Amsterdam Airport Schiphol (AMS)", "type": "Airport", "now": false}, {"lng": 16.563621536450047, "lat": 48.11936329489222, "name": "Vienna International Airport (VIE) (Flughafen Wien-Schwechat)", "type": "Airport", "now": false}, {"lng": 4.763414531356302, "lat": 52.30852130858928, "name": "Amsterdam Airport Schiphol (AMS)", "type": "Airport", "now": false}, {"lng": -2.906193095271163, "lat": 43.30506821648937, "name": "Aeropuerto de Bilbao (BIO)", "type": "Airport", "now": false}, {"lng": -2.906193095271163, "lat": 43.30506821648937, "name": "Aeropuerto de Bilbao (BIO)", "type": "Airport", "now": false}, {"lng": 4.763414531356302, "lat": 52.30852130858928, "name": "Amsterdam Airport Schiphol (AMS)", "type": "Airport", "now": false}, {"lng": 0.04895487974538035, "lat": 51.50411133334797, "name": "London City Airport (LCY)", "type": "Airport", "now": false}, {"lng": 0.04895487974538035, "lat": 51.50411133334797, "name": "London City Airport (LCY)", "type": "Airport", "now": false}, {"lng": 4.763414531356302, "lat": 52.30852130858928, "name": "Amsterdam Airport Schiphol (AMS)", "type": "Airport", "now": false}, {"lng": 17.93097496032715, "lat": 59.650527933419625, "name": "Stockholm-Arlanda Airport (ARN)", "type": "Airport", "now": false}, {"lng": 16.628351651724433, "lat": 59.60183262632053, "name": "Stockholm V\u00e4ster\u00e5s Flygplats (VST)", "type": "Airport", "now": false}, {"lng": 24.966907613538183, "lat": 60.3182271002329, "name": "Helsinki Airport  (HEL) (Helsinki Airport (HEL))", "type": "Airport", "now": false}, {"lng": 4.763414531356302, "lat": 52.30852130858928, "name": "Amsterdam Airport Schiphol (AMS)", "type": "Airport", "now": false}, {"lng": 14.282695517041821, "lat": 40.877845304694155, "name": "Naples International Airport \"Ugo Niutta\" (NAP) (Aeroporto Internazionale di Napoli Capodichino \"Ugo Niutta\")", "type": "Airport", "now": false}, {"lng": 14.282695517041821, "lat": 40.877845304694155, "name": "Naples International Airport \"Ugo Niutta\" (NAP) (Aeroporto Internazionale di Napoli Capodichino \"Ugo Niutta\")", "type": "Airport", "now": false}, {"lng": 4.763414531356302, "lat": 52.30852130858928, "name": "Amsterdam Airport Schiphol (AMS)", "type": "Airport", "now": false}, {"lng": 4.763414531356302, "lat": 52.30852130858928, "name": "Amsterdam Airport Schiphol (AMS)", "type": "Airport", "now": false}, {"lng": 30.273572934764662, "lat": 59.79963388793562, "name": "Pulkovo International Airport (LED) (\u041c\u0435\u0436\u0434\u0443\u043d\u0430\u0440\u043e\u0434\u043d\u044b\u0439 \u0430\u044d\u0440\u043e\u043f\u043e\u0440\u0442 \u041f\u0443\u043b\u043a\u043e\u0432\u043e)", "type": "Airport", "now": false}, {"lng": 30.273572934764662, "lat": 59.79963388793562, "name": "Pulkovo International Airport (LED) (\u041c\u0435\u0436\u0434\u0443\u043d\u0430\u0440\u043e\u0434\u043d\u044b\u0439 \u0430\u044d\u0440\u043e\u043f\u043e\u0440\u0442 \u041f\u0443\u043b\u043a\u043e\u0432\u043e)", "type": "Airport", "now": false}, {"lng": 4.763414531356302, "lat": 52.30852130858928, "name": "Amsterdam Airport Schiphol (AMS)", "type": "Airport", "now": false}, {"lng": -122.38700586220294, "lat": 37.617858366738616, "name": "San Francisco International Airport (SFO)", "type": "Airport", "now": false}, {"lng": -122.38700586220294, "lat": 37.617858366738616, "name": "San Francisco International Airport (SFO)", "type": "Airport", "now": false}, {"lng": 4.763414531356302, "lat": 52.30852130858928, "name": "Amsterdam Airport Schiphol (AMS)", "type": "Airport", "now": false}, {"lng": 4.907260213346564, "lat": 52.377693060623656, "name": "Choux", "type": "Restaurant", "now": false}, {"lng": 4.902465220123396, "lat": 52.35349776449129, "name": "Spaghetteria", "type": "Italian Restaurant", "now": false}, {"lng": 139.6906391, "lat": 35.68557476, "name": "Park Hyatt Tokyo (\u30d1\u30fc\u30af\u30cf\u30a4\u30a2\u30c3\u30c8\u6771\u4eac)", "type": "Hotel", "now": false}, {"lng": 139.771525, "lat": 35.709444, "name": "HOTEL COCOGRAND UENOSHINOBAZU (\u30db\u30c6\u30eb \u30b3\u30b3\u30fb\u30b0\u30e9\u30f3\u4e0a\u91ce\u4e0d\u5fcd)", "type": "Hotel", "now": false}, {"lng": 140.38719866249752, "lat": 35.77260341897304, "name": "Narita International Airport (NRT) (\u6210\u7530\u56fd\u969b\u7a7a\u6e2f)", "type": "Airport", "now": false}, {"lng": 4.763414531356302, "lat": 52.30852130858928, "name": "Amsterdam Airport Schiphol (AMS)", "type": "Airport", "now": false}, {"lng": 4.905077493675435, "lat": 52.37678563024838, "name": "DoubleTree by Hilton Hotel", "type": "Hotel", "now": false}, {"lng": 4.902465220123396, "lat": 52.35349776449129, "name": "Spaghetteria", "type": "Italian Restaurant", "now": false}, {"lng": 4.906507679690257, "lat": 52.35746646338605, "name": "De Ysbreeker", "type": "Restaurant", "now": false}, {"lng": 4.883136925315649, "lat": 52.362653101865135, "name": "Hosokawa", "type": "Japanese Restaurant", "now": false}, {"lng": 4.878992977693823, "lat": 52.35862410711441, "name": "Conservatorium Hotel", "type": "Hotel", "now": false}, {"lng": 5.06915, "lat": 52.329746, "name": "Brasserie Herengracht 75", "type": "French Restaurant", "now": false}, {"lng": 5.043145874117438, "lat": 52.30809477675751, "name": "Grieks restaurant Niki", "type": "Greek Restaurant", "now": false}, {"lng": 4.853131516068616, "lat": 52.35475521974998, "name": "Gent aan de Schinkel", "type": "Belgian Restaurant", "now": false}, {"lng": 4.855798129255578, "lat": 52.35364083588143, "name": "Franklin Bar & Kitchen", "type": "Restaurant", "now": false}, {"lng": 4.860007776364371, "lat": 52.37127227602769, "name": "Fa. Speijkervet", "type": "French Restaurant", "now": false}, {"lng": 4.763414531356302, "lat": 52.30852130858928, "name": "Amsterdam Airport Schiphol (AMS)", "type": "Airport", "now": false}, {"lng": -122.38700586220294, "lat": 37.617858366738616, "name": "San Francisco International Airport (SFO)", "type": "Airport", "now": false}, {"lng": -122.3938000202179, "lat": 37.79619516102866, "name": "Slanted Door", "type": "Vietnamese Restaurant", "now": false}, {"lng": -122.38700586220294, "lat": 37.617858366738616, "name": "San Francisco International Airport (SFO)", "type": "Airport", "now": false}, {"lng": 4.763414531356302, "lat": 52.30852130858928, "name": "Amsterdam Airport Schiphol (AMS)", "type": "Airport", "now": false}, {"lng": 4.763414531356302, "lat": 52.30852130858928, "name": "Amsterdam Airport Schiphol (AMS)", "type": "Airport", "now": false}, {"lng": -0.46234846115112305, "lat": 51.469407923261336, "name": "London Heathrow Airport (LHR)", "type": "Airport", "now": false}, {"lng": 0.04895487974538035, "lat": 51.50411133334797, "name": "London City Airport (LCY)", "type": "Airport", "now": false}, {"lng": 4.763414531356302, "lat": 52.30852130858928, "name": "Amsterdam Airport Schiphol (AMS)", "type": "Airport", "now": false}, {"lng": -6.243985173053129, "lat": 53.426764962591164, "name": "Dublin Airport (DUB)", "type": "Airport", "now": false}, {"lng": 4.763414531356302, "lat": 52.30852130858928, "name": "Amsterdam Airport Schiphol (AMS)", "type": "Airport", "now": false}, {"lng": 0.04895487974538035, "lat": 51.50411133334797, "name": "London City Airport (LCY)", "type": "Airport", "now": false}, {"lng": 4.763414531356302, "lat": 52.30852130858928, "name": "Amsterdam Airport Schiphol (AMS)", "type": "Airport", "now": false}, {"lng": 4.763414531356302, "lat": 52.30852130858928, "name": "Amsterdam Airport Schiphol (AMS)", "type": "Airport", "now": false}, {"lng": -0.46234846115112305, "lat": 51.469407923261336, "name": "London Heathrow Airport (LHR)", "type": "Airport", "now": false}, {"lng": -1.1515311995626192, "lat": 51.75924697957355, "name": "Heathrow Terminal 4", "type": "Airport Terminal", "now": false}, {"lng": 4.763414531356302, "lat": 52.30852130858928, "name": "Amsterdam Airport Schiphol (AMS)", "type": "Airport", "now": false}, {"lng": 4.763414531356302, "lat": 52.30852130858928, "name": "Amsterdam Airport Schiphol (AMS)", "type": "Airport", "now": false}, {"lng": -84.22042429447174, "lat": 39.899160357131585, "name": "Dayton International Airport (DAY)", "type": "Airport", "now": false}, {"lng": -83.35639021986697, "lat": 42.20865642756995, "name": "Detroit Metropolitan Wayne County Airport (DTW)", "type": "Airport", "now": false}, {"lng": 4.763414531356302, "lat": 52.30852130858928, "name": "Amsterdam Airport Schiphol (AMS)", "type": "Airport", "now": false}, {"lng": -0.46234846115112305, "lat": 51.469407923261336, "name": "London Heathrow Airport (LHR)", "type": "Airport", "now": false}, {"lng": 4.763414531356302, "lat": 52.30852130858928, "name": "Amsterdam Airport Schiphol (AMS)", "type": "Airport", "now": false}, {"lng": 5.904831506429136, "lat": 51.98297213340511, "name": "Zappa's", "type": "Italian Restaurant", "now": false}, {"lng": 5.903859123377906, "lat": 51.98334436464271, "name": "Hotel Arnhem Centraal", "type": "Hotel Bar", "now": false}, {"lng": 5.043145874117438, "lat": 52.30809477675751, "name": "Grieks restaurant Niki", "type": "Greek Restaurant", "now": false}, {"lng": -73.95575441021364, "lat": 40.7722435782595, "name": "Uva", "type": "Italian Restaurant", "now": false}, {"lng": 4.75850895678621, "lat": 53.097924841200125, "name": "Grand Hotel Opduin", "type": "Hotel", "now": false}, {"lng": 4.902465220123396, "lat": 52.35349776449129, "name": "Spaghetteria", "type": "Italian Restaurant", "now": false}, {"lng": 140.38719866249752, "lat": 35.77260341897304, "name": "Narita International Airport (NRT) (\u6210\u7530\u56fd\u969b\u7a7a\u6e2f)", "type": "Airport", "now": false}, {"lng": 12.459096, "lat": 41.909199, "name": "Hotel Silla", "type": "Hotel", "now": false}, {"lng": 4.890674122783253, "lat": 52.34437339706789, "name": "Vis aan de Schelde", "type": "Seafood Restaurant", "now": false}, {"lng": 4.763414531356302, "lat": 52.30852130858928, "name": "Amsterdam Airport Schiphol (AMS)", "type": "Airport", "now": false}, {"lng": 5.531882351362181, "lat": 52.26812771181026, "name": "Postillion Hotel Amersfoort Veluwemeer", "type": "Hotel", "now": false}, {"lng": 4.877296694005315, "lat": 52.35997758410264, "name": "The Seafood Bar", "type": "Seafood Restaurant", "now": false}, {"lng": 4.877296694005315, "lat": 52.35997758410264, "name": "The Seafood Bar", "type": "Seafood Restaurant", "now": false}, {"lng": 4.886164544346121, "lat": 52.38051919611826, "name": "Duende", "type": "Spanish Restaurant", "now": false}, {"lng": 4.877296694005315, "lat": 52.35997758410264, "name": "The Seafood Bar", "type": "Seafood Restaurant", "now": false}, {"lng": 4.877296694005315, "lat": 52.35997758410264, "name": "The Seafood Bar", "type": "Seafood Restaurant", "now": false}, {"lng": 5.117180819982263, "lat": 52.08996414763104, "name": "Stairway", "type": "Restaurant", "now": false}, {"lng": 4.877296694005315, "lat": 52.35997758410264, "name": "The Seafood Bar", "type": "Seafood Restaurant", "now": false}, {"lng": 4.880129843307251, "lat": 52.3561997940526, "name": "Solo Eten & Drinken", "type": "Mediterranean Restaurant", "now": false}, {"lng": 4.870025764727189, "lat": 52.33750345633959, "name": "B&B", "type": "Restaurant", "now": false}, {"lng": 5.907118685942359, "lat": 51.979587014391136, "name": "Graave Eten & Drinken", "type": "Restaurant", "now": false}, {"lng": 4.891044172856121, "lat": 52.40142216544955, "name": "Restaurant caf\u00e9 de IJ-kantine", "type": "Restaurant", "now": false}, {"lng": 5.152907255548942, "lat": 52.193148539617674, "name": "Hilversum Airport (Vliegveld Hilversum)", "type": "Airport", "now": false}, {"lng": 5.686102758128594, "lat": 53.44855094529289, "name": "Ameland Airport Ballum", "type": "Airport", "now": false}, {"lng": 5.152907255548942, "lat": 52.193148539617674, "name": "Hilversum Airport (Vliegveld Hilversum)", "type": "Airport", "now": false}, {"lng": 5.038626567352132, "lat": 52.12080618365361, "name": "Carlton President Hotel Utrecht", "type": "Hotel", "now": false}, {"lng": 4.902465220123396, "lat": 52.35349776449129, "name": "Spaghetteria", "type": "Italian Restaurant", "now": false}, {"lng": 4.988679206045916, "lat": 52.3774770216862, "name": "De Oude Taveerne", "type": "Restaurant", "now": false}, {"lng": 5.159725713647212, "lat": 52.27332321278238, "name": "El Verano", "type": "Italian Restaurant", "now": false}, {"lng": 4.87396300270025, "lat": 52.364934149674596, "name": "Pastis", "type": "French Restaurant", "now": false}, {"lng": 5.116218477487564, "lat": 52.092068326987, "name": "Straks", "type": "Restaurant", "now": false}, {"lng": 4.902465220123396, "lat": 52.35349776449129, "name": "Spaghetteria", "type": "Italian Restaurant", "now": false}, {"lng": 4.902465220123396, "lat": 52.35349776449129, "name": "Spaghetteria", "type": "Italian Restaurant", "now": false}, {"lng": 4.872804290847635, "lat": 52.37460230771827, "name": "Razmataz", "type": "French Restaurant", "now": false}, {"lng": 4.763414531356302, "lat": 52.30852130858928, "name": "Amsterdam Airport Schiphol (AMS)", "type": "Airport", "now": false}, {"lng": 2.352915032199677, "lat": 48.865447411624466, "name": "H\u00f4tel de Roubaix", "type": "Hotel", "now": false}, {"lng": 15.625345985714288, "lat": 48.20248, "name": "Hotel Metropol", "type": "Hotel", "now": false}, {"lng": 8.258091895158243, "lat": 49.999296829135986, "name": "InterCityHotel Mainz", "type": "Hotel", "now": false}, {"lng": 9.459874808862608, "lat": 51.31665876848661, "name": "H4 Hotel Kassel", "type": "Hotel", "now": false}, {"lng": 8.016133244053206, "lat": 49.665269266586265, "name": "Hotel Braun", "type": "Hotel", "now": false}, {"lng": 6.156761852045855, "lat": 52.25210292704504, "name": "Restaurant Jackies", "type": "American Restaurant", "now": false}, {"lng": 5.225149597463314, "lat": 52.25621416576005, "name": "Bodega-Bodega", "type": "Tapas Restaurant", "now": false}, {"lng": 4.399359833489032, "lat": 51.21999839716136, "name": "'t Hofke", "type": "French Restaurant", "now": false}, {"lng": 4.406642407667383, "lat": 51.22564836683305, "name": "Zeemanshuis Hotel", "type": "Hotel", "now": false}, {"lng": 4.402365613553338, "lat": 51.220673124093594, "name": "Grote Gans", "type": "Restaurant", "now": false}, {"lng": 4.89416009359262, "lat": 52.372807362158746, "name": "NH Collection Amsterdam Grand Hotel Krasnapolsky", "type": "Hotel", "now": false}, {"lng": 12.582041728884308, "lat": 55.68242253662171, "name": "Pastis", "type": "French Restaurant", "now": false}, {"lng": 9.879510376768918, "lat": 54.16433899093954, "name": "Landhotel M\u00f6llhagen", "type": "Hotel", "now": false}, {"lng": 5.1174190274194284, "lat": 52.08998813378618, "name": "Konnichi Wa", "type": "Sushi Restaurant", "now": false}, {"lng": 5.907581985417506, "lat": 51.98242066698302, "name": "ZILLI", "type": "Italian Restaurant", "now": false}, {"lng": 5.531882351362181, "lat": 52.26812771181026, "name": "Postillion Hotel Amersfoort Veluwemeer", "type": "Hotel", "now": false}, {"lng": 5.904691852085376, "lat": 51.982615784683915, "name": "Le Grand Caf\u00e9", "type": "Restaurant", "now": false}]