[{"now": true, "type": "Airport", "lng": 39.80360971300479, "name": "Rostov-on-Don Airport (ROV) (\u0410\u044d\u0440\u043e\u043f\u043e\u0440\u0442 \u0420\u043e\u0441\u0442\u043e\u0432-\u043d\u0430-\u0414\u043e\u043d\u0443)", "lat": 47.25545381275797}, {"now": false, "type": "Asian Restaurant", "lng": 39.70411510165484, "name": "\u0420\u0418\u0421-54", "lat": 47.226186655230286}, {"now": false, "type": "Bar", "lng": 39.71364498138427, "name": "Cow Bar & Restaurant", "lat": 47.227109543705524}, {"now": false, "type": "Hotel", "lng": 39.70369530468808, "name": "Marins Park Hotel", "lat": 47.226946865978356}, {"now": false, "type": "Airport", "lng": 39.80360971300479, "name": "Rostov-on-Don Airport (ROV) (\u0410\u044d\u0440\u043e\u043f\u043e\u0440\u0442 \u0420\u043e\u0441\u0442\u043e\u0432-\u043d\u0430-\u0414\u043e\u043d\u0443)", "lat": 47.25545381275797}, {"now": false, "type": "Airport", "lng": 37.4090324505796, "name": "Sheremetyevo International Airport (SVO) (\u041c\u0435\u0436\u0434\u0443\u043d\u0430\u0440\u043e\u0434\u043d\u044b\u0439 \u0430\u044d\u0440\u043e\u043f\u043e\u0440\u0442 \u0428\u0435\u0440\u0435\u043c\u0435\u0442\u044c\u0435\u0432\u043e)", "lat": 55.96422282026074}, {"now": false, "type": "Airport", "lng": 4.762524617656444, "name": "Amsterdam Airport Schiphol (AMS)", "lat": 52.30968706243106}, {"now": false, "type": "Airport", "lng": 4.762524617656444, "name": "Amsterdam Airport Schiphol (AMS)", "lat": 52.30968706243106}, {"now": false, "type": "Airport", "lng": 19.801819359365993, "name": "John Paul II International Airport Krak\u00f3w\u2013Balice (KRK) (Mi\u0119dzynarodowy Port Lotniczy im. Jana Paw\u0142a II Krak\u00f3w-Balice)", "lat": 50.07223010071994}, {"now": false, "type": "Airport Service", "lng": 19.788118, "name": "Krakow", "lat": 50.076977}, {"now": false, "type": "Airport", "lng": 4.762524617656444, "name": "Amsterdam Airport Schiphol (AMS)", "lat": 52.30968706243106}, {"now": false, "type": "Airport", "lng": 6.048317551365021, "name": "Teuge International Airport (EHTE)", "lat": 52.24111846696927}, {"now": false, "type": "Airport", "lng": 5.152907255548942, "name": "Hilversum Airport (Vliegveld Hilversum)", "lat": 52.193148539617674}, {"now": false, "type": "Airport", "lng": -22.622909545898438, "name": "Keflavik International Airport (KEF) (Keflav\u00edkurflugv\u00f6llur)", "lat": 63.99117062931456}, {"now": false, "type": "Airport", "lng": -22.622909545898438, "name": "Keflavik International Airport (KEF) (Keflav\u00edkurflugv\u00f6llur)", "lat": 63.99117062931456}, {"now": false, "type": "Airport", "lng": 4.762524617656444, "name": "Amsterdam Airport Schiphol (AMS)", "lat": 52.30968706243106}, {"now": false, "type": "Airport", "lng": 4.762524617656444, "name": "Amsterdam Airport Schiphol (AMS)", "lat": 52.30968706243106}, {"now": false, "type": "Airport", "lng": 0.04976896880526665, "name": "London City Airport (LCY)", "lat": 51.50396412422985}, {"now": false, "type": "Airport", "lng": 0.04976896880526665, "name": "London City Airport (LCY)", "lat": 51.50396412422985}, {"now": false, "type": "Airport", "lng": 4.762524617656444, "name": "Amsterdam Airport Schiphol (AMS)", "lat": 52.30968706243106}, {"now": false, "type": "Airport", "lng": 4.762524617656444, "name": "Amsterdam Airport Schiphol (AMS)", "lat": 52.30968706243106}, {"now": false, "type": "Airport", "lng": 2.5702929199346776, "name": "Paris Charles de Gaulle Airport (CDG) (A\u00e9roport Paris-Charles de Gaulle)", "lat": 49.004685160970574}, {"now": false, "type": "Airport", "lng": -73.78578915437089, "name": "John F. Kennedy International Airport (JFK)", "lat": 40.64474948407768}, {"now": false, "type": "Airport", "lng": -73.78578915437089, "name": "John F. Kennedy International Airport (JFK)", "lat": 40.64474948407768}, {"now": false, "type": "Airport", "lng": 4.762524617656444, "name": "Amsterdam Airport Schiphol (AMS)", "lat": 52.30968706243106}, {"now": false, "type": "Airport", "lng": 4.762524617656444, "name": "Amsterdam Airport Schiphol (AMS)", "lat": 52.30968706243106}, {"now": false, "type": "Airport", "lng": -122.38885916361724, "name": "San Francisco International Airport (SFO)", "lat": 37.61692481575441}, {"now": false, "type": "Convention", "lng": -122.08071924173356, "name": "Google I/O 2017", "lat": 37.42676990683185}, {"now": false, "type": "Airport", "lng": -122.38885916361724, "name": "San Francisco International Airport (SFO)", "lat": 37.61692481575441}, {"now": false, "type": "Airport", "lng": -111.9813333185899, "name": "Salt Lake City International Airport (SLC)", "lat": 40.78693504261269}, {"now": false, "type": "Airport", "lng": 4.762524617656444, "name": "Amsterdam Airport Schiphol (AMS)", "lat": 52.30968706243106}, {"now": false, "type": "Airport", "lng": 12.645695264827953, "name": "Copenhagen Airport (CPH) (K\u00f8benhavns Lufthavn)", "lat": 55.62833695998232}, {"now": false, "type": "Airport", "lng": -111.9813333185899, "name": "Salt Lake City International Airport (SLC)", "lat": 40.78693504261269}, {"now": false, "type": "Airport", "lng": -115.14663455911995, "name": "McCarran International Airport (LAS)", "lat": 36.08435326385343}, {"now": false, "type": "Airport", "lng": -115.14663455911995, "name": "McCarran International Airport (LAS)", "lat": 36.08435326385343}, {"now": false, "type": "Airport", "lng": -118.405601978302, "name": "Los Angeles International Airport (LAX)", "lat": 33.94332434443264}, {"now": false, "type": "Airport", "lng": -122.38885916361724, "name": "San Francisco International Airport (SFO)", "lat": 37.61692481575441}, {"now": false, "type": "Airport", "lng": -122.38885916361724, "name": "San Francisco International Airport (SFO)", "lat": 37.61692481575441}, {"now": false, "type": "Airport", "lng": -118.405601978302, "name": "Los Angeles International Airport (LAX)", "lat": 33.94332434443264}, {"now": false, "type": "Airport", "lng": -97.6668415425308, "name": "Austin Bergstrom International Airport (AUS)", "lat": 30.202310129239955}, {"now": false, "type": "Airport", "lng": -97.6668415425308, "name": "Austin Bergstrom International Airport (AUS)", "lat": 30.202310129239955}, {"now": false, "type": "Airport", "lng": -111.9813333185899, "name": "Salt Lake City International Airport (SLC)", "lat": 40.78693504261269}, {"now": false, "type": "Airport", "lng": -122.38885916361724, "name": "San Francisco International Airport (SFO)", "lat": 37.61692481575441}, {"now": false, "type": "Airport", "lng": -122.38885916361724, "name": "San Francisco International Airport (SFO)", "lat": 37.61692481575441}, {"now": false, "type": "Airport", "lng": 4.762524617656444, "name": "Amsterdam Airport Schiphol (AMS)", "lat": 52.30968706243106}, {"now": false, "type": "Airport", "lng": 4.762524617656444, "name": "Amsterdam Airport Schiphol (AMS)", "lat": 52.30968706243106}, {"now": false, "type": "Airport", "lng": -122.38885916361724, "name": "San Francisco International Airport (SFO)", "lat": 37.61692481575441}, {"now": false, "type": "Airport", "lng": -122.38885916361724, "name": "San Francisco International Airport (SFO)", "lat": 37.61692481575441}, {"now": false, "type": "Airport", "lng": 4.762524617656444, "name": "Amsterdam Airport Schiphol (AMS)", "lat": 52.30968706243106}, {"now": false, "type": "Airport", "lng": 16.563157568569935, "name": "Vienna International Airport (VIE) (Flughafen Wien-Schwechat)", "lat": 48.119663888271745}, {"now": false, "type": "Airport", "lng": 4.762524617656444, "name": "Amsterdam Airport Schiphol (AMS)", "lat": 52.30968706243106}, {"now": false, "type": "Airport", "lng": -2.9059542035252615, "name": "Aeropuerto de Bilbao (BIO)", "lat": 43.305375778120755}, {"now": false, "type": "Airport", "lng": -2.9059542035252615, "name": "Aeropuerto de Bilbao (BIO)", "lat": 43.305375778120755}, {"now": false, "type": "Airport", "lng": 4.762524617656444, "name": "Amsterdam Airport Schiphol (AMS)", "lat": 52.30968706243106}, {"now": false, "type": "Airport", "lng": 0.04976896880526665, "name": "London City Airport (LCY)", "lat": 51.50396412422985}, {"now": false, "type": "Airport", "lng": 0.04976896880526665, "name": "London City Airport (LCY)", "lat": 51.50396412422985}, {"now": false, "type": "Airport", "lng": 4.762524617656444, "name": "Amsterdam Airport Schiphol (AMS)", "lat": 52.30968706243106}, {"now": false, "type": "Airport", "lng": 17.93097496032715, "name": "Stockholm-Arlanda Airport (ARN)", "lat": 59.650527933419625}, {"now": false, "type": "Airport", "lng": 16.628351651724433, "name": "Stockholm V\u00e4ster\u00e5s Flygplats (VST)", "lat": 59.60183262632053}, {"now": false, "type": "Airport", "lng": 24.966536753212342, "name": "Helsinki Airport  (HEL) (Helsinki Airport (HEL))", "lat": 60.31816217381988}, {"now": false, "type": "Airport", "lng": 4.762524617656444, "name": "Amsterdam Airport Schiphol (AMS)", "lat": 52.30968706243106}, {"now": false, "type": "Airport", "lng": 14.282695517041821, "name": "Naples International Airport \"Ugo Niutta\" (NAP) (Aeroporto Internazionale di Napoli Capodichino \"Ugo Niutta\")", "lat": 40.877845304694155}, {"now": false, "type": "Airport", "lng": 14.282695517041821, "name": "Naples International Airport \"Ugo Niutta\" (NAP) (Aeroporto Internazionale di Napoli Capodichino \"Ugo Niutta\")", "lat": 40.877845304694155}, {"now": false, "type": "Airport", "lng": 4.762524617656444, "name": "Amsterdam Airport Schiphol (AMS)", "lat": 52.30968706243106}, {"now": false, "type": "Airport", "lng": 4.762524617656444, "name": "Amsterdam Airport Schiphol (AMS)", "lat": 52.30968706243106}, {"now": false, "type": "Airport", "lng": 30.273572934764662, "name": "Pulkovo International Airport (LED) (\u041c\u0435\u0436\u0434\u0443\u043d\u0430\u0440\u043e\u0434\u043d\u044b\u0439 \u0430\u044d\u0440\u043e\u043f\u043e\u0440\u0442 \u041f\u0443\u043b\u043a\u043e\u0432\u043e)", "lat": 59.79963388793562}, {"now": false, "type": "Airport", "lng": 30.273572934764662, "name": "Pulkovo International Airport (LED) (\u041c\u0435\u0436\u0434\u0443\u043d\u0430\u0440\u043e\u0434\u043d\u044b\u0439 \u0430\u044d\u0440\u043e\u043f\u043e\u0440\u0442 \u041f\u0443\u043b\u043a\u043e\u0432\u043e)", "lat": 59.79963388793562}, {"now": false, "type": "Airport", "lng": 4.762524617656444, "name": "Amsterdam Airport Schiphol (AMS)", "lat": 52.30968706243106}, {"now": false, "type": "Airport", "lng": -122.38885916361724, "name": "San Francisco International Airport (SFO)", "lat": 37.61692481575441}, {"now": false, "type": "Cocktail Bar", "lng": -122.43206667777437, "name": "The Interval at Long Now", "lat": 37.80654071386508}, {"now": false, "type": "Coffee Shop", "lng": -122.41378448333333, "name": "Haus Coffee", "lat": 37.752603}, {"now": false, "type": "Brewery", "lng": -122.24441940390503, "name": "Devil's Canyon Brewing Company", "lat": 37.49835378970797}, {"now": false, "type": "Office", "lng": -122.13658889864631, "name": "Nest HQ 3.0", "lat": 37.401360078586315}, {"now": false, "type": "Airport", "lng": -122.38885916361724, "name": "San Francisco International Airport (SFO)", "lat": 37.61692481575441}, {"now": false, "type": "Airport", "lng": 4.762524617656444, "name": "Amsterdam Airport Schiphol (AMS)", "lat": 52.30968706243106}, {"now": false, "type": "Concert Hall", "lng": 4.912840083414216, "name": "Muziekgebouw aan 't IJ", "lat": 52.37809266488914}, {"now": false, "type": "Restaurant", "lng": 4.907260213346564, "name": "Choux", "lat": 52.377693060623656}, {"now": false, "type": "Italian Restaurant", "lng": 4.902465220123396, "name": "Spaghetteria", "lat": 52.35349776449129}, {"now": false, "type": "Office", "lng": 4.9534359369595355, "name": "ING Haarlerbergpark (HBP)", "lat": 52.30276140436009}, {"now": false, "type": "Office", "lng": 4.871930635577136, "name": "Google Amsterdam", "lat": 52.33765478895593}, {"now": false, "type": "Hotel", "lng": 139.6906391, "name": "Park Hyatt Tokyo (\u30d1\u30fc\u30af\u30cf\u30a4\u30a2\u30c3\u30c8\u6771\u4eac)", "lat": 35.68557476}, {"now": false, "type": "Monument / Landmark", "lng": 139.81071, "name": "Tokyo Skytree (\u6771\u4eac\u30b9\u30ab\u30a4\u30c4\u30ea\u30fc)", "lat": 35.710054}, {"now": false, "type": "Art Museum", "lng": 139.72963527697652, "name": "Mori Art Museum (\u68ee\u7f8e\u8853\u9928)", "lat": 35.66035416332519}, {"now": false, "type": "Art Gallery", "lng": 139.73035991191864, "name": "21_21 DESIGN SIGHT", "lat": 35.667477492825796}, {"now": false, "type": "Hotel", "lng": 139.771525, "name": "HOTEL COCOGRAND UENOSHINOBAZU (\u30db\u30c6\u30eb \u30b3\u30b3\u30fb\u30b0\u30e9\u30f3\u4e0a\u91ce\u4e0d\u5fcd)", "lat": 35.709444}, {"now": false, "type": "Airport", "lng": 140.38687589242883, "name": "Narita International Airport (NRT) (\u6210\u7530\u56fd\u969b\u7a7a\u6e2f)", "lat": 35.77190522612856}, {"now": false, "type": "Airport", "lng": 4.762524617656444, "name": "Amsterdam Airport Schiphol (AMS)", "lat": 52.30968706243106}, {"now": false, "type": "Food Court", "lng": 4.868118166923523, "name": "Foodhallen", "lat": 52.366906780645856}, {"now": false, "type": "Bookstore", "lng": 4.889495372772216, "name": "The American Book Center", "lat": 52.36896703972043}, {"now": false, "type": "Bar", "lng": 5.906777681079501, "name": "Bar Florian", "lat": 51.98230050778086}, {"now": false, "type": "Office", "lng": 6.823655466078068, "name": "METRO", "lat": 51.2345851154123}, {"now": false, "type": "Office", "lng": 4.9534359369595355, "name": "ING Haarlerbergpark (HBP)", "lat": 52.30276140436009}, {"now": false, "type": "Brewery", "lng": 4.926383968338442, "name": "Brouwerij 't IJ", "lat": 52.36662574805283}, {"now": false, "type": "Bakery", "lng": 4.891520255177822, "name": "Le Pain Quotidien - (de Pijp)", "lat": 52.35097166520259}, {"now": false, "type": "Multiplex", "lng": 4.894820402019465, "name": "Path\u00e9 Tuschinski", "lat": 52.366403170086535}, {"now": false, "type": "Multiplex", "lng": 4.894820402019465, "name": "Path\u00e9 Tuschinski", "lat": 52.366403170086535}, {"now": false, "type": "Burger Joint", "lng": 4.8940605057319, "name": "Burger Bar", "lat": 52.36686522514216}, {"now": false, "type": "Bar", "lng": 5.12362003326416, "name": "Ledig Erf", "lat": 52.081642276790845}, {"now": false, "type": "Coworking Space", "lng": 4.829206787797253, "name": "B.Amsterdam", "lat": 52.34294433020198}, {"now": false, "type": "Office", "lng": 4.946982375083081, "name": "ING Acanthus", "lat": 52.31422523381137}, {"now": false, "type": "Office", "lng": 4.9534359369595355, "name": "ING Haarlerbergpark (HBP)", "lat": 52.30276140436009}, {"now": false, "type": "Hotel", "lng": 4.905077493675435, "name": "DoubleTree by Hilton Hotel", "lat": 52.37678563024838}, {"now": false, "type": "Italian Restaurant", "lng": 4.902465220123396, "name": "Spaghetteria", "lat": 52.35349776449129}, {"now": false, "type": "Restaurant", "lng": 4.906507679690257, "name": "De Ysbreeker", "lat": 52.35746646338605}, {"now": false, "type": "Multiplex", "lng": 4.894820402019465, "name": "Path\u00e9 Tuschinski", "lat": 52.366403170086535}, {"now": false, "type": "Japanese Restaurant", "lng": 4.88324214354567, "name": "Hosokawa", "lat": 52.36277849511845}, {"now": false, "type": "Hotel", "lng": 4.878992977693823, "name": "Conservatorium Hotel", "lat": 52.35862410711441}, {"now": false, "type": "Food Court", "lng": 4.868118166923523, "name": "Foodhallen", "lat": 52.366906780645856}, {"now": false, "type": "French Restaurant", "lng": 5.06915, "name": "Brasserie Herengracht 75", "lat": 52.329746}, {"now": false, "type": "Coworking Space", "lng": 4.829206787797253, "name": "B.Amsterdam", "lat": 52.34294433020198}, {"now": false, "type": "Office", "lng": 4.9534359369595355, "name": "ING Haarlerbergpark (HBP)", "lat": 52.30276140436009}, {"now": false, "type": "Greek Restaurant", "lng": 5.043145874117438, "name": "Grieks restaurant Niki", "lat": 52.30809477675751}, {"now": false, "type": "Steakhouse", "lng": 4.88351945052098, "name": "Gauchos Grill-Restaurant", "lat": 52.36414463427992}, {"now": false, "type": "Multiplex", "lng": 4.893660533510497, "name": "Path\u00e9", "lat": 52.36648118187473}, {"now": false, "type": "Bakery", "lng": 4.891520255177822, "name": "Le Pain Quotidien - (de Pijp)", "lat": 52.35097166520259}, {"now": false, "type": "Belgian Restaurant", "lng": 4.853131516068616, "name": "Gent aan de Schinkel", "lat": 52.35475521974998}, {"now": false, "type": "Office", "lng": 4.871930635577136, "name": "Google Amsterdam", "lat": 52.33765478895593}, {"now": false, "type": "Restaurant", "lng": 4.855798129255578, "name": "Franklin Bar & Kitchen", "lat": 52.35364083588143}, {"now": false, "type": "Office", "lng": 4.946982375083081, "name": "ING Acanthus", "lat": 52.31422523381137}, {"now": false, "type": "Office", "lng": 4.9534359369595355, "name": "ING Haarlerbergpark (HBP)", "lat": 52.30276140436009}, {"now": false, "type": "Multiplex", "lng": 4.894820402019465, "name": "Path\u00e9 Tuschinski", "lat": 52.366403170086535}, {"now": false, "type": "French Restaurant", "lng": 4.860007776364371, "name": "Fa. Speijkervet", "lat": 52.37127227602769}, {"now": false, "type": "Airport", "lng": 4.762524617656444, "name": "Amsterdam Airport Schiphol (AMS)", "lat": 52.30968706243106}, {"now": false, "type": "Airport", "lng": -122.38885916361724, "name": "San Francisco International Airport (SFO)", "lat": 37.61692481575441}, {"now": false, "type": "Vietnamese Restaurant", "lng": -122.3938000202179, "name": "Slanted Door", "lat": 37.79619516102866}, {"now": false, "type": "Theater", "lng": -122.41313778134582, "name": "The Strand", "lat": 37.7798876509815}, {"now": false, "type": "Airport", "lng": -122.38885916361724, "name": "San Francisco International Airport (SFO)", "lat": 37.61692481575441}, {"now": false, "type": "Airport", "lng": 4.762524617656444, "name": "Amsterdam Airport Schiphol (AMS)", "lat": 52.30968706243106}, {"now": false, "type": "Airport", "lng": 4.762524617656444, "name": "Amsterdam Airport Schiphol (AMS)", "lat": 52.30968706243106}, {"now": false, "type": "Airport", "lng": -0.46234846115112305, "name": "London Heathrow Airport (LHR)", "lat": 51.469407923261336}, {"now": false, "type": "Airport", "lng": 0.04976896880526665, "name": "London City Airport (LCY)", "lat": 51.50396412422985}, {"now": false, "type": "Airport", "lng": 4.762524617656444, "name": "Amsterdam Airport Schiphol (AMS)", "lat": 52.30968706243106}, {"now": false, "type": "Airport", "lng": -6.243851173903524, "name": "Dublin Airport (DUB)", "lat": 53.42643943630694}, {"now": false, "type": "Airport", "lng": 4.762524617656444, "name": "Amsterdam Airport Schiphol (AMS)", "lat": 52.30968706243106}, {"now": false, "type": "Airport", "lng": 0.04976896880526665, "name": "London City Airport (LCY)", "lat": 51.50396412422985}, {"now": false, "type": "Airport", "lng": 4.762524617656444, "name": "Amsterdam Airport Schiphol (AMS)", "lat": 52.30968706243106}, {"now": false, "type": "Airport", "lng": 4.762524617656444, "name": "Amsterdam Airport Schiphol (AMS)", "lat": 52.30968706243106}, {"now": false, "type": "Airport", "lng": -0.46234846115112305, "name": "London Heathrow Airport (LHR)", "lat": 51.469407923261336}, {"now": false, "type": "Airport Terminal", "lng": -1.1515311995626192, "name": "Heathrow Terminal 4", "lat": 51.75924697957355}, {"now": false, "type": "Airport", "lng": 4.762524617656444, "name": "Amsterdam Airport Schiphol (AMS)", "lat": 52.30968706243106}, {"now": false, "type": "Airport", "lng": 4.762524617656444, "name": "Amsterdam Airport Schiphol (AMS)", "lat": 52.30968706243106}, {"now": false, "type": "Airport", "lng": -84.22042429447174, "name": "Dayton International Airport (DAY)", "lat": 39.899160357131585}, {"now": false, "type": "Airport", "lng": -83.35632759523003, "name": "Detroit Metropolitan Wayne County Airport (DTW)", "lat": 42.20884127054663}, {"now": false, "type": "Airport", "lng": 4.762524617656444, "name": "Amsterdam Airport Schiphol (AMS)", "lat": 52.30968706243106}, {"now": false, "type": "Caf\u00e9", "lng": 4.899178147315979, "name": "Caf\u00e9 Sarphaat", "lat": 52.354361365215375}, {"now": false, "type": "Airport", "lng": -0.46234846115112305, "name": "London Heathrow Airport (LHR)", "lat": 51.469407923261336}, {"now": false, "type": "Airport", "lng": 4.762524617656444, "name": "Amsterdam Airport Schiphol (AMS)", "lat": 52.30968706243106}, {"now": false, "type": "Coffee Shop", "lng": 4.874774, "name": "De Koffie Salon", "lat": 52.363317}, {"now": false, "type": "Italian Restaurant", "lng": 5.904732181790947, "name": "Zappa's", "lat": 51.98306223905086}, {"now": false, "type": "Hotel Bar", "lng": 5.903859123377906, "name": "Hotel Arnhem Centraal", "lat": 51.98334436464271}, {"now": false, "type": "Train Station", "lng": 4.900374412536621, "name": "Amsterdam Central Railway Station (Station Amsterdam Centraal)", "lat": 52.37878224866535}, {"now": false, "type": "Beer Garden", "lng": 4.836822092513592, "name": "BRET", "lat": 52.389597591721106}, {"now": false, "type": "Train Station", "lng": 4.900374412536621, "name": "Amsterdam Central Railway Station (Station Amsterdam Centraal)", "lat": 52.37878224866535}, {"now": false, "type": "City", "lng": 5.036458969116211, "name": "Weesp", "lat": 52.310630158587166}, {"now": false, "type": "Greek Restaurant", "lng": 5.043145874117438, "name": "Grieks restaurant Niki", "lat": 52.30809477675751}, {"now": false, "type": "Office", "lng": 4.837201280497649, "name": "RELX", "lat": 52.39303628126104}, {"now": false, "type": "City", "lng": 5.036458969116211, "name": "Weesp", "lat": 52.310630158587166}, {"now": false, "type": "Train Station", "lng": 6.091332580018552, "name": "Zwolle Railway Station (Station Zwolle)", "lat": 52.504980233065716}, {"now": false, "type": "Train Station", "lng": 5.373310646468697, "name": "Amersfoort Railway Station (Station Amersfoort)", "lat": 52.153576994222696}, {"now": false, "type": "City", "lng": 5.036458969116211, "name": "Weesp", "lat": 52.310630158587166}, {"now": false, "type": "Italian Restaurant", "lng": -73.95575441021364, "name": "Uva", "lat": 40.7722435782595}, {"now": false, "type": "Pizza Place", "lng": -73.95102017954065, "name": "Salvo's Pizzabar", "lat": 40.77082514592854}, {"now": false, "type": "Office", "lng": 4.880496370462649, "name": "Kubrickology", "lat": 52.3605643449918}, {"now": false, "type": "Hotel", "lng": 4.758798254443129, "name": "Grand Hotel Opduin", "lat": 53.0979555766938}, {"now": false, "type": "Convention Center", "lng": -121.97567375214359, "name": "Santa Clara Convention Center", "lat": 37.40441187160836}, {"now": false, "type": "Italian Restaurant", "lng": 4.902465220123396, "name": "Spaghetteria", "lat": 52.35349776449129}, {"now": false, "type": "Airport", "lng": 140.38687589242883, "name": "Narita International Airport (NRT) (\u6210\u7530\u56fd\u969b\u7a7a\u6e2f)", "lat": 35.77190522612856}, {"now": false, "type": "Hotel", "lng": 12.459096, "name": "Hotel Silla", "lat": 41.909199}, {"now": false, "type": "Art Museum", "lng": -0.09966519882371298, "name": "Tate Modern", "lat": 51.507719557012486}, {"now": false, "type": "Train Station", "lng": 0.13233, "name": "Harlow Mill Railway Station (HWM)", "lat": 51.790403}, {"now": false, "type": "Steakhouse", "lng": 4.885558417939811, "name": "Caf\u00e9 De Klos", "lat": 52.365283959032816}, {"now": false, "type": "Caf\u00e9", "lng": 4.876341819763184, "name": "Toussaint", "lat": 52.36572102359264}, {"now": false, "type": "Caf\u00e9", "lng": 4.876341819763184, "name": "Toussaint", "lat": 52.36572102359264}, {"now": false, "type": "Caf\u00e9", "lng": 4.876341819763184, "name": "Toussaint", "lat": 52.36572102359264}, {"now": false, "type": "Seafood Restaurant", "lng": 4.890473, "name": "Vis aan de Schelde", "lat": 52.344414}, {"now": false, "type": "Caf\u00e9", "lng": 4.883090257644653, "name": "De Balie", "lat": 52.36311683217743}, {"now": false, "type": "Comedy Club", "lng": 4.893272, "name": "Comedy Theater", "lat": 52.37001781}, {"now": false, "type": "Caf\u00e9", "lng": 4.876341819763184, "name": "Toussaint", "lat": 52.36572102359264}, {"now": false, "type": "Caf\u00e9", "lng": 4.876341819763184, "name": "Toussaint", "lat": 52.36572102359264}, {"now": false, "type": "Steakhouse", "lng": 4.885558417939811, "name": "Caf\u00e9 De Klos", "lat": 52.365283959032816}, {"now": false, "type": "Caf\u00e9", "lng": 4.889142, "name": "Caf\u00e9 Luxembourg", "lat": 52.368775}, {"now": false, "type": "Caf\u00e9", "lng": 5.9152034190847465, "name": "Caf\u00e9 Vrijdag", "lat": 51.98204590303066}, {"now": false, "type": "Nightclub", "lng": 4.881749153137207, "name": "Sugarfactory", "lat": 52.36479810916446}, {"now": false, "type": "Jazz Club", "lng": 4.8744123060044915, "name": "North Sea Jazz Club", "lat": 52.38612558829538}, {"now": false, "type": "Multiplex", "lng": 4.894820402019465, "name": "Path\u00e9 Tuschinski", "lat": 52.366403170086535}, {"now": false, "type": "Bar", "lng": 4.892563819885254, "name": "P.King", "lat": 52.36547862734887}, {"now": false, "type": "Bar", "lng": 5.906777681079501, "name": "Bar Florian", "lat": 51.98230050778086}, {"now": false, "type": "Bar", "lng": 8.058302455840424, "name": "Advena Bistro Cafe", "lat": 52.27250973947813}, {"now": false, "type": "Airport", "lng": 4.762524617656444, "name": "Amsterdam Airport Schiphol (AMS)", "lat": 52.30968706243106}, {"now": false, "type": "Music Store", "lng": 4.761218160197415, "name": "Theo Klaassen Drumservice", "lat": 52.30985405472443}, {"now": false, "type": "Caf\u00e9", "lng": 4.876341819763184, "name": "Toussaint", "lat": 52.36572102359264}, {"now": false, "type": "Theater", "lng": 4.90393976086156, "name": "Koninklijk Theater Carr\u00e9", "lat": 52.362389021805356}, {"now": false, "type": "Concert Hall", "lng": 4.89862310363732, "name": "Bethani\u00ebnklooster", "lat": 52.372338788573224}, {"now": false, "type": "Hotel", "lng": 5.532025314649446, "name": "Postillion Hotel Amersfoort Veluwemeer", "lat": 52.26817145828311}, {"now": false, "type": "Music Store", "lng": 6.598663682229057, "name": "Rikkers gitaarbouw", "lat": 53.22661893256066}, {"now": false, "type": "Seafood Restaurant", "lng": 4.877296694005315, "name": "The Seafood Bar", "lat": 52.35997758410264}, {"now": false, "type": "Caf\u00e9", "lng": 5.9152034190847465, "name": "Caf\u00e9 Vrijdag", "lat": 51.98204590303066}, {"now": false, "type": "Event Space", "lng": 4.87943033204505, "name": "People's Place", "lat": 52.363300952024936}, {"now": false, "type": "Caf\u00e9", "lng": 4.883090257644653, "name": "De Balie", "lat": 52.36311683217743}, {"now": false, "type": "Seafood Restaurant", "lng": 4.877296694005315, "name": "The Seafood Bar", "lat": 52.35997758410264}, {"now": false, "type": "Caf\u00e9", "lng": 4.876341819763184, "name": "Toussaint", "lat": 52.36572102359264}, {"now": false, "type": "Coffee Shop", "lng": 4.3184460072101425, "name": "Caff\u00e8 Belmondo", "lat": 52.080361579305276}, {"now": false, "type": "Bar", "lng": 4.888866852515016, "name": "Hoppe", "lat": 52.368824824272146}, {"now": false, "type": "Office", "lng": 4.837201280497649, "name": "RELX", "lat": 52.39303628126104}, {"now": false, "type": "Spanish Restaurant", "lng": 4.886164544346121, "name": "Duende", "lat": 52.38051919611826}, {"now": false, "type": "Bar", "lng": 5.223698616027832, "name": "Caf\u00e9 't Bonte Paard", "lat": 52.25693190564774}, {"now": false, "type": "Office", "lng": 4.830464964101317, "name": "Kubrickolo.gy", "lat": 52.39093650557797}, {"now": false, "type": "Seafood Restaurant", "lng": 4.877296694005315, "name": "The Seafood Bar", "lat": 52.35997758410264}, {"now": false, "type": "Office", "lng": 4.837201280497649, "name": "RELX", "lat": 52.39303628126104}, {"now": false, "type": "Multiplex", "lng": 4.894820402019465, "name": "Path\u00e9 Tuschinski", "lat": 52.366403170086535}, {"now": false, "type": "Bar", "lng": 4.892563819885254, "name": "P.King", "lat": 52.36547862734887}, {"now": false, "type": "Office", "lng": 4.837201280497649, "name": "RELX", "lat": 52.39303628126104}, {"now": false, "type": "Seafood Restaurant", "lng": 4.877296694005315, "name": "The Seafood Bar", "lat": 52.35997758410264}, {"now": false, "type": "Caf\u00e9", "lng": 4.876341819763184, "name": "Toussaint", "lat": 52.36572102359264}, {"now": false, "type": "Water Park", "lng": 5.026974532285277, "name": "Spa Wellness", "lat": 52.29803495993694}, {"now": false, "type": "Restaurant", "lng": 5.116977834176556, "name": "Stairway", "lat": 52.08994469336466}, {"now": false, "type": "Office", "lng": 4.837201280497649, "name": "RELX", "lat": 52.39303628126104}, {"now": false, "type": "Seafood Restaurant", "lng": 4.877296694005315, "name": "The Seafood Bar", "lat": 52.35997758410264}, {"now": false, "type": "Office", "lng": 4.837201280497649, "name": "RELX", "lat": 52.39303628126104}, {"now": false, "type": "Office", "lng": 4.830464964101317, "name": "Kubrickolo.gy", "lat": 52.39093650557797}, {"now": false, "type": "Office", "lng": 4.830464964101317, "name": "Kubrickolo.gy", "lat": 52.39093650557797}, {"now": false, "type": "Government Building", "lng": 4.894731116320163, "name": "Kamer Van Koophandel", "lat": 52.38243695662573}, {"now": false, "type": "Caf\u00e9", "lng": 4.876341819763184, "name": "Toussaint", "lat": 52.36572102359264}, {"now": false, "type": "Gastropub", "lng": 4.902427765144644, "name": "Eetcaf\u00e9 Van Beeren", "lat": 52.372151164935154}, {"now": false, "type": "Bookstore", "lng": 4.889495372772216, "name": "The American Book Center", "lat": 52.36896703972043}, {"now": false, "type": "Caf\u00e9", "lng": 4.876341819763184, "name": "Toussaint", "lat": 52.36572102359264}, {"now": false, "type": "Gym / Fitness Center", "lng": 4.891156, "name": "Fit For Free", "lat": 52.381323}, {"now": false, "type": "Multiplex", "lng": 4.894820402019465, "name": "Path\u00e9 Tuschinski", "lat": 52.366403170086535}, {"now": false, "type": "Coffee Shop", "lng": 4.89748556343617, "name": "Starbucks", "lat": 52.3660492867161}, {"now": false, "type": "Caf\u00e9", "lng": 4.876341819763184, "name": "Toussaint", "lat": 52.36572102359264}, {"now": false, "type": "Office", "lng": 4.837201280497649, "name": "RELX", "lat": 52.39303628126104}, {"now": false, "type": "Theater", "lng": 4.897781077788455, "name": "Compagnietheater", "lat": 52.37020140044718}, {"now": false, "type": "Concert Hall", "lng": 4.8794529897790975, "name": "Het Concertgebouw", "lat": 52.356151185800115}, {"now": false, "type": "Mediterranean Restaurant", "lng": 4.880129843307251, "name": "Solo Eten & Drinken", "lat": 52.3561997940526}, {"now": false, "type": "Office", "lng": 4.837201280497649, "name": "RELX", "lat": 52.39303628126104}, {"now": false, "type": "Pub", "lng": 4.898456595452706, "name": "Cafe Pleinzicht", "lat": 52.37391574432005}, {"now": false, "type": "Dive Bar", "lng": 4.9001596361510975, "name": "Dijk 120", "lat": 52.37349682734866}, {"now": false, "type": "Steakhouse", "lng": 4.894028306007385, "name": "Gauchos", "lat": 52.36670697298532}, {"now": false, "type": "Bar", "lng": 4.888866852515016, "name": "Hoppe", "lat": 52.368824824272146}, {"now": false, "type": "Caf\u00e9", "lng": 4.889142, "name": "Caf\u00e9 Luxembourg", "lat": 52.368775}, {"now": false, "type": "Art Museum", "lng": 4.8720502853393555, "name": "Amsterdam EXPO", "lat": 52.33693864261881}, {"now": false, "type": "Restaurant", "lng": 4.870025764727189, "name": "B&B", "lat": 52.33750345633959}, {"now": false, "type": "Office", "lng": 4.837201280497649, "name": "RELX", "lat": 52.39303628126104}, {"now": false, "type": "Caf\u00e9", "lng": 4.876341819763184, "name": "Toussaint", "lat": 52.36572102359264}, {"now": false, "type": "Recording Studio", "lng": 4.935832, "name": "Earforce", "lat": 52.33755}, {"now": false, "type": "Office", "lng": 4.837201280497649, "name": "RELX", "lat": 52.39303628126104}, {"now": false, "type": "Office", "lng": 4.837201280497649, "name": "RELX", "lat": 52.39303628126104}, {"now": false, "type": "Gym / Fitness Center", "lng": 4.891156, "name": "Fit For Free", "lat": 52.381323}, {"now": false, "type": "Creperie", "lng": 4.8935723304748535, "name": "Cr\u00eaperie Le Berger", "lat": 52.37968604210279}, {"now": false, "type": "Coffee Shop", "lng": 4.886129396206873, "name": "Espressobar Tazzina", "lat": 52.38156168226328}, {"now": false, "type": "Caf\u00e9", "lng": 4.876341819763184, "name": "Toussaint", "lat": 52.36572102359264}, {"now": false, "type": "Gym / Fitness Center", "lng": 4.891156, "name": "Fit For Free", "lat": 52.381323}, {"now": false, "type": "Recording Studio", "lng": 4.935832, "name": "Earforce", "lat": 52.33755}, {"now": false, "type": "Caf\u00e9", "lng": 5.909174276468052, "name": "Babo Caf\u00e9", "lat": 51.98287909861344}, {"now": false, "type": "Restaurant", "lng": 5.907118685942359, "name": "Graave Eten & Drinken", "lat": 51.979587014391136}, {"now": false, "type": "Gym / Fitness Center", "lng": 4.891156, "name": "Fit For Free", "lat": 52.381323}, {"now": false, "type": "Office", "lng": 4.837201280497649, "name": "RELX", "lat": 52.39303628126104}, {"now": false, "type": "Gym / Fitness Center", "lng": 4.891156, "name": "Fit For Free", "lat": 52.381323}, {"now": false, "type": "Gym / Fitness Center", "lng": 4.891156, "name": "Fit For Free", "lat": 52.381323}, {"now": false, "type": "Office", "lng": 4.830464964101317, "name": "Kubrickolo.gy", "lat": 52.39093650557797}, {"now": false, "type": "Gym / Fitness Center", "lng": 4.891156, "name": "Fit For Free", "lat": 52.381323}, {"now": false, "type": "Gym / Fitness Center", "lng": 4.891156, "name": "Fit For Free", "lat": 52.381323}, {"now": false, "type": "Office", "lng": 4.837201280497649, "name": "RELX", "lat": 52.39303628126104}, {"now": false, "type": "Water Park", "lng": 5.026974532285277, "name": "Spa Wellness", "lat": 52.29803495993694}, {"now": false, "type": "Office", "lng": 4.837201280497649, "name": "RELX", "lat": 52.39303628126104}, {"now": false, "type": "Bar", "lng": 4.871015, "name": "Cafe 020", "lat": 52.375186}, {"now": false, "type": "Restaurant", "lng": 4.891021, "name": "Restaurant caf\u00e9 de IJ-kantine", "lat": 52.401495}, {"now": false, "type": "Coffee Shop", "lng": 4.886129396206873, "name": "Espressobar Tazzina", "lat": 52.38156168226328}, {"now": false, "type": "Caf\u00e9", "lng": 4.876341819763184, "name": "Toussaint", "lat": 52.36572102359264}, {"now": false, "type": "Movie Theater", "lng": 5.9120312333106995, "name": "Path\u00e9 Rembrandt Arnhem", "lat": 51.984381266217916}, {"now": false, "type": "Bar", "lng": 5.906777681079501, "name": "Bar Florian", "lat": 51.98230050778086}, {"now": false, "type": "Coffee Shop", "lng": 4.886129396206873, "name": "Espressobar Tazzina", "lat": 52.38156168226328}, {"now": false, "type": "Caf\u00e9", "lng": 4.876341819763184, "name": "Toussaint", "lat": 52.36572102359264}, {"now": false, "type": "Airport", "lng": 5.152907255548942, "name": "Hilversum Airport (Vliegveld Hilversum)", "lat": 52.193148539617674}, {"now": false, "type": "Airport", "lng": 5.686102758128594, "name": "Ameland Airport Ballum", "lat": 53.44855094529289}, {"now": false, "type": "Bar", "lng": 5.687318196080954, "name": "Caf\u00e9 Nobel", "lat": 53.44367148137013}, {"now": false, "type": "Airport", "lng": 5.152907255548942, "name": "Hilversum Airport (Vliegveld Hilversum)", "lat": 52.193148539617674}, {"now": false, "type": "Office", "lng": 4.830464964101317, "name": "Kubrickolo.gy", "lat": 52.39093650557797}, {"now": false, "type": "Hotel", "lng": 5.038626567352132, "name": "Carlton President Hotel Utrecht", "lat": 52.12080618365361}, {"now": false, "type": "Factory", "lng": 5.088132, "name": "Koop Bronbemaling", "lat": 52.129195}, {"now": false, "type": "Caf\u00e9", "lng": 4.876341819763184, "name": "Toussaint", "lat": 52.36572102359264}, {"now": false, "type": "Italian Restaurant", "lng": 4.902465220123396, "name": "Spaghetteria", "lat": 52.35349776449129}, {"now": false, "type": "Caf\u00e9", "lng": 4.876341819763184, "name": "Toussaint", "lat": 52.36572102359264}, {"now": false, "type": "Castle", "lng": 5.116924879021132, "name": "Stadskasteel Oudaen", "lat": 52.09277256115024}, {"now": false, "type": "Factory", "lng": 5.088132, "name": "Koop Bronbemaling", "lat": 52.129195}, {"now": false, "type": "Bookstore", "lng": 4.889495372772216, "name": "The American Book Center", "lat": 52.36896703972043}, {"now": false, "type": "Restaurant", "lng": 4.988679206045916, "name": "De Oude Taveerne", "lat": 52.3774770216862}, {"now": false, "type": "Caf\u00e9", "lng": 4.876341819763184, "name": "Toussaint", "lat": 52.36572102359264}, {"now": false, "type": "Multiplex", "lng": 4.894820402019465, "name": "Path\u00e9 Tuschinski", "lat": 52.366403170086535}, {"now": false, "type": "Office", "lng": 4.830464964101317, "name": "Kubrickolo.gy", "lat": 52.39093650557797}, {"now": false, "type": "Office", "lng": 4.830464964101317, "name": "Kubrickolo.gy", "lat": 52.39093650557797}, {"now": false, "type": "Caf\u00e9", "lng": 4.876341819763184, "name": "Toussaint", "lat": 52.36572102359264}, {"now": false, "type": "Office", "lng": 4.837201280497649, "name": "RELX", "lat": 52.39303628126104}, {"now": false, "type": "Caf\u00e9", "lng": 4.876341819763184, "name": "Toussaint", "lat": 52.36572102359264}, {"now": false, "type": "Office", "lng": 4.837201280497649, "name": "RELX", "lat": 52.39303628126104}, {"now": false, "type": "Gym", "lng": 5.933415494934803, "name": "Fit For Free Arnhem", "lat": 51.987205815370785}, {"now": false, "type": "Caf\u00e9", "lng": 4.876341819763184, "name": "Toussaint", "lat": 52.36572102359264}, {"now": false, "type": "Theater", "lng": 6.091852549607971, "name": "Theater Odeon", "lat": 52.51047721502893}, {"now": false, "type": "Office", "lng": 4.830464964101317, "name": "Kubrickolo.gy", "lat": 52.39093650557797}, {"now": false, "type": "Italian Restaurant", "lng": 5.159725713647212, "name": "El Verano", "lat": 52.27332321278238}, {"now": false, "type": "Caf\u00e9", "lng": 4.876341819763184, "name": "Toussaint", "lat": 52.36572102359264}, {"now": false, "type": "Office", "lng": 4.830464964101317, "name": "Kubrickolo.gy", "lat": 52.39093650557797}, {"now": false, "type": "Office", "lng": 4.837201280497649, "name": "RELX", "lat": 52.39303628126104}, {"now": false, "type": "Office", "lng": 4.837201280497649, "name": "RELX", "lat": 52.39303628126104}, {"now": false, "type": "Office", "lng": 4.837201280497649, "name": "RELX", "lat": 52.39303628126104}, {"now": false, "type": "Diner", "lng": 4.936267, "name": "Cinetone", "lat": 52.337429}, {"now": false, "type": "Recording Studio", "lng": 4.935832, "name": "Earforce", "lat": 52.33755}, {"now": false, "type": "Art Gallery", "lng": 5.904175517874297, "name": "MoBa", "lat": 51.980858076581704}, {"now": false, "type": "Gastropub", "lng": 4.902427765144644, "name": "Eetcaf\u00e9 Van Beeren", "lat": 52.372151164935154}, {"now": false, "type": "Office", "lng": 4.837201280497649, "name": "RELX", "lat": 52.39303628126104}, {"now": false, "type": "Plaza", "lng": 5.619723356507592, "name": "Vischmarkt", "lat": 52.3513582953187}, {"now": false, "type": "Pool Hall", "lng": 5.116853, "name": "Smith & Jones Poolcentrum", "lat": 52.090124}, {"now": false, "type": "General Entertainment", "lng": 5.173876197182411, "name": "Racketcentrum Houten", "lat": 52.02805697688054}, {"now": false, "type": "Pub", "lng": 5.16236605799776, "name": "Tapperij de Zwijger", "lat": 52.02704358430311}, {"now": false, "type": "Bar", "lng": 5.906777681079501, "name": "Bar Florian", "lat": 51.98230050778086}, {"now": false, "type": "Office", "lng": 4.837201280497649, "name": "RELX", "lat": 52.39303628126104}, {"now": false, "type": "Office", "lng": 4.837201280497649, "name": "RELX", "lat": 52.39303628126104}, {"now": false, "type": "General Entertainment", "lng": 5.173876197182411, "name": "Racketcentrum Houten", "lat": 52.02805697688054}, {"now": false, "type": "Recording Studio", "lng": 4.935832, "name": "Earforce", "lat": 52.33755}, {"now": false, "type": "Caf\u00e9", "lng": 4.8966890483948715, "name": "Noorderlicht", "lat": 52.399570226754}, {"now": false, "type": "French Restaurant", "lng": 4.874088, "name": "Pastis", "lat": 52.364862}, {"now": false, "type": "Concert Hall", "lng": 4.8794529897790975, "name": "Het Concertgebouw", "lat": 52.356151185800115}, {"now": false, "type": "Caf\u00e9", "lng": 4.876341819763184, "name": "Toussaint", "lat": 52.36572102359264}, {"now": false, "type": "Office", "lng": 4.830464964101317, "name": "Kubrickolo.gy", "lat": 52.39093650557797}, {"now": false, "type": "Restaurant", "lng": 5.116218477487564, "name": "Straks", "lat": 52.092068326987}, {"now": false, "type": "Office", "lng": 4.830464964101317, "name": "Kubrickolo.gy", "lat": 52.39093650557797}, {"now": false, "type": "Caf\u00e9", "lng": 4.876341819763184, "name": "Toussaint", "lat": 52.36572102359264}, {"now": false, "type": "Caf\u00e9", "lng": 5.909174276468052, "name": "Babo Caf\u00e9", "lat": 51.98287909861344}, {"now": false, "type": "Piano Bar", "lng": 5.904644665447673, "name": "Freaky Pianobar", "lat": 51.98253313048895}, {"now": false, "type": "Sandwich Place", "lng": 5.90666497072776, "name": "Arneym Lunch & Bites", "lat": 51.98228548103509}, {"now": false, "type": "Office", "lng": 4.830464964101317, "name": "Kubrickolo.gy", "lat": 52.39093650557797}, {"now": false, "type": "Office", "lng": 4.837201280497649, "name": "RELX", "lat": 52.39303628126104}, {"now": false, "type": "Office", "lng": 4.830464964101317, "name": "Kubrickolo.gy", "lat": 52.39093650557797}, {"now": false, "type": "Office", "lng": 4.837201280497649, "name": "RELX", "lat": 52.39303628126104}, {"now": false, "type": "Caf\u00e9", "lng": 4.876341819763184, "name": "Toussaint", "lat": 52.36572102359264}, {"now": false, "type": "Multiplex", "lng": 4.893660533510497, "name": "Path\u00e9", "lat": 52.36648118187473}, {"now": false, "type": "College Arts Building", "lng": 6.095811125275468, "name": "Artez", "lat": 52.514067635174676}, {"now": false, "type": "Italian Restaurant", "lng": 4.902465220123396, "name": "Spaghetteria", "lat": 52.35349776449129}, {"now": false, "type": "Office", "lng": 4.830464964101317, "name": "Kubrickolo.gy", "lat": 52.39093650557797}, {"now": false, "type": "Gym / Fitness Center", "lng": 4.891156, "name": "Fit For Free", "lat": 52.381323}, {"now": false, "type": "Design Studio", "lng": 4.857742, "name": "Terra Preta Multimedia Studio", "lat": 52.382521}, {"now": false, "type": "Office", "lng": 4.830464964101317, "name": "Kubrickolo.gy", "lat": 52.39093650557797}, {"now": false, "type": "Italian Restaurant", "lng": 4.902465220123396, "name": "Spaghetteria", "lat": 52.35349776449129}, {"now": false, "type": "Design Studio", "lng": 4.857742, "name": "Terra Preta Multimedia Studio", "lat": 52.382521}, {"now": false, "type": "Coffee Shop", "lng": 4.83766379804228, "name": "Starbucks", "lat": 52.389080498532294}, {"now": false, "type": "Gastropub", "lng": 4.902427765144644, "name": "Eetcaf\u00e9 Van Beeren", "lat": 52.372151164935154}, {"now": false, "type": "French Restaurant", "lng": 4.872830208345636, "name": "Razmataz", "lat": 52.374531662802255}, {"now": false, "type": "Caf\u00e9", "lng": 4.876341819763184, "name": "Toussaint", "lat": 52.36572102359264}, {"now": false, "type": "Office", "lng": 4.830464964101317, "name": "Kubrickolo.gy", "lat": 52.39093650557797}, {"now": false, "type": "Museum", "lng": 4.901005240759131, "name": "EYE", "lat": 52.384122836878994}, {"now": false, "type": "Caf\u00e9", "lng": 4.876341819763184, "name": "Toussaint", "lat": 52.36572102359264}, {"now": false, "type": "Office", "lng": 4.830464964101317, "name": "Kubrickolo.gy", "lat": 52.39093650557797}, {"now": false, "type": "Caf\u00e9", "lng": 4.876341819763184, "name": "Toussaint", "lat": 52.36572102359264}, {"now": false, "type": "Office", "lng": 4.830464964101317, "name": "Kubrickolo.gy", "lat": 52.39093650557797}, {"now": false, "type": "Water Park", "lng": 5.026974532285277, "name": "Spa Wellness", "lat": 52.29803495993694}, {"now": false, "type": "Beach", "lng": 4.606487970150741, "name": "Zoomers", "lat": 52.55754055114569}, {"now": false, "type": "Beach", "lng": 4.606658844662898, "name": "Strand Castricum", "lat": 52.55740465722111}, {"now": false, "type": "Office", "lng": 4.830464964101317, "name": "Kubrickolo.gy", "lat": 52.39093650557797}, {"now": false, "type": "Caf\u00e9", "lng": 4.876341819763184, "name": "Toussaint", "lat": 52.36572102359264}, {"now": false, "type": "Office", "lng": 4.830464964101317, "name": "Kubrickolo.gy", "lat": 52.39093650557797}, {"now": false, "type": "Whisky Bar", "lng": 4.885097573264141, "name": "Whisky Caf\u00e9 L&B", "lat": 52.362817010861974}, {"now": false, "type": "Jazz Club", "lng": 4.884371300142634, "name": "Jazz Caf\u00e9 Alto", "lat": 52.36349242651208}, {"now": false, "type": "Bar", "lng": 4.888866852515016, "name": "Hoppe", "lat": 52.368824824272146}, {"now": false, "type": "Gym / Fitness Center", "lng": 4.809552856907437, "name": "Squashcentrum Match", "lat": 52.34544416812631}, {"now": false, "type": "Caf\u00e9", "lng": 4.876341819763184, "name": "Toussaint", "lat": 52.36572102359264}, {"now": false, "type": "Office", "lng": 4.830464964101317, "name": "Kubrickolo.gy", "lat": 52.39093650557797}, {"now": false, "type": "Office", "lng": 4.830464964101317, "name": "Kubrickolo.gy", "lat": 52.39093650557797}, {"now": false, "type": "Caf\u00e9", "lng": 4.876341819763184, "name": "Toussaint", "lat": 52.36572102359264}, {"now": false, "type": "Office", "lng": 4.830464964101317, "name": "Kubrickolo.gy", "lat": 52.39093650557797}, {"now": false, "type": "Design Studio", "lng": 4.857742, "name": "Terra Preta Multimedia Studio", "lat": 52.382521}, {"now": false, "type": "Office", "lng": 4.830464964101317, "name": "Kubrickolo.gy", "lat": 52.39093650557797}, {"now": false, "type": "Caf\u00e9", "lng": 4.889142, "name": "Caf\u00e9 Luxembourg", "lat": 52.368775}, {"now": false, "type": "Bookstore", "lng": 4.888937063662242, "name": "Athenaeum Boekhandel", "lat": 52.368861524371965}, {"now": false, "type": "Caf\u00e9", "lng": 4.876341819763184, "name": "Toussaint", "lat": 52.36572102359264}, {"now": false, "type": "Office", "lng": 4.830464964101317, "name": "Kubrickolo.gy", "lat": 52.39093650557797}, {"now": false, "type": "Caf\u00e9", "lng": 4.876341819763184, "name": "Toussaint", "lat": 52.36572102359264}, {"now": false, "type": "Office", "lng": 4.830464964101317, "name": "Kubrickolo.gy", "lat": 52.39093650557797}, {"now": false, "type": "Office", "lng": 4.830464964101317, "name": "Kubrickolo.gy", "lat": 52.39093650557797}, {"now": false, "type": "Friterie", "lng": 4.8909186831423215, "name": "Vlaams Friteshuis Vleminckx", "lat": 52.36787663174073}, {"now": false, "type": "Bookstore", "lng": 4.888937063662242, "name": "Athenaeum Boekhandel", "lat": 52.368861524371965}, {"now": false, "type": "Bar", "lng": 4.888866852515016, "name": "Hoppe", "lat": 52.368824824272146}, {"now": false, "type": "Caf\u00e9", "lng": 4.876341819763184, "name": "Toussaint", "lat": 52.36572102359264}, {"now": false, "type": "Office", "lng": 4.830464964101317, "name": "Kubrickolo.gy", "lat": 52.39093650557797}, {"now": false, "type": "Design Studio", "lng": 4.857742, "name": "Terra Preta Multimedia Studio", "lat": 52.382521}, {"now": false, "type": "Office", "lng": 4.830464964101317, "name": "Kubrickolo.gy", "lat": 52.39093650557797}, {"now": false, "type": "Office", "lng": 4.830464964101317, "name": "Kubrickolo.gy", "lat": 52.39093650557797}, {"now": false, "type": "Bar", "lng": 4.888866852515016, "name": "Hoppe", "lat": 52.368824824272146}, {"now": false, "type": "Office", "lng": 4.830464964101317, "name": "Kubrickolo.gy", "lat": 52.39093650557797}, {"now": false, "type": "Office", "lng": 4.830464964101317, "name": "Kubrickolo.gy", "lat": 52.39093650557797}, {"now": false, "type": "Office", "lng": 4.830464964101317, "name": "Kubrickolo.gy", "lat": 52.39093650557797}, {"now": false, "type": "Office", "lng": 4.830464964101317, "name": "Kubrickolo.gy", "lat": 52.39093650557797}, {"now": false, "type": "Design Studio", "lng": 4.857742, "name": "Terra Preta Multimedia Studio", "lat": 52.382521}, {"now": false, "type": "Office", "lng": 4.830464964101317, "name": "Kubrickolo.gy", "lat": 52.39093650557797}, {"now": false, "type": "Office", "lng": 4.830464964101317, "name": "Kubrickolo.gy", "lat": 52.39093650557797}, {"now": false, "type": "Caf\u00e9", "lng": 4.8966890483948715, "name": "Noorderlicht", "lat": 52.399570226754}, {"now": false, "type": "Art Gallery", "lng": 5.111520232117907, "name": "Das Spectrum", "lat": 52.111184428041916}, {"now": false, "type": "Gym / Fitness Center", "lng": 4.809552856907437, "name": "Squashcentrum Match", "lat": 52.34544416812631}, {"now": false, "type": "Office", "lng": 4.830464964101317, "name": "Kubrickolo.gy", "lat": 52.39093650557797}, {"now": false, "type": "Gym / Fitness Center", "lng": 4.891156, "name": "Fit For Free", "lat": 52.381323}, {"now": false, "type": "Office", "lng": 4.830464964101317, "name": "Kubrickolo.gy", "lat": 52.39093650557797}, {"now": false, "type": "Multiplex", "lng": 4.894820402019465, "name": "Path\u00e9 Tuschinski", "lat": 52.366403170086535}, {"now": false, "type": "Caf\u00e9", "lng": 4.876341819763184, "name": "Toussaint", "lat": 52.36572102359264}, {"now": false, "type": "Design Studio", "lng": 4.857742, "name": "Terra Preta Multimedia Studio", "lat": 52.382521}, {"now": false, "type": "Office", "lng": 4.830464964101317, "name": "Kubrickolo.gy", "lat": 52.39093650557797}, {"now": false, "type": "Caf\u00e9", "lng": 4.876341819763184, "name": "Toussaint", "lat": 52.36572102359264}, {"now": false, "type": "Pub", "lng": 5.121092032661903, "name": "Caf\u00e9 de Postillon", "lat": 52.089120858499975}, {"now": false, "type": "Office", "lng": 5.109741222004852, "name": "NS Stations", "lat": 52.09053031127685}, {"now": false, "type": "Office", "lng": 4.830464964101317, "name": "Kubrickolo.gy", "lat": 52.39093650557797}, {"now": false, "type": "Airport", "lng": 4.762524617656444, "name": "Amsterdam Airport Schiphol (AMS)", "lat": 52.30968706243106}, {"now": false, "type": "Office", "lng": 4.830464964101317, "name": "Kubrickolo.gy", "lat": 52.39093650557797}, {"now": false, "type": "Office", "lng": 4.830464964101317, "name": "Kubrickolo.gy", "lat": 52.39093650557797}, {"now": false, "type": "Gastropub", "lng": 4.902427765144644, "name": "Eetcaf\u00e9 Van Beeren", "lat": 52.372151164935154}, {"now": false, "type": "Office", "lng": 4.830464964101317, "name": "Kubrickolo.gy", "lat": 52.39093650557797}, {"now": false, "type": "Caf\u00e9", "lng": 5.9152034190847465, "name": "Caf\u00e9 Vrijdag", "lat": 51.98204590303066}, {"now": false, "type": "Office", "lng": 4.830464964101317, "name": "Kubrickolo.gy", "lat": 52.39093650557797}, {"now": false, "type": "Gym / Fitness Center", "lng": 4.891156, "name": "Fit For Free", "lat": 52.381323}, {"now": false, "type": "Office", "lng": 4.830464964101317, "name": "Kubrickolo.gy", "lat": 52.39093650557797}, {"now": false, "type": "Design Studio", "lng": 4.857742, "name": "Terra Preta Multimedia Studio", "lat": 52.382521}, {"now": false, "type": "Office", "lng": 4.830464964101317, "name": "Kubrickolo.gy", "lat": 52.39093650557797}, {"now": false, "type": "Caf\u00e9", "lng": 4.8966890483948715, "name": "Noorderlicht", "lat": 52.399570226754}, {"now": false, "type": "Office", "lng": 4.830464964101317, "name": "Kubrickolo.gy", "lat": 52.39093650557797}, {"now": false, "type": "Office", "lng": 4.830464964101317, "name": "Kubrickolo.gy", "lat": 52.39093650557797}, {"now": false, "type": "Office", "lng": 4.830464964101317, "name": "Kubrickolo.gy", "lat": 52.39093650557797}, {"now": false, "type": "Gym / Fitness Center", "lng": 4.891156, "name": "Fit For Free", "lat": 52.381323}, {"now": false, "type": "Office", "lng": 4.830464964101317, "name": "Kubrickolo.gy", "lat": 52.39093650557797}, {"now": false, "type": "Caf\u00e9", "lng": 4.876341819763184, "name": "Toussaint", "lat": 52.36572102359264}, {"now": false, "type": "Design Studio", "lng": 4.857742, "name": "Terra Preta Multimedia Studio", "lat": 52.382521}, {"now": false, "type": "Gym / Fitness Center", "lng": 4.809552856907437, "name": "Squashcentrum Match", "lat": 52.34544416812631}, {"now": false, "type": "Office", "lng": 4.830464964101317, "name": "Kubrickolo.gy", "lat": 52.39093650557797}, {"now": false, "type": "Office", "lng": 4.830464964101317, "name": "Kubrickolo.gy", "lat": 52.39093650557797}, {"now": false, "type": "Office", "lng": 4.830464964101317, "name": "Kubrickolo.gy", "lat": 52.39093650557797}, {"now": false, "type": "Coffee Shop", "lng": 2.3500388860702515, "name": "Les T\u00eates Br\u00fbl\u00e9es", "lat": 48.864206594101105}, {"now": false, "type": "Concert Hall", "lng": 2.3535633087158203, "name": "La Ga\u00eet\u00e9 Lyrique", "lat": 48.866775611250205}, {"now": false, "type": "Bistro", "lng": 2.353348731994629, "name": "Bistrot de la Gait\u00e9", "lat": 48.86710025787718}, {"now": false, "type": "Hotel", "lng": 2.352915032199677, "name": "H\u00f4tel de Roubaix", "lat": 48.865447411624466}, {"now": false, "type": "Office", "lng": 4.830464964101317, "name": "Kubrickolo.gy", "lat": 52.39093650557797}, {"now": false, "type": "Office", "lng": 4.830464964101317, "name": "Kubrickolo.gy", "lat": 52.39093650557797}, {"now": false, "type": "Recording Studio", "lng": 4.935832, "name": "Earforce", "lat": 52.33755}, {"now": false, "type": "Office", "lng": 4.830464964101317, "name": "Kubrickolo.gy", "lat": 52.39093650557797}, {"now": false, "type": "Gym / Fitness Center", "lng": 4.891156, "name": "Fit For Free", "lat": 52.381323}, {"now": false, "type": "Design Studio", "lng": 4.857742, "name": "Terra Preta Multimedia Studio", "lat": 52.382521}, {"now": false, "type": "Office", "lng": 4.830464964101317, "name": "Kubrickolo.gy", "lat": 52.39093650557797}, {"now": false, "type": "Caf\u00e9", "lng": 4.876341819763184, "name": "Toussaint", "lat": 52.36572102359264}, {"now": false, "type": "Water Park", "lng": 5.026974532285277, "name": "Spa Wellness", "lat": 52.29803495993694}, {"now": false, "type": "Office", "lng": 4.830464964101317, "name": "Kubrickolo.gy", "lat": 52.39093650557797}, {"now": false, "type": "General Entertainment", "lng": 8.42458041518783, "name": "Stadthalle Speyer", "lat": 49.31824421292565}, {"now": false, "type": "Town", "lng": 8.438272476196289, "name": "Speyer", "lat": 49.31756930688871}, {"now": false, "type": "Indie Movie Theater", "lng": 15.623007756729677, "name": "Cinema Paradiso", "lat": 48.205407907556}, {"now": false, "type": "Hotel", "lng": 15.625345985714288, "name": "Hotel Metropol", "lat": 48.20248}, {"now": false, "type": "Hotel", "lng": 8.258091895158243, "name": "InterCityHotel Mainz", "lat": 49.999296829135986}, {"now": false, "type": "Jazz Club", "lng": 7.643538545512308, "name": "Hot Jazz Club", "lat": 51.95179869705182}, {"now": false, "type": "Town", "lng": 7.206348256605179, "name": "Rosendahl", "lat": 52.01928393915481}, {"now": false, "type": "University", "lng": 9.506351294587903, "name": "Universit\u00e4t Kassel", "lat": 51.322543001183135}, {"now": false, "type": "Hotel", "lng": 9.459918483726456, "name": "H4 Hotel Kassel", "lat": 51.31662198799767}, {"now": false, "type": "Hotel", "lng": 8.016133244053206, "name": "Hotel Braun", "lat": 49.665269266586265}, {"now": false, "type": "Town", "lng": 7.206348256605179, "name": "Rosendahl", "lat": 52.01928393915481}, {"now": false, "type": "Town", "lng": 7.206348256605179, "name": "Rosendahl", "lat": 52.01928393915481}, {"now": false, "type": "American Restaurant", "lng": 6.156761852045855, "name": "Restaurant Jackies", "lat": 52.25210292704504}, {"now": false, "type": "Supermarket", "lng": 4.80970046767981, "name": "Albert Heijn", "lat": 52.463630219977524}, {"now": false, "type": "Caf\u00e9", "lng": 4.876341819763184, "name": "Toussaint", "lat": 52.36572102359264}, {"now": false, "type": "Electronics Store", "lng": 4.882461, "name": "Apple Store", "lat": 52.363551}, {"now": false, "type": "Office", "lng": 4.830464964101317, "name": "Kubrickolo.gy", "lat": 52.39093650557797}, {"now": false, "type": "Bar", "lng": 4.896572381258011, "name": "Caf\u00e9 De Doelen", "lat": 52.36835454030276}, {"now": false, "type": "Theater", "lng": 4.895987, "name": "De Kleine Komedie", "lat": 52.367063}, {"now": false, "type": "Museum", "lng": 4.901005240759131, "name": "EYE", "lat": 52.384122836878994}, {"now": false, "type": "Art Museum", "lng": 4.902853100025056, "name": "Hermitage Amsterdam", "lat": 52.365463961290274}, {"now": false, "type": "Design Studio", "lng": 4.857742, "name": "Terra Preta Multimedia Studio", "lat": 52.382521}, {"now": false, "type": "Caf\u00e9", "lng": 4.889687020629518, "name": "Caf\u00e9 Van Zuylen", "lat": 52.37461906118459}, {"now": false, "type": "Caf\u00e9", "lng": 4.8966890483948715, "name": "Noorderlicht", "lat": 52.399570226754}, {"now": false, "type": "Office", "lng": 4.830464964101317, "name": "Kubrickolo.gy", "lat": 52.39093650557797}, {"now": false, "type": "Design Studio", "lng": 4.857742, "name": "Terra Preta Multimedia Studio", "lat": 52.382521}, {"now": false, "type": "Caf\u00e9", "lng": 4.876341819763184, "name": "Toussaint", "lat": 52.36572102359264}, {"now": false, "type": "Office", "lng": 4.830464964101317, "name": "Kubrickolo.gy", "lat": 52.39093650557797}, {"now": false, "type": "Office", "lng": 4.830464964101317, "name": "Kubrickolo.gy", "lat": 52.39093650557797}, {"now": false, "type": "Caf\u00e9", "lng": 4.8966890483948715, "name": "Noorderlicht", "lat": 52.399570226754}, {"now": false, "type": "Office", "lng": 4.830464964101317, "name": "Kubrickolo.gy", "lat": 52.39093650557797}, {"now": false, "type": "Office", "lng": 4.830464964101317, "name": "Kubrickolo.gy", "lat": 52.39093650557797}, {"now": false, "type": "Office", "lng": 4.830464964101317, "name": "Kubrickolo.gy", "lat": 52.39093650557797}, {"now": false, "type": "Art Museum", "lng": 12.578197717666626, "name": "Statens Museum for Kunst - SMK", "lat": 55.68848399318558}, {"now": false, "type": "Caf\u00e9", "lng": 12.57982313632965, "name": "Cafe Norden", "lat": 55.67886687253232}, {"now": false, "type": "Design Studio", "lng": 4.857742, "name": "Terra Preta Multimedia Studio", "lat": 52.382521}, {"now": false, "type": "Museum", "lng": 4.901005240759131, "name": "EYE", "lat": 52.384122836878994}, {"now": false, "type": "Design Studio", "lng": 4.857742, "name": "Terra Preta Multimedia Studio", "lat": 52.382521}, {"now": false, "type": "Tapas Restaurant", "lng": 5.225149597463314, "name": "Bodega-Bodega", "lat": 52.25621416576005}, {"now": false, "type": "Bar", "lng": 5.223698616027832, "name": "Caf\u00e9 't Bonte Paard", "lat": 52.25693190564774}, {"now": false, "type": "French Restaurant", "lng": 4.399359833489032, "name": "'t Hofke", "lat": 51.21999839716136}, {"now": false, "type": "Caf\u00e9", "lng": 4.393988549118464, "name": "Cafe De Singel", "lat": 51.197823395797535}, {"now": false, "type": "Hotel", "lng": 4.406642407667383, "name": "Zeemanshuis Hotel", "lat": 51.22564836683305}, {"now": false, "type": "Strip Club", "lng": 4.420715367597144, "name": "Amnesia", "lat": 51.21785860359396}, {"now": false, "type": "Irish Pub", "lng": 4.418356324619787, "name": "Kelly's Irish Pub", "lat": 51.21765295812299}, {"now": false, "type": "Gastropub", "lng": 4.3993089707106545, "name": "Ultimatum", "lat": 51.22086850253511}, {"now": false, "type": "Restaurant", "lng": 4.402365613553338, "name": "Grote Gans", "lat": 51.220673124093594}, {"now": false, "type": "Train Station", "lng": 4.420931129469446, "name": "Antwerp-Central Railway Station (Station Antwerpen-Centraal)", "lat": 51.21618610985961}, {"now": false, "type": "Train Station", "lng": 4.900374412536621, "name": "Amsterdam Central Railway Station (Station Amsterdam Centraal)", "lat": 52.37878224866535}, {"now": false, "type": "Hotel", "lng": 4.894897565548369, "name": "NH Collection Amsterdam Grand Hotel Krasnapolsky", "lat": 52.37279019614373}, {"now": false, "type": "Office", "lng": 4.830464964101317, "name": "Kubrickolo.gy", "lat": 52.39093650557797}, {"now": false, "type": "Caf\u00e9", "lng": 4.876341819763184, "name": "Toussaint", "lat": 52.36572102359264}, {"now": false, "type": "Museum", "lng": 4.901005240759131, "name": "EYE", "lat": 52.384122836878994}, {"now": false, "type": "School", "lng": 4.813915607773605, "name": "rijbewijsgigant", "lat": 52.46086805417788}, {"now": false, "type": "Caf\u00e9", "lng": 4.894334077835083, "name": "Caf\u00e9 Kobalt", "lat": 52.379522312779656}, {"now": false, "type": "Gym / Fitness Center", "lng": 4.891156, "name": "Fit For Free", "lat": 52.381323}, {"now": false, "type": "Office", "lng": 4.830464964101317, "name": "Kubrickolo.gy", "lat": 52.39093650557797}, {"now": false, "type": "Caf\u00e9", "lng": 4.894334077835083, "name": "Caf\u00e9 Kobalt", "lat": 52.379522312779656}, {"now": false, "type": "Gym / Fitness Center", "lng": 4.891156, "name": "Fit For Free", "lat": 52.381323}, {"now": false, "type": "Office", "lng": 4.830464964101317, "name": "Kubrickolo.gy", "lat": 52.39093650557797}, {"now": false, "type": "Museum", "lng": 4.901005240759131, "name": "EYE", "lat": 52.384122836878994}, {"now": false, "type": "Office", "lng": 4.830464964101317, "name": "Kubrickolo.gy", "lat": 52.39093650557797}, {"now": false, "type": "Gym / Fitness Center", "lng": 4.891156, "name": "Fit For Free", "lat": 52.381323}, {"now": false, "type": "Gastropub", "lng": 4.81120357042186, "name": "Eetcaf\u00e9 De Toog", "lat": 52.45759834435768}, {"now": false, "type": "Office", "lng": 4.830464964101317, "name": "Kubrickolo.gy", "lat": 52.39093650557797}, {"now": false, "type": "Gym / Fitness Center", "lng": 4.891156, "name": "Fit For Free", "lat": 52.381323}, {"now": false, "type": "Office", "lng": 4.830464964101317, "name": "Kubrickolo.gy", "lat": 52.39093650557797}, {"now": false, "type": "Office", "lng": 4.830464964101317, "name": "Kubrickolo.gy", "lat": 52.39093650557797}, {"now": false, "type": "College Arts Building", "lng": 6.095811125275468, "name": "Artez", "lat": 52.514067635174676}, {"now": false, "type": "Design Studio", "lng": 4.857742, "name": "Terra Preta Multimedia Studio", "lat": 52.382521}, {"now": false, "type": "Bar", "lng": 5.906777681079501, "name": "Bar Florian", "lat": 51.98230050778086}, {"now": false, "type": "Office", "lng": 4.830464964101317, "name": "Kubrickolo.gy", "lat": 52.39093650557797}, {"now": false, "type": "Caf\u00e9", "lng": 4.894334077835083, "name": "Caf\u00e9 Kobalt", "lat": 52.379522312779656}, {"now": false, "type": "Museum", "lng": 4.901005240759131, "name": "EYE", "lat": 52.384122836878994}, {"now": false, "type": "Office", "lng": 4.830464964101317, "name": "Kubrickolo.gy", "lat": 52.39093650557797}, {"now": false, "type": "Office", "lng": 4.830464964101317, "name": "Kubrickolo.gy", "lat": 52.39093650557797}, {"now": false, "type": "Office", "lng": 4.830464964101317, "name": "Kubrickolo.gy", "lat": 52.39093650557797}, {"now": false, "type": "Design Studio", "lng": 4.857742, "name": "Terra Preta Multimedia Studio", "lat": 52.382521}, {"now": false, "type": "Gym / Fitness Center", "lng": 4.891156, "name": "Fit For Free", "lat": 52.381323}, {"now": false, "type": "Museum", "lng": 4.901005240759131, "name": "EYE", "lat": 52.384122836878994}, {"now": false, "type": "Plaza", "lng": 4.881491661071777, "name": "Museumplein", "lat": 52.3574525953504}, {"now": false, "type": "Office", "lng": 4.830464964101317, "name": "Kubrickolo.gy", "lat": 52.39093650557797}, {"now": false, "type": "Music Venue", "lng": 4.8781351000064, "name": "Zaal 100", "lat": 52.3830052542326}, {"now": false, "type": "Office", "lng": 4.830464964101317, "name": "Kubrickolo.gy", "lat": 52.39093650557797}, {"now": false, "type": "Office", "lng": 4.830464964101317, "name": "Kubrickolo.gy", "lat": 52.39093650557797}, {"now": false, "type": "Caf\u00e9", "lng": 4.889142, "name": "Caf\u00e9 Luxembourg", "lat": 52.368775}, {"now": false, "type": "Office", "lng": 4.830464964101317, "name": "Kubrickolo.gy", "lat": 52.39093650557797}, {"now": false, "type": "Caf\u00e9", "lng": 4.876341819763184, "name": "Toussaint", "lat": 52.36572102359264}, {"now": false, "type": "Office", "lng": 4.830464964101317, "name": "Kubrickolo.gy", "lat": 52.39093650557797}, {"now": false, "type": "Gym / Fitness Center", "lng": 4.891156, "name": "Fit For Free", "lat": 52.381323}, {"now": false, "type": "Office", "lng": 4.830464964101317, "name": "Kubrickolo.gy", "lat": 52.39093650557797}, {"now": false, "type": "Caf\u00e9", "lng": 4.894334077835083, "name": "Caf\u00e9 Kobalt", "lat": 52.379522312779656}, {"now": false, "type": "Caf\u00e9", "lng": 4.889142, "name": "Caf\u00e9 Luxembourg", "lat": 52.368775}, {"now": false, "type": "Office", "lng": 4.830464964101317, "name": "Kubrickolo.gy", "lat": 52.39093650557797}, {"now": false, "type": "Caf\u00e9", "lng": 4.876341819763184, "name": "Toussaint", "lat": 52.36572102359264}, {"now": false, "type": "Office", "lng": 4.830464964101317, "name": "Kubrickolo.gy", "lat": 52.39093650557797}, {"now": false, "type": "Town", "lng": 7.206348256605179, "name": "Rosendahl", "lat": 52.01928393915481}, {"now": false, "type": "Gym / Fitness Center", "lng": 4.891156, "name": "Fit For Free", "lat": 52.381323}, {"now": false, "type": "Office", "lng": 4.830464964101317, "name": "Kubrickolo.gy", "lat": 52.39093650557797}, {"now": false, "type": "Office", "lng": 4.830464964101317, "name": "Kubrickolo.gy", "lat": 52.39093650557797}, {"now": false, "type": "Museum", "lng": 4.901005240759131, "name": "EYE", "lat": 52.384122836878994}, {"now": false, "type": "Bar", "lng": 5.9058184125, "name": "De Kroeg", "lat": 51.978621974999996}, {"now": false, "type": "Office", "lng": 4.830464964101317, "name": "Kubrickolo.gy", "lat": 52.39093650557797}, {"now": false, "type": "Design Studio", "lng": 4.857742, "name": "Terra Preta Multimedia Studio", "lat": 52.382521}, {"now": false, "type": "Gym / Fitness Center", "lng": 4.891156, "name": "Fit For Free", "lat": 52.381323}, {"now": false, "type": "Museum", "lng": 4.901005240759131, "name": "EYE", "lat": 52.384122836878994}, {"now": false, "type": "Caf\u00e9", "lng": 4.894334077835083, "name": "Caf\u00e9 Kobalt", "lat": 52.379522312779656}, {"now": false, "type": "Design Studio", "lng": 4.857742, "name": "Terra Preta Multimedia Studio", "lat": 52.382521}, {"now": false, "type": "Museum", "lng": 4.901005240759131, "name": "EYE", "lat": 52.384122836878994}, {"now": false, "type": "Caf\u00e9", "lng": 5.117480316454088, "name": "Caf\u00e9 Van Velsen", "lat": 52.08993065053857}, {"now": false, "type": "Pub", "lng": 5.11714586958312, "name": "'t College", "lat": 52.09062079282885}, {"now": false, "type": "Office", "lng": 4.830464964101317, "name": "Kubrickolo.gy", "lat": 52.39093650557797}, {"now": false, "type": "Office", "lng": 4.830464964101317, "name": "Kubrickolo.gy", "lat": 52.39093650557797}, {"now": false, "type": "Caf\u00e9", "lng": 4.876341819763184, "name": "Toussaint", "lat": 52.36572102359264}, {"now": false, "type": "Office", "lng": 4.830464964101317, "name": "Kubrickolo.gy", "lat": 52.39093650557797}, {"now": false, "type": "Office", "lng": 4.830464964101317, "name": "Kubrickolo.gy", "lat": 52.39093650557797}, {"now": false, "type": "Caf\u00e9", "lng": 4.876341819763184, "name": "Toussaint", "lat": 52.36572102359264}, {"now": false, "type": "Bridge", "lng": 11.97911024093628, "name": "Far\u00f8broerne", "lat": 54.946458266779665}, {"now": false, "type": "Pub", "lng": 12.590675354003906, "name": "McJoy's Choice", "lat": 55.68010089950764}, {"now": false, "type": "Monument / Landmark", "lng": 12.575746178627014, "name": "Rundet\u00e5rn", "lat": 55.68129556990495}, {"now": false, "type": "Food Court", "lng": 12.569522883750302, "name": "Torvehallerne", "lat": 55.68380535833204}, {"now": false, "type": "Campground", "lng": 12.513916701134153, "name": "Bellah\u00f8j Camping", "lat": 55.7013940150627}, {"now": false, "type": "French Restaurant", "lng": 12.582041728884308, "name": "Pastis", "lat": 55.68242253662171}, {"now": false, "type": "Caf\u00e9", "lng": 12.58172515790418, "name": "Caf\u00e9 Dan Turell", "lat": 55.68153916625204}, {"now": false, "type": "Art Museum", "lng": 12.578197717666626, "name": "Statens Museum for Kunst - SMK", "lat": 55.68848399318558}, {"now": false, "type": "Caf\u00e9", "lng": 12.57982313632965, "name": "Cafe Norden", "lat": 55.67886687253232}, {"now": false, "type": "Toy / Game Store", "lng": 12.576179, "name": "LEGO Store", "lat": 55.678658}, {"now": false, "type": "Campground", "lng": 12.513916701134153, "name": "Bellah\u00f8j Camping", "lat": 55.7013940150627}, {"now": false, "type": "Other Great Outdoors", "lng": 10.329233169079322, "name": "Jernalderlandsbyen", "lat": 55.427809323430246}, {"now": false, "type": "Castle", "lng": 10.487514334729802, "name": "Egeskov Slot", "lat": 55.174448094802436}, {"now": false, "type": "Harbor / Marina", "lng": 10.614676423772215, "name": "Svendborg Havn", "lat": 55.05931164279671}, {"now": false, "type": "Campground", "lng": 10.244806, "name": "Roel and Mary's Secret Camping Spot", "lat": 54.922328}, {"now": false, "type": "Harbor / Marina", "lng": 9.985692501068115, "name": "Fynshav F\u00e6rgehavn", "lat": 54.9938531870742}, {"now": false, "type": "Hotel", "lng": 9.879510376768918, "name": "Landhotel M\u00f6llhagen", "lat": 54.16433899093954}, {"now": false, "type": "Caf\u00e9", "lng": 5.9152034190847465, "name": "Caf\u00e9 Vrijdag", "lat": 51.98204590303066}, {"now": false, "type": "Train Station", "lng": 4.837861500336683, "name": "Amsterdam Sloterdijk Station (Station Amsterdam Sloterdijk)", "lat": 52.38897225483043}, {"now": false, "type": "Caf\u00e9", "lng": 4.894334077835083, "name": "Caf\u00e9 Kobalt", "lat": 52.379522312779656}, {"now": false, "type": "Gym / Fitness Center", "lng": 4.891156, "name": "Fit For Free", "lat": 52.381323}, {"now": false, "type": "Concert Hall", "lng": 4.938552509832211, "name": "Ziggo Dome", "lat": 52.3136105761727}, {"now": false, "type": "Design Studio", "lng": 4.857742, "name": "Terra Preta Multimedia Studio", "lat": 52.382521}, {"now": false, "type": "Caf\u00e9", "lng": 5.9152034190847465, "name": "Caf\u00e9 Vrijdag", "lat": 51.98204590303066}, {"now": false, "type": "Indie Movie Theater", "lng": 5.1191801195495765, "name": "Springhaver Theater", "lat": 52.08820829268549}, {"now": false, "type": "Comic Shop", "lng": 5.1213508463897055, "name": "Stripwinkel Blunder", "lat": 52.088328477217814}, {"now": false, "type": "Design Studio", "lng": 4.857742, "name": "Terra Preta Multimedia Studio", "lat": 52.382521}, {"now": false, "type": "Beach", "lng": 3.8146340887795707, "name": "Strandpavilioen Corazon", "lat": 51.74010751929659}, {"now": false, "type": "Harbor / Marina", "lng": 3.8585400581359863, "name": "Marina Port Z\u00e9lande", "lat": 51.75926079459099}, {"now": false, "type": "Beach Bar", "lng": 3.82231497, "name": "Beachclub Perry's", "lat": 51.741969}, {"now": false, "type": "Resort", "lng": 3.8593413739147397, "name": "Center Parcs Port Z\u00e9lande", "lat": 51.755995243966616}, {"now": false, "type": "Coffee Shop", "lng": 6.094397525049007, "name": "Brasserie Het Vliegerhuys", "lat": 52.51302268219378}, {"now": false, "type": "Office", "lng": 4.830464964101317, "name": "Kubrickolo.gy", "lat": 52.39093650557797}, {"now": false, "type": "Caf\u00e9", "lng": 4.852870333917722, "name": "Eetcaf\u00e9 Westpoort", "lat": 52.39159009324955}, {"now": false, "type": "Design Studio", "lng": 4.857742, "name": "Terra Preta Multimedia Studio", "lat": 52.382521}, {"now": false, "type": "Design Studio", "lng": 4.857742, "name": "Terra Preta Multimedia Studio", "lat": 52.382521}, {"now": false, "type": "Gym / Fitness Center", "lng": 4.891156, "name": "Fit For Free", "lat": 52.381323}, {"now": false, "type": "School", "lng": 4.813915607773605, "name": "rijbewijsgigant", "lat": 52.46086805417788}, {"now": false, "type": "Caf\u00e9", "lng": 4.894334077835083, "name": "Caf\u00e9 Kobalt", "lat": 52.379522312779656}, {"now": false, "type": "Train Station", "lng": 4.818988688251826, "name": "Station Zaandam Kogerveld", "lat": 52.45691581899127}, {"now": false, "type": "Office", "lng": 4.830464964101317, "name": "Kubrickolo.gy", "lat": 52.39093650557797}, {"now": false, "type": "Gym / Fitness Center", "lng": 4.891156, "name": "Fit For Free", "lat": 52.381323}, {"now": false, "type": "Caf\u00e9", "lng": 4.894334077835083, "name": "Caf\u00e9 Kobalt", "lat": 52.379522312779656}, {"now": false, "type": "Office", "lng": 4.830464964101317, "name": "Kubrickolo.gy", "lat": 52.39093650557797}, {"now": false, "type": "Bar", "lng": 4.892563819885254, "name": "P.King", "lat": 52.36547862734887}, {"now": false, "type": "Design Studio", "lng": 4.857742, "name": "Terra Preta Multimedia Studio", "lat": 52.382521}, {"now": false, "type": "Museum", "lng": 4.901005240759131, "name": "EYE", "lat": 52.384122836878994}, {"now": false, "type": "Jazz Club", "lng": 4.912809133529663, "name": "Bimhuis", "lat": 52.3779766780531}, {"now": false, "type": "Design Studio", "lng": 4.857742, "name": "Terra Preta Multimedia Studio", "lat": 52.382521}, {"now": false, "type": "Office", "lng": 4.830464964101317, "name": "Kubrickolo.gy", "lat": 52.39093650557797}, {"now": false, "type": "Design Studio", "lng": 4.857742, "name": "Terra Preta Multimedia Studio", "lat": 52.382521}, {"now": false, "type": "Steakhouse", "lng": 5.227911592831392, "name": "Caf\u00e9 Loetje", "lat": 52.25382315665254}, {"now": false, "type": "Multiplex", "lng": 4.894820402019465, "name": "Path\u00e9 Tuschinski", "lat": 52.366403170086535}, {"now": false, "type": "Diner", "lng": 3.935639, "name": "In De Keulse Pot", "lat": 51.809584}, {"now": false, "type": "Music Venue", "lng": 3.825156257678536, "name": "Concert at SEA 2013", "lat": 51.74811617859468}, {"now": false, "type": "Gym / Fitness Center", "lng": 4.891156, "name": "Fit For Free", "lat": 52.381323}, {"now": false, "type": "School", "lng": 4.813915607773605, "name": "rijbewijsgigant", "lat": 52.46086805417788}, {"now": false, "type": "Office", "lng": 4.830464964101317, "name": "Kubrickolo.gy", "lat": 52.39093650557797}, {"now": false, "type": "Bakery", "lng": 4.874711036682129, "name": "De Bakkerswinkel", "lat": 52.38576324505702}, {"now": false, "type": "Sushi Restaurant", "lng": 5.1174190274194284, "name": "Konnichi Wa", "lat": 52.08998813378618}, {"now": false, "type": "Gym / Fitness Center", "lng": 4.891156, "name": "Fit For Free", "lat": 52.381323}, {"now": false, "type": "Office", "lng": 4.830464964101317, "name": "Kubrickolo.gy", "lat": 52.39093650557797}, {"now": false, "type": "Tea Room", "lng": 4.819934, "name": "De Koekfabriek", "lat": 52.446305}, {"now": false, "type": "Bakery", "lng": 4.874711036682129, "name": "De Bakkerswinkel", "lat": 52.38576324505702}, {"now": false, "type": "Gym / Fitness Center", "lng": 4.891156, "name": "Fit For Free", "lat": 52.381323}, {"now": false, "type": "Office", "lng": 4.830464964101317, "name": "Kubrickolo.gy", "lat": 52.39093650557797}, {"now": false, "type": "Trail", "lng": 4.575140770721518, "name": "Kennmerduinen", "lat": 52.44980660113806}, {"now": false, "type": "Design Studio", "lng": 4.857742, "name": "Terra Preta Multimedia Studio", "lat": 52.382521}, {"now": false, "type": "Caf\u00e9", "lng": 4.894334077835083, "name": "Caf\u00e9 Kobalt", "lat": 52.379522312779656}, {"now": false, "type": "Office", "lng": 4.830464964101317, "name": "Kubrickolo.gy", "lat": 52.39093650557797}, {"now": false, "type": "Caf\u00e9", "lng": 4.852870333917722, "name": "Eetcaf\u00e9 Westpoort", "lat": 52.39159009324955}, {"now": false, "type": "Gym / Fitness Center", "lng": 4.891156, "name": "Fit For Free", "lat": 52.381323}, {"now": false, "type": "Office", "lng": 4.830464964101317, "name": "Kubrickolo.gy", "lat": 52.39093650557797}, {"now": false, "type": "Gas Station", "lng": 4.855119915676098, "name": "Esso", "lat": 52.44256986729758}, {"now": false, "type": "Concert Hall", "lng": 4.912840083414216, "name": "Muziekgebouw aan 't IJ", "lat": 52.37809266488914}, {"now": false, "type": "Jazz Club", "lng": 4.912809133529663, "name": "Bimhuis", "lat": 52.3779766780531}, {"now": false, "type": "Jazz Club", "lng": 4.912809133529663, "name": "Bimhuis", "lat": 52.3779766780531}, {"now": false, "type": "Concert Hall", "lng": 4.912840083414216, "name": "Muziekgebouw aan 't IJ", "lat": 52.37809266488914}, {"now": false, "type": "Caf\u00e9", "lng": 4.894334077835083, "name": "Caf\u00e9 Kobalt", "lat": 52.379522312779656}, {"now": false, "type": "Design Studio", "lng": 4.857742, "name": "Terra Preta Multimedia Studio", "lat": 52.382521}, {"now": false, "type": "Caf\u00e9", "lng": 4.894334077835083, "name": "Caf\u00e9 Kobalt", "lat": 52.379522312779656}, {"now": false, "type": "Water Park", "lng": 5.026974532285277, "name": "Spa Wellness", "lat": 52.29803495993694}, {"now": false, "type": "Design Studio", "lng": 4.857742, "name": "Terra Preta Multimedia Studio", "lat": 52.382521}, {"now": false, "type": "Museum", "lng": 4.901005240759131, "name": "EYE", "lat": 52.384122836878994}, {"now": false, "type": "Caf\u00e9", "lng": 4.894334077835083, "name": "Caf\u00e9 Kobalt", "lat": 52.379522312779656}, {"now": false, "type": "Gym / Fitness Center", "lng": 4.891156, "name": "Fit For Free", "lat": 52.381323}, {"now": false, "type": "Cultural Center", "lng": 5.1049213087102565, "name": "Het Huis", "lat": 52.09683827106821}, {"now": false, "type": "Office", "lng": 4.830464964101317, "name": "Kubrickolo.gy", "lat": 52.39093650557797}, {"now": false, "type": "Office", "lng": 4.830464964101317, "name": "Kubrickolo.gy", "lat": 52.39093650557797}, {"now": false, "type": "Bar", "lng": 4.892563819885254, "name": "P.King", "lat": 52.36547862734887}, {"now": false, "type": "Office", "lng": 4.830464964101317, "name": "Kubrickolo.gy", "lat": 52.39093650557797}, {"now": false, "type": "Museum", "lng": 4.901005240759131, "name": "EYE", "lat": 52.384122836878994}, {"now": false, "type": "School", "lng": 4.813915607773605, "name": "rijbewijsgigant", "lat": 52.46086805417788}, {"now": false, "type": "Coffee Shop", "lng": 4.89748556343617, "name": "Starbucks", "lat": 52.3660492867161}, {"now": false, "type": "Office", "lng": 4.830464964101317, "name": "Kubrickolo.gy", "lat": 52.39093650557797}, {"now": false, "type": "Gym / Fitness Center", "lng": 4.891156, "name": "Fit For Free", "lat": 52.381323}, {"now": false, "type": "School", "lng": 4.813915607773605, "name": "rijbewijsgigant", "lat": 52.46086805417788}, {"now": false, "type": "Gym / Fitness Center", "lng": 4.891156, "name": "Fit For Free", "lat": 52.381323}, {"now": false, "type": "Design Studio", "lng": 4.857742, "name": "Terra Preta Multimedia Studio", "lat": 52.382521}, {"now": false, "type": "Jazz Club", "lng": 4.912809133529663, "name": "Bimhuis", "lat": 52.3779766780531}, {"now": false, "type": "Office", "lng": 4.830464964101317, "name": "Kubrickolo.gy", "lat": 52.39093650557797}, {"now": false, "type": "Caf\u00e9", "lng": 4.889142, "name": "Caf\u00e9 Luxembourg", "lat": 52.368775}, {"now": false, "type": "Office", "lng": 4.830464964101317, "name": "Kubrickolo.gy", "lat": 52.39093650557797}, {"now": false, "type": "Coffee Shop", "lng": 4.89748556343617, "name": "Starbucks", "lat": 52.3660492867161}, {"now": false, "type": "Gym / Fitness Center", "lng": 4.891156, "name": "Fit For Free", "lat": 52.381323}, {"now": false, "type": "Office", "lng": 4.830464964101317, "name": "Kubrickolo.gy", "lat": 52.39093650557797}, {"now": false, "type": "Water Park", "lng": 5.026974532285277, "name": "Spa Wellness", "lat": 52.29803495993694}, {"now": false, "type": "Gym / Fitness Center", "lng": 4.891156, "name": "Fit For Free", "lat": 52.381323}, {"now": false, "type": "Office", "lng": 4.830464964101317, "name": "Kubrickolo.gy", "lat": 52.39093650557797}, {"now": false, "type": "Office", "lng": 4.837192895741965, "name": "UPS pickup centre", "lat": 52.3982466442635}, {"now": false, "type": "Office", "lng": 4.830464964101317, "name": "Kubrickolo.gy", "lat": 52.39093650557797}, {"now": false, "type": "Gym / Fitness Center", "lng": 4.891156, "name": "Fit For Free", "lat": 52.381323}, {"now": false, "type": "Office", "lng": 4.830464964101317, "name": "Kubrickolo.gy", "lat": 52.39093650557797}, {"now": false, "type": "Office", "lng": 4.830464964101317, "name": "Kubrickolo.gy", "lat": 52.39093650557797}, {"now": false, "type": "Design Studio", "lng": 4.857742, "name": "Terra Preta Multimedia Studio", "lat": 52.382521}, {"now": false, "type": "Pub", "lng": 5.903799880923643, "name": "Dollars Rock Caf\u00e9", "lat": 51.98232041962352}, {"now": false, "type": "Italian Restaurant", "lng": 5.907581985417506, "name": "ZILLI", "lat": 51.98242066698302}, {"now": false, "type": "Bar", "lng": 5.906777681079501, "name": "Bar Florian", "lat": 51.98230050778086}, {"now": false, "type": "Art Gallery", "lng": 5.786996981608223, "name": "Kr\u00f6ller M\u00fcller", "lat": 52.102907075462106}, {"now": false, "type": "Office", "lng": 4.830464964101317, "name": "Kubrickolo.gy", "lat": 52.39093650557797}, {"now": false, "type": "Gym / Fitness Center", "lng": 4.891156, "name": "Fit For Free", "lat": 52.381323}, {"now": false, "type": "Office", "lng": 4.830464964101317, "name": "Kubrickolo.gy", "lat": 52.39093650557797}, {"now": false, "type": "Design Studio", "lng": 4.857742, "name": "Terra Preta Multimedia Studio", "lat": 52.382521}, {"now": false, "type": "Office", "lng": 4.830464964101317, "name": "Kubrickolo.gy", "lat": 52.39093650557797}, {"now": false, "type": "Design Studio", "lng": 4.857742, "name": "Terra Preta Multimedia Studio", "lat": 52.382521}, {"now": false, "type": "Gym / Fitness Center", "lng": 4.891156, "name": "Fit For Free", "lat": 52.381323}, {"now": false, "type": "Design Studio", "lng": 4.857742, "name": "Terra Preta Multimedia Studio", "lat": 52.382521}, {"now": false, "type": "Theater", "lng": 4.895987, "name": "De Kleine Komedie", "lat": 52.367063}, {"now": false, "type": "Coffee Shop", "lng": 4.89748556343617, "name": "Starbucks", "lat": 52.3660492867161}, {"now": false, "type": "Caf\u00e9", "lng": 5.909174276468052, "name": "Babo Caf\u00e9", "lat": 51.98287909861344}, {"now": false, "type": "Office", "lng": 4.830464964101317, "name": "Kubrickolo.gy", "lat": 52.39093650557797}, {"now": false, "type": "Office", "lng": 4.830464964101317, "name": "Kubrickolo.gy", "lat": 52.39093650557797}, {"now": false, "type": "Office", "lng": 4.830464964101317, "name": "Kubrickolo.gy", "lat": 52.39093650557797}, {"now": false, "type": "Office", "lng": 4.830464964101317, "name": "Kubrickolo.gy", "lat": 52.39093650557797}, {"now": false, "type": "Hotel", "lng": 5.532025314649446, "name": "Postillion Hotel Amersfoort Veluwemeer", "lat": 52.26817145828311}, {"now": false, "type": "Bar", "lng": 4.900115162186789, "name": "Caf\u00e9 Langereis", "lat": 52.366235156570035}, {"now": false, "type": "Theater", "lng": 4.895987, "name": "De Kleine Komedie", "lat": 52.367063}, {"now": false, "type": "Coffee Shop", "lng": 4.89748556343617, "name": "Starbucks", "lat": 52.3660492867161}, {"now": false, "type": "Department Store", "lng": 4.894392057276645, "name": "De Bijenkorf", "lat": 52.37367647640282}, {"now": false, "type": "Bookstore", "lng": 4.888937063662242, "name": "Athenaeum Boekhandel", "lat": 52.368861524371965}, {"now": false, "type": "Bakery", "lng": 4.874711036682129, "name": "De Bakkerswinkel", "lat": 52.38576324505702}, {"now": false, "type": "Irish Pub", "lng": 5.115757445341953, "name": "O'Leary's Irish Pub & Restaurant", "lat": 52.09919297508205}, {"now": false, "type": "Music Venue", "lng": 5.114489793777466, "name": "EKKO", "lat": 52.09748970135219}, {"now": false, "type": "Office", "lng": 4.830464964101317, "name": "Kubrickolo.gy", "lat": 52.39093650557797}, {"now": false, "type": "Office", "lng": 4.830464964101317, "name": "Kubrickolo.gy", "lat": 52.39093650557797}, {"now": false, "type": "Caf\u00e9", "lng": 4.894334077835083, "name": "Caf\u00e9 Kobalt", "lat": 52.379522312779656}, {"now": false, "type": "Office", "lng": 4.830464964101317, "name": "Kubrickolo.gy", "lat": 52.39093650557797}, {"now": false, "type": "Gym / Fitness Center", "lng": 4.891156, "name": "Fit For Free", "lat": 52.381323}, {"now": false, "type": "Office", "lng": 4.830464964101317, "name": "Kubrickolo.gy", "lat": 52.39093650557797}, {"now": false, "type": "Bar", "lng": 5.906777681079501, "name": "Bar Florian", "lat": 51.98230050778086}, {"now": false, "type": "Restaurant", "lng": 5.904691852085376, "name": "Le Grand Caf\u00e9", "lat": 51.982615784683915}, {"now": false, "type": "Bar", "lng": 5.906777681079501, "name": "Bar Florian", "lat": 51.98230050778086}, {"now": false, "type": "Bakery", "lng": 4.874711036682129, "name": "De Bakkerswinkel", "lat": 52.38576324505702}, {"now": false, "type": "Gym / Fitness Center", "lng": 4.891156, "name": "Fit For Free", "lat": 52.381323}, {"now": false, "type": "Concert Hall", "lng": 4.366006533864883, "name": "Cirque Royal / Koninklijk Circus (Koninklijk Circus)", "lat": 50.84884060211883}, {"now": false, "type": "Train Station", "lng": 4.336095345726152, "name": "Brussels-South Railway Station (ZYR) (Station Brussel-Zuid)", "lat": 50.835869894077355}, {"now": false, "type": "Train Station", "lng": 4.900374412536621, "name": "Amsterdam Central Railway Station (Station Amsterdam Centraal)", "lat": 52.37878224866535}, {"now": false, "type": "Coffee Shop", "lng": 4.899619024607492, "name": "Starbucks", "lat": 52.37898061166784}, {"now": false, "type": "Office", "lng": 4.830464964101317, "name": "Kubrickolo.gy", "lat": 52.39093650557797}, {"now": false, "type": "Caf\u00e9", "lng": 4.882841418138585, "name": "De Oude Wester", "lat": 52.373959769256366}, {"now": false, "type": "Gym / Fitness Center", "lng": 4.891156, "name": "Fit For Free", "lat": 52.381323}, {"now": false, "type": "Caf\u00e9", "lng": 4.894334077835083, "name": "Caf\u00e9 Kobalt", "lat": 52.379522312779656}, {"now": false, "type": "Department Store", "lng": 4.894392057276645, "name": "De Bijenkorf", "lat": 52.37367647640282}, {"now": false, "type": "Bookstore", "lng": 4.888937063662242, "name": "Athenaeum Boekhandel", "lat": 52.368861524371965}]