[{"type": "Airport", "lng": 39.80360971300479, "lat": 47.25545381275797, "name": "Rostov-on-Don Airport (ROV) (\u0410\u044d\u0440\u043e\u043f\u043e\u0440\u0442 \u0420\u043e\u0441\u0442\u043e\u0432-\u043d\u0430-\u0414\u043e\u043d\u0443)", "now": true}, {"type": "Asian Restaurant", "lng": 39.70411510165484, "lat": 47.226186655230286, "name": "\u0420\u0418\u0421-54", "now": false}, {"type": "Bar", "lng": 39.71364498138427, "lat": 47.227109543705524, "name": "Cow Bar & Restaurant", "now": false}, {"type": "Hotel", "lng": 39.70369530468808, "lat": 47.226946865978356, "name": "Marins Park Hotel", "now": false}, {"type": "Airport", "lng": 39.80360971300479, "lat": 47.25545381275797, "name": "Rostov-on-Don Airport (ROV) (\u0410\u044d\u0440\u043e\u043f\u043e\u0440\u0442 \u0420\u043e\u0441\u0442\u043e\u0432-\u043d\u0430-\u0414\u043e\u043d\u0443)", "now": false}, {"type": "Airport", "lng": 37.4090324505796, "lat": 55.96422282026074, "name": "Sheremetyevo International Airport (SVO) (\u041c\u0435\u0436\u0434\u0443\u043d\u0430\u0440\u043e\u0434\u043d\u044b\u0439 \u0430\u044d\u0440\u043e\u043f\u043e\u0440\u0442 \u0428\u0435\u0440\u0435\u043c\u0435\u0442\u044c\u0435\u0432\u043e)", "now": false}, {"type": "Airport", "lng": 4.764046217456725, "lat": 52.30903466732481, "name": "Amsterdam Airport Schiphol (AMS)", "now": false}, {"type": "Airport", "lng": 4.764046217456725, "lat": 52.30903466732481, "name": "Amsterdam Airport Schiphol (AMS)", "now": false}, {"type": "Airport", "lng": 19.801819359365993, "lat": 50.07223010071994, "name": "John Paul II International Airport Krak\u00f3w\u2013Balice (KRK) (Mi\u0119dzynarodowy Port Lotniczy im. Jana Paw\u0142a II Krak\u00f3w-Balice)", "now": false}, {"type": "Airport Service", "lng": 19.788118, "lat": 50.076977, "name": "Krakow", "now": false}, {"type": "Airport", "lng": 4.764046217456725, "lat": 52.30903466732481, "name": "Amsterdam Airport Schiphol (AMS)", "now": false}, {"type": "Airport", "lng": 6.048317551365021, "lat": 52.24111846696927, "name": "Teuge International Airport (EHTE)", "now": false}, {"type": "Airport", "lng": 5.152907255548942, "lat": 52.193148539617674, "name": "Hilversum Airport (Vliegveld Hilversum)", "now": false}, {"type": "Airport", "lng": -22.622909545898438, "lat": 63.99117062931456, "name": "Keflavik International Airport (KEF) (Keflav\u00edkurflugv\u00f6llur)", "now": false}, {"type": "Airport", "lng": -22.622909545898438, "lat": 63.99117062931456, "name": "Keflavik International Airport (KEF) (Keflav\u00edkurflugv\u00f6llur)", "now": false}, {"type": "Airport", "lng": 4.764046217456725, "lat": 52.30903466732481, "name": "Amsterdam Airport Schiphol (AMS)", "now": false}, {"type": "Airport", "lng": 4.764046217456725, "lat": 52.30903466732481, "name": "Amsterdam Airport Schiphol (AMS)", "now": false}, {"type": "Airport", "lng": 0.04976896880526665, "lat": 51.50396412422985, "name": "London City Airport (LCY)", "now": false}, {"type": "Airport", "lng": 0.04976896880526665, "lat": 51.50396412422985, "name": "London City Airport (LCY)", "now": false}, {"type": "Airport", "lng": 4.764046217456725, "lat": 52.30903466732481, "name": "Amsterdam Airport Schiphol (AMS)", "now": false}, {"type": "Airport", "lng": 4.764046217456725, "lat": 52.30903466732481, "name": "Amsterdam Airport Schiphol (AMS)", "now": false}, {"type": "Airport", "lng": 2.5702929199346776, "lat": 49.004685160970574, "name": "Paris Charles de Gaulle Airport (CDG) (A\u00e9roport Paris-Charles de Gaulle)", "now": false}, {"type": "Airport", "lng": -73.78578915437089, "lat": 40.64474948407768, "name": "John F. Kennedy International Airport (JFK)", "now": false}, {"type": "Airport", "lng": -73.78578915437089, "lat": 40.64474948407768, "name": "John F. Kennedy International Airport (JFK)", "now": false}, {"type": "Airport", "lng": 4.764046217456725, "lat": 52.30903466732481, "name": "Amsterdam Airport Schiphol (AMS)", "now": false}, {"type": "Airport", "lng": 4.764046217456725, "lat": 52.30903466732481, "name": "Amsterdam Airport Schiphol (AMS)", "now": false}, {"type": "Airport", "lng": -122.38885916361724, "lat": 37.61692481575441, "name": "San Francisco International Airport (SFO)", "now": false}, {"type": "Convention", "lng": -122.08071924173356, "lat": 37.42676990683185, "name": "Google I/O 2017", "now": false}, {"type": "Airport", "lng": -122.38885916361724, "lat": 37.61692481575441, "name": "San Francisco International Airport (SFO)", "now": false}, {"type": "Airport", "lng": -111.9813333185899, "lat": 40.78693504261269, "name": "Salt Lake City International Airport (SLC)", "now": false}, {"type": "Airport", "lng": 4.764046217456725, "lat": 52.30903466732481, "name": "Amsterdam Airport Schiphol (AMS)", "now": false}, {"type": "Airport", "lng": 12.645695264827953, "lat": 55.62833695998232, "name": "Copenhagen Airport (CPH) (K\u00f8benhavns Lufthavn)", "now": false}, {"type": "Airport", "lng": -111.9813333185899, "lat": 40.78693504261269, "name": "Salt Lake City International Airport (SLC)", "now": false}, {"type": "Airport", "lng": -115.14663455911995, "lat": 36.08435326385343, "name": "McCarran International Airport (LAS)", "now": false}, {"type": "Airport", "lng": -115.14663455911995, "lat": 36.08435326385343, "name": "McCarran International Airport (LAS)", "now": false}, {"type": "Airport", "lng": -118.405601978302, "lat": 33.94332434443264, "name": "Los Angeles International Airport (LAX)", "now": false}, {"type": "Airport", "lng": -122.38885916361724, "lat": 37.61692481575441, "name": "San Francisco International Airport (SFO)", "now": false}, {"type": "Airport", "lng": -122.38885916361724, "lat": 37.61692481575441, "name": "San Francisco International Airport (SFO)", "now": false}, {"type": "Airport", "lng": -118.405601978302, "lat": 33.94332434443264, "name": "Los Angeles International Airport (LAX)", "now": false}, {"type": "Airport", "lng": -97.6668415425308, "lat": 30.202310129239955, "name": "Austin Bergstrom International Airport (AUS)", "now": false}, {"type": "Airport", "lng": -97.6668415425308, "lat": 30.202310129239955, "name": "Austin Bergstrom International Airport (AUS)", "now": false}, {"type": "Airport", "lng": -111.9813333185899, "lat": 40.78693504261269, "name": "Salt Lake City International Airport (SLC)", "now": false}, {"type": "Airport", "lng": -122.38885916361724, "lat": 37.61692481575441, "name": "San Francisco International Airport (SFO)", "now": false}, {"type": "Airport", "lng": -122.38885916361724, "lat": 37.61692481575441, "name": "San Francisco International Airport (SFO)", "now": false}, {"type": "Airport", "lng": 4.764046217456725, "lat": 52.30903466732481, "name": "Amsterdam Airport Schiphol (AMS)", "now": false}, {"type": "Airport", "lng": 4.764046217456725, "lat": 52.30903466732481, "name": "Amsterdam Airport Schiphol (AMS)", "now": false}, {"type": "Airport", "lng": -122.38885916361724, "lat": 37.61692481575441, "name": "San Francisco International Airport (SFO)", "now": false}, {"type": "Airport", "lng": -122.38885916361724, "lat": 37.61692481575441, "name": "San Francisco International Airport (SFO)", "now": false}, {"type": "Airport", "lng": 4.764046217456725, "lat": 52.30903466732481, "name": "Amsterdam Airport Schiphol (AMS)", "now": false}, {"type": "Airport", "lng": 16.563157568569935, "lat": 48.119663888271745, "name": "Vienna International Airport (VIE) (Flughafen Wien-Schwechat)", "now": false}, {"type": "Airport", "lng": 4.764046217456725, "lat": 52.30903466732481, "name": "Amsterdam Airport Schiphol (AMS)", "now": false}, {"type": "Airport", "lng": -2.9059542035252615, "lat": 43.305375778120755, "name": "Aeropuerto de Bilbao (BIO)", "now": false}, {"type": "Airport", "lng": -2.9059542035252615, "lat": 43.305375778120755, "name": "Aeropuerto de Bilbao (BIO)", "now": false}, {"type": "Airport", "lng": 4.764046217456725, "lat": 52.30903466732481, "name": "Amsterdam Airport Schiphol (AMS)", "now": false}, {"type": "Airport", "lng": 0.04976896880526665, "lat": 51.50396412422985, "name": "London City Airport (LCY)", "now": false}, {"type": "Airport", "lng": 0.04976896880526665, "lat": 51.50396412422985, "name": "London City Airport (LCY)", "now": false}, {"type": "Airport", "lng": 4.764046217456725, "lat": 52.30903466732481, "name": "Amsterdam Airport Schiphol (AMS)", "now": false}, {"type": "Airport", "lng": 17.93097496032715, "lat": 59.650527933419625, "name": "Stockholm-Arlanda Airport (ARN)", "now": false}, {"type": "Airport", "lng": 16.628351651724433, "lat": 59.60183262632053, "name": "Stockholm V\u00e4ster\u00e5s Flygplats (VST)", "now": false}, {"type": "Airport", "lng": 24.966536753212342, "lat": 60.31816217381988, "name": "Helsinki Airport  (HEL) (Helsinki Airport (HEL))", "now": false}, {"type": "Airport", "lng": 4.764046217456725, "lat": 52.30903466732481, "name": "Amsterdam Airport Schiphol (AMS)", "now": false}, {"type": "Airport", "lng": 14.282695517041821, "lat": 40.877845304694155, "name": "Naples International Airport \"Ugo Niutta\" (NAP) (Aeroporto Internazionale di Napoli Capodichino \"Ugo Niutta\")", "now": false}, {"type": "Airport", "lng": 14.282695517041821, "lat": 40.877845304694155, "name": "Naples International Airport \"Ugo Niutta\" (NAP) (Aeroporto Internazionale di Napoli Capodichino \"Ugo Niutta\")", "now": false}, {"type": "Airport", "lng": 4.764046217456725, "lat": 52.30903466732481, "name": "Amsterdam Airport Schiphol (AMS)", "now": false}, {"type": "Airport", "lng": 4.764046217456725, "lat": 52.30903466732481, "name": "Amsterdam Airport Schiphol (AMS)", "now": false}, {"type": "Airport", "lng": 30.273572934764662, "lat": 59.79963388793562, "name": "Pulkovo International Airport (LED) (\u041c\u0435\u0436\u0434\u0443\u043d\u0430\u0440\u043e\u0434\u043d\u044b\u0439 \u0430\u044d\u0440\u043e\u043f\u043e\u0440\u0442 \u041f\u0443\u043b\u043a\u043e\u0432\u043e)", "now": false}, {"type": "Airport", "lng": 30.273572934764662, "lat": 59.79963388793562, "name": "Pulkovo International Airport (LED) (\u041c\u0435\u0436\u0434\u0443\u043d\u0430\u0440\u043e\u0434\u043d\u044b\u0439 \u0430\u044d\u0440\u043e\u043f\u043e\u0440\u0442 \u041f\u0443\u043b\u043a\u043e\u0432\u043e)", "now": false}, {"type": "Airport", "lng": 4.764046217456725, "lat": 52.30903466732481, "name": "Amsterdam Airport Schiphol (AMS)", "now": false}, {"type": "Airport", "lng": -122.38885916361724, "lat": 37.61692481575441, "name": "San Francisco International Airport (SFO)", "now": false}, {"type": "Cocktail Bar", "lng": -122.43206667777437, "lat": 37.80654071386508, "name": "The Interval at Long Now", "now": false}, {"type": "Coffee Shop", "lng": -122.41378448333333, "lat": 37.752603, "name": "Haus Coffee", "now": false}, {"type": "Brewery", "lng": -122.24441940390503, "lat": 37.49835378970797, "name": "Devil's Canyon Brewing Company", "now": false}, {"type": "Office", "lng": -122.13658889864631, "lat": 37.401360078586315, "name": "Nest HQ 3.0", "now": false}, {"type": "Airport", "lng": -122.38885916361724, "lat": 37.61692481575441, "name": "San Francisco International Airport (SFO)", "now": false}, {"type": "Airport", "lng": 4.764046217456725, "lat": 52.30903466732481, "name": "Amsterdam Airport Schiphol (AMS)", "now": false}, {"type": "Concert Hall", "lng": 4.912840083414216, "lat": 52.37809266488914, "name": "Muziekgebouw aan 't IJ", "now": false}, {"type": "Restaurant", "lng": 4.907260213346564, "lat": 52.377693060623656, "name": "Choux", "now": false}, {"type": "Italian Restaurant", "lng": 4.902465220123396, "lat": 52.35349776449129, "name": "Spaghetteria", "now": false}, {"type": "Office", "lng": 4.9534359369595355, "lat": 52.30276140436009, "name": "ING Haarlerbergpark (HBP)", "now": false}, {"type": "Office", "lng": 4.871930635577136, "lat": 52.33765478895593, "name": "Google Amsterdam", "now": false}, {"type": "Hotel", "lng": 139.6906391, "lat": 35.68557476, "name": "Park Hyatt Tokyo (\u30d1\u30fc\u30af\u30cf\u30a4\u30a2\u30c3\u30c8\u6771\u4eac)", "now": false}, {"type": "Monument / Landmark", "lng": 139.81071, "lat": 35.710054, "name": "Tokyo Skytree (\u6771\u4eac\u30b9\u30ab\u30a4\u30c4\u30ea\u30fc)", "now": false}, {"type": "Art Museum", "lng": 139.72963527697652, "lat": 35.66035416332519, "name": "Mori Art Museum (\u68ee\u7f8e\u8853\u9928)", "now": false}, {"type": "Art Gallery", "lng": 139.73035991191864, "lat": 35.667477492825796, "name": "21_21 DESIGN SIGHT", "now": false}, {"type": "Hotel", "lng": 139.771525, "lat": 35.709444, "name": "HOTEL COCOGRAND UENOSHINOBAZU (\u30db\u30c6\u30eb \u30b3\u30b3\u30fb\u30b0\u30e9\u30f3\u4e0a\u91ce\u4e0d\u5fcd)", "now": false}, {"type": "Airport", "lng": 140.38687589242883, "lat": 35.77190522612856, "name": "Narita International Airport (NRT) (\u6210\u7530\u56fd\u969b\u7a7a\u6e2f)", "now": false}, {"type": "Airport", "lng": 4.764046217456725, "lat": 52.30903466732481, "name": "Amsterdam Airport Schiphol (AMS)", "now": false}, {"type": "Food Court", "lng": 4.868118166923523, "lat": 52.366906780645856, "name": "Foodhallen", "now": false}, {"type": "Bookstore", "lng": 4.889495372772216, "lat": 52.36896703972043, "name": "The American Book Center", "now": false}, {"type": "Bar", "lng": 5.906777681079501, "lat": 51.98230050778086, "name": "Bar Florian", "now": false}, {"type": "Office", "lng": 6.823655466078068, "lat": 51.2345851154123, "name": "METRO", "now": false}, {"type": "Office", "lng": 4.9534359369595355, "lat": 52.30276140436009, "name": "ING Haarlerbergpark (HBP)", "now": false}, {"type": "Brewery", "lng": 4.926383968338442, "lat": 52.36662574805283, "name": "Brouwerij 't IJ", "now": false}, {"type": "Bakery", "lng": 4.891520255177822, "lat": 52.35097166520259, "name": "Le Pain Quotidien - (de Pijp)", "now": false}, {"type": "Multiplex", "lng": 4.894820402019465, "lat": 52.366403170086535, "name": "Path\u00e9 Tuschinski", "now": false}, {"type": "Multiplex", "lng": 4.894820402019465, "lat": 52.366403170086535, "name": "Path\u00e9 Tuschinski", "now": false}, {"type": "Burger Joint", "lng": 4.8940605057319, "lat": 52.36686522514216, "name": "Burger Bar", "now": false}, {"type": "Bar", "lng": 5.12362003326416, "lat": 52.081642276790845, "name": "Ledig Erf", "now": false}, {"type": "Coworking Space", "lng": 4.829206787797253, "lat": 52.34294433020198, "name": "B.Amsterdam", "now": false}, {"type": "Office", "lng": 4.946982375083081, "lat": 52.31422523381137, "name": "ING Acanthus", "now": false}, {"type": "Office", "lng": 4.9534359369595355, "lat": 52.30276140436009, "name": "ING Haarlerbergpark (HBP)", "now": false}, {"type": "Hotel", "lng": 4.905077493675435, "lat": 52.37678563024838, "name": "DoubleTree by Hilton Hotel", "now": false}, {"type": "Italian Restaurant", "lng": 4.902465220123396, "lat": 52.35349776449129, "name": "Spaghetteria", "now": false}, {"type": "Restaurant", "lng": 4.906507679690257, "lat": 52.35746646338605, "name": "De Ysbreeker", "now": false}, {"type": "Multiplex", "lng": 4.894820402019465, "lat": 52.366403170086535, "name": "Path\u00e9 Tuschinski", "now": false}, {"type": "Japanese Restaurant", "lng": 4.88324214354567, "lat": 52.36277849511845, "name": "Hosokawa", "now": false}, {"type": "Hotel", "lng": 4.878992977693823, "lat": 52.35862410711441, "name": "Conservatorium Hotel", "now": false}, {"type": "Food Court", "lng": 4.868118166923523, "lat": 52.366906780645856, "name": "Foodhallen", "now": false}, {"type": "French Restaurant", "lng": 5.06915, "lat": 52.329746, "name": "Brasserie Herengracht 75", "now": false}, {"type": "Coworking Space", "lng": 4.829206787797253, "lat": 52.34294433020198, "name": "B.Amsterdam", "now": false}, {"type": "Office", "lng": 4.9534359369595355, "lat": 52.30276140436009, "name": "ING Haarlerbergpark (HBP)", "now": false}, {"type": "Greek Restaurant", "lng": 5.043145874117438, "lat": 52.30809477675751, "name": "Grieks restaurant Niki", "now": false}, {"type": "Steakhouse", "lng": 4.88351945052098, "lat": 52.36414463427992, "name": "Gauchos Grill-Restaurant", "now": false}, {"type": "Multiplex", "lng": 4.893660533510497, "lat": 52.36648118187473, "name": "Path\u00e9", "now": false}, {"type": "Bakery", "lng": 4.891520255177822, "lat": 52.35097166520259, "name": "Le Pain Quotidien - (de Pijp)", "now": false}, {"type": "Belgian Restaurant", "lng": 4.853131516068616, "lat": 52.35475521974998, "name": "Gent aan de Schinkel", "now": false}, {"type": "Office", "lng": 4.871930635577136, "lat": 52.33765478895593, "name": "Google Amsterdam", "now": false}, {"type": "Restaurant", "lng": 4.855798129255578, "lat": 52.35364083588143, "name": "Franklin Bar & Kitchen", "now": false}, {"type": "Office", "lng": 4.946982375083081, "lat": 52.31422523381137, "name": "ING Acanthus", "now": false}, {"type": "Office", "lng": 4.9534359369595355, "lat": 52.30276140436009, "name": "ING Haarlerbergpark (HBP)", "now": false}, {"type": "Multiplex", "lng": 4.894820402019465, "lat": 52.366403170086535, "name": "Path\u00e9 Tuschinski", "now": false}, {"type": "French Restaurant", "lng": 4.860007776364371, "lat": 52.37127227602769, "name": "Fa. Speijkervet", "now": false}, {"type": "Airport", "lng": 4.764046217456725, "lat": 52.30903466732481, "name": "Amsterdam Airport Schiphol (AMS)", "now": false}, {"type": "Airport", "lng": -122.38885916361724, "lat": 37.61692481575441, "name": "San Francisco International Airport (SFO)", "now": false}, {"type": "Vietnamese Restaurant", "lng": -122.3938000202179, "lat": 37.79619516102866, "name": "Slanted Door", "now": false}, {"type": "Theater", "lng": -122.41313778134582, "lat": 37.7798876509815, "name": "The Strand", "now": false}, {"type": "Airport", "lng": -122.38885916361724, "lat": 37.61692481575441, "name": "San Francisco International Airport (SFO)", "now": false}, {"type": "Airport", "lng": 4.764046217456725, "lat": 52.30903466732481, "name": "Amsterdam Airport Schiphol (AMS)", "now": false}, {"type": "Airport", "lng": 4.764046217456725, "lat": 52.30903466732481, "name": "Amsterdam Airport Schiphol (AMS)", "now": false}, {"type": "Airport", "lng": -0.46234846115112305, "lat": 51.469407923261336, "name": "London Heathrow Airport (LHR)", "now": false}, {"type": "Airport", "lng": 0.04976896880526665, "lat": 51.50396412422985, "name": "London City Airport (LCY)", "now": false}, {"type": "Airport", "lng": 4.764046217456725, "lat": 52.30903466732481, "name": "Amsterdam Airport Schiphol (AMS)", "now": false}, {"type": "Airport", "lng": -6.243851173903524, "lat": 53.42643943630694, "name": "Dublin Airport (DUB)", "now": false}, {"type": "Airport", "lng": 4.764046217456725, "lat": 52.30903466732481, "name": "Amsterdam Airport Schiphol (AMS)", "now": false}, {"type": "Airport", "lng": 0.04976896880526665, "lat": 51.50396412422985, "name": "London City Airport (LCY)", "now": false}, {"type": "Airport", "lng": 4.764046217456725, "lat": 52.30903466732481, "name": "Amsterdam Airport Schiphol (AMS)", "now": false}, {"type": "Airport", "lng": 4.764046217456725, "lat": 52.30903466732481, "name": "Amsterdam Airport Schiphol (AMS)", "now": false}, {"type": "Airport", "lng": -0.46234846115112305, "lat": 51.469407923261336, "name": "London Heathrow Airport (LHR)", "now": false}, {"type": "Airport Terminal", "lng": -1.1515311995626192, "lat": 51.75924697957355, "name": "Heathrow Terminal 4", "now": false}, {"type": "Airport", "lng": 4.764046217456725, "lat": 52.30903466732481, "name": "Amsterdam Airport Schiphol (AMS)", "now": false}, {"type": "Airport", "lng": 4.764046217456725, "lat": 52.30903466732481, "name": "Amsterdam Airport Schiphol (AMS)", "now": false}, {"type": "Airport", "lng": -84.22042429447174, "lat": 39.899160357131585, "name": "Dayton International Airport (DAY)", "now": false}, {"type": "Airport", "lng": -83.35632759523003, "lat": 42.20884127054663, "name": "Detroit Metropolitan Wayne County Airport (DTW)", "now": false}, {"type": "Airport", "lng": 4.764046217456725, "lat": 52.30903466732481, "name": "Amsterdam Airport Schiphol (AMS)", "now": false}, {"type": "Caf\u00e9", "lng": 4.899178147315979, "lat": 52.354361365215375, "name": "Caf\u00e9 Sarphaat", "now": false}, {"type": "Airport", "lng": -0.46234846115112305, "lat": 51.469407923261336, "name": "London Heathrow Airport (LHR)", "now": false}, {"type": "Airport", "lng": 4.764046217456725, "lat": 52.30903466732481, "name": "Amsterdam Airport Schiphol (AMS)", "now": false}, {"type": "Coffee Shop", "lng": 4.874774, "lat": 52.363317, "name": "De Koffie Salon", "now": false}, {"type": "Italian Restaurant", "lng": 5.904732181790947, "lat": 51.98306223905086, "name": "Zappa's", "now": false}, {"type": "Hotel Bar", "lng": 5.903859123377906, "lat": 51.98334436464271, "name": "Hotel Arnhem Centraal", "now": false}, {"type": "Train Station", "lng": 4.900374412536621, "lat": 52.37878224866535, "name": "Amsterdam Central Railway Station (Station Amsterdam Centraal)", "now": false}, {"type": "Beer Garden", "lng": 4.836822092513592, "lat": 52.389597591721106, "name": "BRET", "now": false}, {"type": "Train Station", "lng": 4.900374412536621, "lat": 52.37878224866535, "name": "Amsterdam Central Railway Station (Station Amsterdam Centraal)", "now": false}, {"type": "City", "lng": 5.036458969116211, "lat": 52.310630158587166, "name": "Weesp", "now": false}, {"type": "Greek Restaurant", "lng": 5.043145874117438, "lat": 52.30809477675751, "name": "Grieks restaurant Niki", "now": false}, {"type": "Office", "lng": 4.837201280497649, "lat": 52.39303628126104, "name": "RELX", "now": false}, {"type": "City", "lng": 5.036458969116211, "lat": 52.310630158587166, "name": "Weesp", "now": false}, {"type": "Train Station", "lng": 6.091332580018552, "lat": 52.504980233065716, "name": "Zwolle Railway Station (Station Zwolle)", "now": false}, {"type": "Train Station", "lng": 5.373310646468697, "lat": 52.153576994222696, "name": "Amersfoort Railway Station (Station Amersfoort)", "now": false}, {"type": "City", "lng": 5.036458969116211, "lat": 52.310630158587166, "name": "Weesp", "now": false}, {"type": "Italian Restaurant", "lng": -73.95575441021364, "lat": 40.7722435782595, "name": "Uva", "now": false}, {"type": "Pizza Place", "lng": -73.95102017954065, "lat": 40.77082514592854, "name": "Salvo's Pizzabar", "now": false}, {"type": "Office", "lng": 4.880496370462649, "lat": 52.3605643449918, "name": "Kubrickology", "now": false}, {"type": "Hotel", "lng": 4.758798254443129, "lat": 53.0979555766938, "name": "Grand Hotel Opduin", "now": false}, {"type": "Convention Center", "lng": -121.97567375214359, "lat": 37.40441187160836, "name": "Santa Clara Convention Center", "now": false}, {"type": "Italian Restaurant", "lng": 4.902465220123396, "lat": 52.35349776449129, "name": "Spaghetteria", "now": false}, {"type": "Airport", "lng": 140.38687589242883, "lat": 35.77190522612856, "name": "Narita International Airport (NRT) (\u6210\u7530\u56fd\u969b\u7a7a\u6e2f)", "now": false}, {"type": "Hotel", "lng": 12.459096, "lat": 41.909199, "name": "Hotel Silla", "now": false}, {"type": "Art Museum", "lng": -0.09966519882371298, "lat": 51.507719557012486, "name": "Tate Modern", "now": false}, {"type": "Train Station", "lng": 0.13233, "lat": 51.790403, "name": "Harlow Mill Railway Station (HWM)", "now": false}, {"type": "Steakhouse", "lng": 4.885558417939811, "lat": 52.365283959032816, "name": "Caf\u00e9 De Klos", "now": false}, {"type": "Caf\u00e9", "lng": 4.876341819763184, "lat": 52.36572102359264, "name": "Toussaint", "now": false}, {"type": "Caf\u00e9", "lng": 4.876341819763184, "lat": 52.36572102359264, "name": "Toussaint", "now": false}, {"type": "Caf\u00e9", "lng": 4.876341819763184, "lat": 52.36572102359264, "name": "Toussaint", "now": false}, {"type": "Seafood Restaurant", "lng": 4.890473, "lat": 52.344414, "name": "Vis aan de Schelde", "now": false}, {"type": "Caf\u00e9", "lng": 4.883090257644653, "lat": 52.36311683217743, "name": "De Balie", "now": false}, {"type": "Comedy Club", "lng": 4.893272, "lat": 52.37001781, "name": "Comedy Theater", "now": false}, {"type": "Caf\u00e9", "lng": 4.876341819763184, "lat": 52.36572102359264, "name": "Toussaint", "now": false}, {"type": "Caf\u00e9", "lng": 4.876341819763184, "lat": 52.36572102359264, "name": "Toussaint", "now": false}, {"type": "Steakhouse", "lng": 4.885558417939811, "lat": 52.365283959032816, "name": "Caf\u00e9 De Klos", "now": false}, {"type": "Caf\u00e9", "lng": 4.889142, "lat": 52.368775, "name": "Caf\u00e9 Luxembourg", "now": false}, {"type": "Caf\u00e9", "lng": 5.9152034190847465, "lat": 51.98204590303066, "name": "Caf\u00e9 Vrijdag", "now": false}, {"type": "Nightclub", "lng": 4.881749153137207, "lat": 52.36479810916446, "name": "Sugarfactory", "now": false}, {"type": "Jazz Club", "lng": 4.8744123060044915, "lat": 52.38612558829538, "name": "North Sea Jazz Club", "now": false}, {"type": "Multiplex", "lng": 4.894820402019465, "lat": 52.366403170086535, "name": "Path\u00e9 Tuschinski", "now": false}, {"type": "Bar", "lng": 4.892563819885254, "lat": 52.36547862734887, "name": "P.King", "now": false}, {"type": "Bar", "lng": 5.906777681079501, "lat": 51.98230050778086, "name": "Bar Florian", "now": false}, {"type": "Bar", "lng": 8.058302455840424, "lat": 52.27250973947813, "name": "Advena Bistro Cafe", "now": false}, {"type": "Airport", "lng": 4.764046217456725, "lat": 52.30903466732481, "name": "Amsterdam Airport Schiphol (AMS)", "now": false}, {"type": "Music Store", "lng": 4.761218160197415, "lat": 52.30985405472443, "name": "Theo Klaassen Drumservice", "now": false}, {"type": "Caf\u00e9", "lng": 4.876341819763184, "lat": 52.36572102359264, "name": "Toussaint", "now": false}, {"type": "Theater", "lng": 4.90393976086156, "lat": 52.362389021805356, "name": "Koninklijk Theater Carr\u00e9", "now": false}, {"type": "Concert Hall", "lng": 4.89862310363732, "lat": 52.372338788573224, "name": "Bethani\u00ebnklooster", "now": false}, {"type": "Hotel", "lng": 5.532025314649446, "lat": 52.26817145828311, "name": "Postillion Hotel Amersfoort Veluwemeer", "now": false}, {"type": "Music Store", "lng": 6.598663682229057, "lat": 53.22661893256066, "name": "Rikkers gitaarbouw", "now": false}, {"type": "Seafood Restaurant", "lng": 4.877296694005315, "lat": 52.35997758410264, "name": "The Seafood Bar", "now": false}, {"type": "Caf\u00e9", "lng": 5.9152034190847465, "lat": 51.98204590303066, "name": "Caf\u00e9 Vrijdag", "now": false}, {"type": "Event Space", "lng": 4.87943033204505, "lat": 52.363300952024936, "name": "People's Place", "now": false}, {"type": "Caf\u00e9", "lng": 4.883090257644653, "lat": 52.36311683217743, "name": "De Balie", "now": false}, {"type": "Seafood Restaurant", "lng": 4.877296694005315, "lat": 52.35997758410264, "name": "The Seafood Bar", "now": false}, {"type": "Caf\u00e9", "lng": 4.876341819763184, "lat": 52.36572102359264, "name": "Toussaint", "now": false}, {"type": "Coffee Shop", "lng": 4.3184460072101425, "lat": 52.080361579305276, "name": "Caff\u00e8 Belmondo", "now": false}, {"type": "Bar", "lng": 4.888866852515016, "lat": 52.368824824272146, "name": "Hoppe", "now": false}, {"type": "Office", "lng": 4.837201280497649, "lat": 52.39303628126104, "name": "RELX", "now": false}, {"type": "Spanish Restaurant", "lng": 4.886164544346121, "lat": 52.38051919611826, "name": "Duende", "now": false}, {"type": "Bar", "lng": 5.223698616027832, "lat": 52.25693190564774, "name": "Caf\u00e9 't Bonte Paard", "now": false}, {"type": "Office", "lng": 4.830464964101317, "lat": 52.39093650557797, "name": "Kubrickolo.gy", "now": false}, {"type": "Seafood Restaurant", "lng": 4.877296694005315, "lat": 52.35997758410264, "name": "The Seafood Bar", "now": false}, {"type": "Office", "lng": 4.837201280497649, "lat": 52.39303628126104, "name": "RELX", "now": false}, {"type": "Multiplex", "lng": 4.894820402019465, "lat": 52.366403170086535, "name": "Path\u00e9 Tuschinski", "now": false}, {"type": "Bar", "lng": 4.892563819885254, "lat": 52.36547862734887, "name": "P.King", "now": false}, {"type": "Office", "lng": 4.837201280497649, "lat": 52.39303628126104, "name": "RELX", "now": false}, {"type": "Seafood Restaurant", "lng": 4.877296694005315, "lat": 52.35997758410264, "name": "The Seafood Bar", "now": false}, {"type": "Caf\u00e9", "lng": 4.876341819763184, "lat": 52.36572102359264, "name": "Toussaint", "now": false}, {"type": "Water Park", "lng": 5.026974532285277, "lat": 52.29803495993694, "name": "Spa Wellness", "now": false}, {"type": "Restaurant", "lng": 5.116977834176556, "lat": 52.08994469336466, "name": "Stairway", "now": false}, {"type": "Office", "lng": 4.837201280497649, "lat": 52.39303628126104, "name": "RELX", "now": false}, {"type": "Seafood Restaurant", "lng": 4.877296694005315, "lat": 52.35997758410264, "name": "The Seafood Bar", "now": false}, {"type": "Office", "lng": 4.837201280497649, "lat": 52.39303628126104, "name": "RELX", "now": false}, {"type": "Office", "lng": 4.830464964101317, "lat": 52.39093650557797, "name": "Kubrickolo.gy", "now": false}, {"type": "Office", "lng": 4.830464964101317, "lat": 52.39093650557797, "name": "Kubrickolo.gy", "now": false}, {"type": "Government Building", "lng": 4.894731116320163, "lat": 52.38243695662573, "name": "Kamer Van Koophandel", "now": false}, {"type": "Caf\u00e9", "lng": 4.876341819763184, "lat": 52.36572102359264, "name": "Toussaint", "now": false}, {"type": "Gastropub", "lng": 4.902427765144644, "lat": 52.372151164935154, "name": "Eetcaf\u00e9 Van Beeren", "now": false}, {"type": "Bookstore", "lng": 4.889495372772216, "lat": 52.36896703972043, "name": "The American Book Center", "now": false}, {"type": "Caf\u00e9", "lng": 4.876341819763184, "lat": 52.36572102359264, "name": "Toussaint", "now": false}, {"type": "Gym / Fitness Center", "lng": 4.891156, "lat": 52.381323, "name": "Fit For Free", "now": false}, {"type": "Multiplex", "lng": 4.894820402019465, "lat": 52.366403170086535, "name": "Path\u00e9 Tuschinski", "now": false}, {"type": "Coffee Shop", "lng": 4.89748556343617, "lat": 52.3660492867161, "name": "Starbucks", "now": false}, {"type": "Caf\u00e9", "lng": 4.876341819763184, "lat": 52.36572102359264, "name": "Toussaint", "now": false}, {"type": "Office", "lng": 4.837201280497649, "lat": 52.39303628126104, "name": "RELX", "now": false}, {"type": "Theater", "lng": 4.897781077788455, "lat": 52.37020140044718, "name": "Compagnietheater", "now": false}, {"type": "Concert Hall", "lng": 4.8794529897790975, "lat": 52.356151185800115, "name": "Het Concertgebouw", "now": false}, {"type": "Mediterranean Restaurant", "lng": 4.880129843307251, "lat": 52.3561997940526, "name": "Solo Eten & Drinken", "now": false}, {"type": "Office", "lng": 4.837201280497649, "lat": 52.39303628126104, "name": "RELX", "now": false}, {"type": "Pub", "lng": 4.898456595452706, "lat": 52.37391574432005, "name": "Cafe Pleinzicht", "now": false}, {"type": "Dive Bar", "lng": 4.9001596361510975, "lat": 52.37349682734866, "name": "Dijk 120", "now": false}, {"type": "Steakhouse", "lng": 4.894028306007385, "lat": 52.36670697298532, "name": "Gauchos", "now": false}, {"type": "Bar", "lng": 4.888866852515016, "lat": 52.368824824272146, "name": "Hoppe", "now": false}, {"type": "Caf\u00e9", "lng": 4.889142, "lat": 52.368775, "name": "Caf\u00e9 Luxembourg", "now": false}, {"type": "Art Museum", "lng": 4.8720502853393555, "lat": 52.33693864261881, "name": "Amsterdam EXPO", "now": false}, {"type": "Restaurant", "lng": 4.870025764727189, "lat": 52.33750345633959, "name": "B&B", "now": false}, {"type": "Office", "lng": 4.837201280497649, "lat": 52.39303628126104, "name": "RELX", "now": false}, {"type": "Caf\u00e9", "lng": 4.876341819763184, "lat": 52.36572102359264, "name": "Toussaint", "now": false}, {"type": "Recording Studio", "lng": 4.935832, "lat": 52.33755, "name": "Earforce", "now": false}, {"type": "Office", "lng": 4.837201280497649, "lat": 52.39303628126104, "name": "RELX", "now": false}, {"type": "Office", "lng": 4.837201280497649, "lat": 52.39303628126104, "name": "RELX", "now": false}, {"type": "Gym / Fitness Center", "lng": 4.891156, "lat": 52.381323, "name": "Fit For Free", "now": false}, {"type": "Creperie", "lng": 4.8935723304748535, "lat": 52.37968604210279, "name": "Cr\u00eaperie Le Berger", "now": false}, {"type": "Coffee Shop", "lng": 4.886129396206873, "lat": 52.38156168226328, "name": "Espressobar Tazzina", "now": false}, {"type": "Caf\u00e9", "lng": 4.876341819763184, "lat": 52.36572102359264, "name": "Toussaint", "now": false}, {"type": "Gym / Fitness Center", "lng": 4.891156, "lat": 52.381323, "name": "Fit For Free", "now": false}, {"type": "Recording Studio", "lng": 4.935832, "lat": 52.33755, "name": "Earforce", "now": false}, {"type": "Caf\u00e9", "lng": 5.909174276468052, "lat": 51.98287909861344, "name": "Babo Caf\u00e9", "now": false}, {"type": "Restaurant", "lng": 5.907118685942359, "lat": 51.979587014391136, "name": "Graave Eten & Drinken", "now": false}, {"type": "Gym / Fitness Center", "lng": 4.891156, "lat": 52.381323, "name": "Fit For Free", "now": false}, {"type": "Office", "lng": 4.837201280497649, "lat": 52.39303628126104, "name": "RELX", "now": false}, {"type": "Gym / Fitness Center", "lng": 4.891156, "lat": 52.381323, "name": "Fit For Free", "now": false}, {"type": "Gym / Fitness Center", "lng": 4.891156, "lat": 52.381323, "name": "Fit For Free", "now": false}, {"type": "Office", "lng": 4.830464964101317, "lat": 52.39093650557797, "name": "Kubrickolo.gy", "now": false}, {"type": "Gym / Fitness Center", "lng": 4.891156, "lat": 52.381323, "name": "Fit For Free", "now": false}, {"type": "Gym / Fitness Center", "lng": 4.891156, "lat": 52.381323, "name": "Fit For Free", "now": false}, {"type": "Office", "lng": 4.837201280497649, "lat": 52.39303628126104, "name": "RELX", "now": false}, {"type": "Water Park", "lng": 5.026974532285277, "lat": 52.29803495993694, "name": "Spa Wellness", "now": false}, {"type": "Office", "lng": 4.837201280497649, "lat": 52.39303628126104, "name": "RELX", "now": false}, {"type": "Bar", "lng": 4.871015, "lat": 52.375186, "name": "Cafe 020", "now": false}, {"type": "Restaurant", "lng": 4.891021, "lat": 52.401495, "name": "Restaurant caf\u00e9 de IJ-kantine", "now": false}, {"type": "Coffee Shop", "lng": 4.886129396206873, "lat": 52.38156168226328, "name": "Espressobar Tazzina", "now": false}, {"type": "Caf\u00e9", "lng": 4.876341819763184, "lat": 52.36572102359264, "name": "Toussaint", "now": false}, {"type": "Movie Theater", "lng": 5.9120312333106995, "lat": 51.984381266217916, "name": "Path\u00e9 Rembrandt Arnhem", "now": false}, {"type": "Bar", "lng": 5.906777681079501, "lat": 51.98230050778086, "name": "Bar Florian", "now": false}, {"type": "Coffee Shop", "lng": 4.886129396206873, "lat": 52.38156168226328, "name": "Espressobar Tazzina", "now": false}, {"type": "Caf\u00e9", "lng": 4.876341819763184, "lat": 52.36572102359264, "name": "Toussaint", "now": false}, {"type": "Airport", "lng": 5.152907255548942, "lat": 52.193148539617674, "name": "Hilversum Airport (Vliegveld Hilversum)", "now": false}, {"type": "Airport", "lng": 5.686102758128594, "lat": 53.44855094529289, "name": "Ameland Airport Ballum", "now": false}, {"type": "Bar", "lng": 5.687318196080954, "lat": 53.44367148137013, "name": "Caf\u00e9 Nobel", "now": false}, {"type": "Airport", "lng": 5.152907255548942, "lat": 52.193148539617674, "name": "Hilversum Airport (Vliegveld Hilversum)", "now": false}, {"type": "Office", "lng": 4.830464964101317, "lat": 52.39093650557797, "name": "Kubrickolo.gy", "now": false}, {"type": "Hotel", "lng": 5.038626567352132, "lat": 52.12080618365361, "name": "Carlton President Hotel Utrecht", "now": false}, {"type": "Factory", "lng": 5.088132, "lat": 52.129195, "name": "Koop Bronbemaling", "now": false}, {"type": "Caf\u00e9", "lng": 4.876341819763184, "lat": 52.36572102359264, "name": "Toussaint", "now": false}, {"type": "Italian Restaurant", "lng": 4.902465220123396, "lat": 52.35349776449129, "name": "Spaghetteria", "now": false}, {"type": "Caf\u00e9", "lng": 4.876341819763184, "lat": 52.36572102359264, "name": "Toussaint", "now": false}, {"type": "Castle", "lng": 5.116924879021132, "lat": 52.09277256115024, "name": "Stadskasteel Oudaen", "now": false}, {"type": "Factory", "lng": 5.088132, "lat": 52.129195, "name": "Koop Bronbemaling", "now": false}, {"type": "Bookstore", "lng": 4.889495372772216, "lat": 52.36896703972043, "name": "The American Book Center", "now": false}, {"type": "Restaurant", "lng": 4.988679206045916, "lat": 52.3774770216862, "name": "De Oude Taveerne", "now": false}, {"type": "Caf\u00e9", "lng": 4.876341819763184, "lat": 52.36572102359264, "name": "Toussaint", "now": false}, {"type": "Multiplex", "lng": 4.894820402019465, "lat": 52.366403170086535, "name": "Path\u00e9 Tuschinski", "now": false}, {"type": "Office", "lng": 4.830464964101317, "lat": 52.39093650557797, "name": "Kubrickolo.gy", "now": false}, {"type": "Office", "lng": 4.830464964101317, "lat": 52.39093650557797, "name": "Kubrickolo.gy", "now": false}, {"type": "Caf\u00e9", "lng": 4.876341819763184, "lat": 52.36572102359264, "name": "Toussaint", "now": false}, {"type": "Office", "lng": 4.837201280497649, "lat": 52.39303628126104, "name": "RELX", "now": false}, {"type": "Caf\u00e9", "lng": 4.876341819763184, "lat": 52.36572102359264, "name": "Toussaint", "now": false}, {"type": "Office", "lng": 4.837201280497649, "lat": 52.39303628126104, "name": "RELX", "now": false}, {"type": "Gym", "lng": 5.933415494934803, "lat": 51.987205815370785, "name": "Fit For Free Arnhem", "now": false}, {"type": "Caf\u00e9", "lng": 4.876341819763184, "lat": 52.36572102359264, "name": "Toussaint", "now": false}, {"type": "Theater", "lng": 6.091852549607971, "lat": 52.51047721502893, "name": "Theater Odeon", "now": false}, {"type": "Office", "lng": 4.830464964101317, "lat": 52.39093650557797, "name": "Kubrickolo.gy", "now": false}, {"type": "Italian Restaurant", "lng": 5.159725713647212, "lat": 52.27332321278238, "name": "El Verano", "now": false}, {"type": "Caf\u00e9", "lng": 4.876341819763184, "lat": 52.36572102359264, "name": "Toussaint", "now": false}, {"type": "Office", "lng": 4.830464964101317, "lat": 52.39093650557797, "name": "Kubrickolo.gy", "now": false}, {"type": "Office", "lng": 4.837201280497649, "lat": 52.39303628126104, "name": "RELX", "now": false}, {"type": "Office", "lng": 4.837201280497649, "lat": 52.39303628126104, "name": "RELX", "now": false}, {"type": "Office", "lng": 4.837201280497649, "lat": 52.39303628126104, "name": "RELX", "now": false}, {"type": "Diner", "lng": 4.936267, "lat": 52.337429, "name": "Cinetone", "now": false}, {"type": "Recording Studio", "lng": 4.935832, "lat": 52.33755, "name": "Earforce", "now": false}, {"type": "Art Gallery", "lng": 5.904175517874297, "lat": 51.980858076581704, "name": "MoBa", "now": false}, {"type": "Gastropub", "lng": 4.902427765144644, "lat": 52.372151164935154, "name": "Eetcaf\u00e9 Van Beeren", "now": false}, {"type": "Office", "lng": 4.837201280497649, "lat": 52.39303628126104, "name": "RELX", "now": false}, {"type": "Plaza", "lng": 5.619723356507592, "lat": 52.3513582953187, "name": "Vischmarkt", "now": false}, {"type": "Pool Hall", "lng": 5.116853, "lat": 52.090124, "name": "Smith & Jones Poolcentrum", "now": false}, {"type": "General Entertainment", "lng": 5.173876197182411, "lat": 52.02805697688054, "name": "Racketcentrum Houten", "now": false}, {"type": "Pub", "lng": 5.16236605799776, "lat": 52.02704358430311, "name": "Tapperij de Zwijger", "now": false}, {"type": "Bar", "lng": 5.906777681079501, "lat": 51.98230050778086, "name": "Bar Florian", "now": false}, {"type": "Office", "lng": 4.837201280497649, "lat": 52.39303628126104, "name": "RELX", "now": false}, {"type": "Office", "lng": 4.837201280497649, "lat": 52.39303628126104, "name": "RELX", "now": false}, {"type": "General Entertainment", "lng": 5.173876197182411, "lat": 52.02805697688054, "name": "Racketcentrum Houten", "now": false}, {"type": "Recording Studio", "lng": 4.935832, "lat": 52.33755, "name": "Earforce", "now": false}, {"type": "Caf\u00e9", "lng": 4.8966890483948715, "lat": 52.399570226754, "name": "Noorderlicht", "now": false}, {"type": "French Restaurant", "lng": 4.874088, "lat": 52.364862, "name": "Pastis", "now": false}, {"type": "Concert Hall", "lng": 4.8794529897790975, "lat": 52.356151185800115, "name": "Het Concertgebouw", "now": false}, {"type": "Caf\u00e9", "lng": 4.876341819763184, "lat": 52.36572102359264, "name": "Toussaint", "now": false}, {"type": "Office", "lng": 4.830464964101317, "lat": 52.39093650557797, "name": "Kubrickolo.gy", "now": false}, {"type": "Restaurant", "lng": 5.116218477487564, "lat": 52.092068326987, "name": "Straks", "now": false}, {"type": "Office", "lng": 4.830464964101317, "lat": 52.39093650557797, "name": "Kubrickolo.gy", "now": false}, {"type": "Caf\u00e9", "lng": 4.876341819763184, "lat": 52.36572102359264, "name": "Toussaint", "now": false}, {"type": "Caf\u00e9", "lng": 5.909174276468052, "lat": 51.98287909861344, "name": "Babo Caf\u00e9", "now": false}, {"type": "Piano Bar", "lng": 5.904644665447673, "lat": 51.98253313048895, "name": "Freaky Pianobar", "now": false}, {"type": "Sandwich Place", "lng": 5.90666497072776, "lat": 51.98228548103509, "name": "Arneym Lunch & Bites", "now": false}, {"type": "Office", "lng": 4.830464964101317, "lat": 52.39093650557797, "name": "Kubrickolo.gy", "now": false}, {"type": "Office", "lng": 4.837201280497649, "lat": 52.39303628126104, "name": "RELX", "now": false}, {"type": "Office", "lng": 4.830464964101317, "lat": 52.39093650557797, "name": "Kubrickolo.gy", "now": false}, {"type": "Office", "lng": 4.837201280497649, "lat": 52.39303628126104, "name": "RELX", "now": false}, {"type": "Caf\u00e9", "lng": 4.876341819763184, "lat": 52.36572102359264, "name": "Toussaint", "now": false}, {"type": "Multiplex", "lng": 4.893660533510497, "lat": 52.36648118187473, "name": "Path\u00e9", "now": false}, {"type": "College Arts Building", "lng": 6.095811125275468, "lat": 52.514067635174676, "name": "Artez", "now": false}, {"type": "Italian Restaurant", "lng": 4.902465220123396, "lat": 52.35349776449129, "name": "Spaghetteria", "now": false}, {"type": "Office", "lng": 4.830464964101317, "lat": 52.39093650557797, "name": "Kubrickolo.gy", "now": false}, {"type": "Gym / Fitness Center", "lng": 4.891156, "lat": 52.381323, "name": "Fit For Free", "now": false}, {"type": "Design Studio", "lng": 4.857742, "lat": 52.382521, "name": "Terra Preta Multimedia Studio", "now": false}, {"type": "Office", "lng": 4.830464964101317, "lat": 52.39093650557797, "name": "Kubrickolo.gy", "now": false}, {"type": "Italian Restaurant", "lng": 4.902465220123396, "lat": 52.35349776449129, "name": "Spaghetteria", "now": false}, {"type": "Design Studio", "lng": 4.857742, "lat": 52.382521, "name": "Terra Preta Multimedia Studio", "now": false}, {"type": "Coffee Shop", "lng": 4.83766379804228, "lat": 52.389080498532294, "name": "Starbucks", "now": false}, {"type": "Gastropub", "lng": 4.902427765144644, "lat": 52.372151164935154, "name": "Eetcaf\u00e9 Van Beeren", "now": false}, {"type": "French Restaurant", "lng": 4.872830208345636, "lat": 52.374531662802255, "name": "Razmataz", "now": false}, {"type": "Caf\u00e9", "lng": 4.876341819763184, "lat": 52.36572102359264, "name": "Toussaint", "now": false}, {"type": "Office", "lng": 4.830464964101317, "lat": 52.39093650557797, "name": "Kubrickolo.gy", "now": false}, {"type": "Museum", "lng": 4.901005240759131, "lat": 52.384122836878994, "name": "EYE", "now": false}, {"type": "Caf\u00e9", "lng": 4.876341819763184, "lat": 52.36572102359264, "name": "Toussaint", "now": false}, {"type": "Office", "lng": 4.830464964101317, "lat": 52.39093650557797, "name": "Kubrickolo.gy", "now": false}, {"type": "Caf\u00e9", "lng": 4.876341819763184, "lat": 52.36572102359264, "name": "Toussaint", "now": false}, {"type": "Office", "lng": 4.830464964101317, "lat": 52.39093650557797, "name": "Kubrickolo.gy", "now": false}, {"type": "Water Park", "lng": 5.026974532285277, "lat": 52.29803495993694, "name": "Spa Wellness", "now": false}, {"type": "Beach", "lng": 4.606487970150741, "lat": 52.55754055114569, "name": "Zoomers", "now": false}, {"type": "Beach", "lng": 4.606658844662898, "lat": 52.55740465722111, "name": "Strand Castricum", "now": false}, {"type": "Office", "lng": 4.830464964101317, "lat": 52.39093650557797, "name": "Kubrickolo.gy", "now": false}, {"type": "Caf\u00e9", "lng": 4.876341819763184, "lat": 52.36572102359264, "name": "Toussaint", "now": false}, {"type": "Office", "lng": 4.830464964101317, "lat": 52.39093650557797, "name": "Kubrickolo.gy", "now": false}, {"type": "Whisky Bar", "lng": 4.885097573264141, "lat": 52.362817010861974, "name": "Whisky Caf\u00e9 L&B", "now": false}, {"type": "Jazz Club", "lng": 4.884371300142634, "lat": 52.36349242651208, "name": "Jazz Caf\u00e9 Alto", "now": false}, {"type": "Bar", "lng": 4.888866852515016, "lat": 52.368824824272146, "name": "Hoppe", "now": false}, {"type": "Gym / Fitness Center", "lng": 4.809552856907437, "lat": 52.34544416812631, "name": "Squashcentrum Match", "now": false}, {"type": "Caf\u00e9", "lng": 4.876341819763184, "lat": 52.36572102359264, "name": "Toussaint", "now": false}, {"type": "Office", "lng": 4.830464964101317, "lat": 52.39093650557797, "name": "Kubrickolo.gy", "now": false}, {"type": "Office", "lng": 4.830464964101317, "lat": 52.39093650557797, "name": "Kubrickolo.gy", "now": false}, {"type": "Caf\u00e9", "lng": 4.876341819763184, "lat": 52.36572102359264, "name": "Toussaint", "now": false}, {"type": "Office", "lng": 4.830464964101317, "lat": 52.39093650557797, "name": "Kubrickolo.gy", "now": false}, {"type": "Design Studio", "lng": 4.857742, "lat": 52.382521, "name": "Terra Preta Multimedia Studio", "now": false}, {"type": "Office", "lng": 4.830464964101317, "lat": 52.39093650557797, "name": "Kubrickolo.gy", "now": false}, {"type": "Caf\u00e9", "lng": 4.889142, "lat": 52.368775, "name": "Caf\u00e9 Luxembourg", "now": false}, {"type": "Bookstore", "lng": 4.888937063662242, "lat": 52.368861524371965, "name": "Athenaeum Boekhandel", "now": false}, {"type": "Caf\u00e9", "lng": 4.876341819763184, "lat": 52.36572102359264, "name": "Toussaint", "now": false}, {"type": "Office", "lng": 4.830464964101317, "lat": 52.39093650557797, "name": "Kubrickolo.gy", "now": false}, {"type": "Caf\u00e9", "lng": 4.876341819763184, "lat": 52.36572102359264, "name": "Toussaint", "now": false}, {"type": "Office", "lng": 4.830464964101317, "lat": 52.39093650557797, "name": "Kubrickolo.gy", "now": false}, {"type": "Office", "lng": 4.830464964101317, "lat": 52.39093650557797, "name": "Kubrickolo.gy", "now": false}, {"type": "Friterie", "lng": 4.8909186831423215, "lat": 52.36787663174073, "name": "Vlaams Friteshuis Vleminckx", "now": false}, {"type": "Bookstore", "lng": 4.888937063662242, "lat": 52.368861524371965, "name": "Athenaeum Boekhandel", "now": false}, {"type": "Bar", "lng": 4.888866852515016, "lat": 52.368824824272146, "name": "Hoppe", "now": false}, {"type": "Caf\u00e9", "lng": 4.876341819763184, "lat": 52.36572102359264, "name": "Toussaint", "now": false}, {"type": "Office", "lng": 4.830464964101317, "lat": 52.39093650557797, "name": "Kubrickolo.gy", "now": false}, {"type": "Design Studio", "lng": 4.857742, "lat": 52.382521, "name": "Terra Preta Multimedia Studio", "now": false}, {"type": "Office", "lng": 4.830464964101317, "lat": 52.39093650557797, "name": "Kubrickolo.gy", "now": false}, {"type": "Office", "lng": 4.830464964101317, "lat": 52.39093650557797, "name": "Kubrickolo.gy", "now": false}, {"type": "Bar", "lng": 4.888866852515016, "lat": 52.368824824272146, "name": "Hoppe", "now": false}, {"type": "Office", "lng": 4.830464964101317, "lat": 52.39093650557797, "name": "Kubrickolo.gy", "now": false}, {"type": "Office", "lng": 4.830464964101317, "lat": 52.39093650557797, "name": "Kubrickolo.gy", "now": false}, {"type": "Office", "lng": 4.830464964101317, "lat": 52.39093650557797, "name": "Kubrickolo.gy", "now": false}, {"type": "Office", "lng": 4.830464964101317, "lat": 52.39093650557797, "name": "Kubrickolo.gy", "now": false}, {"type": "Design Studio", "lng": 4.857742, "lat": 52.382521, "name": "Terra Preta Multimedia Studio", "now": false}, {"type": "Office", "lng": 4.830464964101317, "lat": 52.39093650557797, "name": "Kubrickolo.gy", "now": false}, {"type": "Office", "lng": 4.830464964101317, "lat": 52.39093650557797, "name": "Kubrickolo.gy", "now": false}, {"type": "Caf\u00e9", "lng": 4.8966890483948715, "lat": 52.399570226754, "name": "Noorderlicht", "now": false}, {"type": "Art Gallery", "lng": 5.111520232117907, "lat": 52.111184428041916, "name": "Das Spectrum", "now": false}, {"type": "Gym / Fitness Center", "lng": 4.809552856907437, "lat": 52.34544416812631, "name": "Squashcentrum Match", "now": false}, {"type": "Office", "lng": 4.830464964101317, "lat": 52.39093650557797, "name": "Kubrickolo.gy", "now": false}, {"type": "Gym / Fitness Center", "lng": 4.891156, "lat": 52.381323, "name": "Fit For Free", "now": false}, {"type": "Office", "lng": 4.830464964101317, "lat": 52.39093650557797, "name": "Kubrickolo.gy", "now": false}, {"type": "Multiplex", "lng": 4.894820402019465, "lat": 52.366403170086535, "name": "Path\u00e9 Tuschinski", "now": false}, {"type": "Caf\u00e9", "lng": 4.876341819763184, "lat": 52.36572102359264, "name": "Toussaint", "now": false}, {"type": "Design Studio", "lng": 4.857742, "lat": 52.382521, "name": "Terra Preta Multimedia Studio", "now": false}, {"type": "Office", "lng": 4.830464964101317, "lat": 52.39093650557797, "name": "Kubrickolo.gy", "now": false}, {"type": "Caf\u00e9", "lng": 4.876341819763184, "lat": 52.36572102359264, "name": "Toussaint", "now": false}, {"type": "Pub", "lng": 5.121092032661903, "lat": 52.089120858499975, "name": "Caf\u00e9 de Postillon", "now": false}, {"type": "Office", "lng": 5.109741222004852, "lat": 52.09053031127685, "name": "NS Stations", "now": false}, {"type": "Office", "lng": 4.830464964101317, "lat": 52.39093650557797, "name": "Kubrickolo.gy", "now": false}, {"type": "Airport", "lng": 4.764046217456725, "lat": 52.30903466732481, "name": "Amsterdam Airport Schiphol (AMS)", "now": false}, {"type": "Office", "lng": 4.830464964101317, "lat": 52.39093650557797, "name": "Kubrickolo.gy", "now": false}, {"type": "Office", "lng": 4.830464964101317, "lat": 52.39093650557797, "name": "Kubrickolo.gy", "now": false}, {"type": "Gastropub", "lng": 4.902427765144644, "lat": 52.372151164935154, "name": "Eetcaf\u00e9 Van Beeren", "now": false}, {"type": "Office", "lng": 4.830464964101317, "lat": 52.39093650557797, "name": "Kubrickolo.gy", "now": false}, {"type": "Caf\u00e9", "lng": 5.9152034190847465, "lat": 51.98204590303066, "name": "Caf\u00e9 Vrijdag", "now": false}, {"type": "Office", "lng": 4.830464964101317, "lat": 52.39093650557797, "name": "Kubrickolo.gy", "now": false}, {"type": "Gym / Fitness Center", "lng": 4.891156, "lat": 52.381323, "name": "Fit For Free", "now": false}, {"type": "Office", "lng": 4.830464964101317, "lat": 52.39093650557797, "name": "Kubrickolo.gy", "now": false}, {"type": "Design Studio", "lng": 4.857742, "lat": 52.382521, "name": "Terra Preta Multimedia Studio", "now": false}, {"type": "Office", "lng": 4.830464964101317, "lat": 52.39093650557797, "name": "Kubrickolo.gy", "now": false}, {"type": "Caf\u00e9", "lng": 4.8966890483948715, "lat": 52.399570226754, "name": "Noorderlicht", "now": false}, {"type": "Office", "lng": 4.830464964101317, "lat": 52.39093650557797, "name": "Kubrickolo.gy", "now": false}, {"type": "Office", "lng": 4.830464964101317, "lat": 52.39093650557797, "name": "Kubrickolo.gy", "now": false}, {"type": "Office", "lng": 4.830464964101317, "lat": 52.39093650557797, "name": "Kubrickolo.gy", "now": false}, {"type": "Gym / Fitness Center", "lng": 4.891156, "lat": 52.381323, "name": "Fit For Free", "now": false}, {"type": "Office", "lng": 4.830464964101317, "lat": 52.39093650557797, "name": "Kubrickolo.gy", "now": false}, {"type": "Caf\u00e9", "lng": 4.876341819763184, "lat": 52.36572102359264, "name": "Toussaint", "now": false}, {"type": "Design Studio", "lng": 4.857742, "lat": 52.382521, "name": "Terra Preta Multimedia Studio", "now": false}, {"type": "Gym / Fitness Center", "lng": 4.809552856907437, "lat": 52.34544416812631, "name": "Squashcentrum Match", "now": false}, {"type": "Office", "lng": 4.830464964101317, "lat": 52.39093650557797, "name": "Kubrickolo.gy", "now": false}, {"type": "Office", "lng": 4.830464964101317, "lat": 52.39093650557797, "name": "Kubrickolo.gy", "now": false}, {"type": "Office", "lng": 4.830464964101317, "lat": 52.39093650557797, "name": "Kubrickolo.gy", "now": false}, {"type": "Coffee Shop", "lng": 2.3500388860702515, "lat": 48.864206594101105, "name": "Les T\u00eates Br\u00fbl\u00e9es", "now": false}, {"type": "Concert Hall", "lng": 2.3535633087158203, "lat": 48.866775611250205, "name": "La Ga\u00eet\u00e9 Lyrique", "now": false}, {"type": "Bistro", "lng": 2.353348731994629, "lat": 48.86710025787718, "name": "Bistrot de la Gait\u00e9", "now": false}, {"type": "Hotel", "lng": 2.352915032199677, "lat": 48.865447411624466, "name": "H\u00f4tel de Roubaix", "now": false}, {"type": "Office", "lng": 4.830464964101317, "lat": 52.39093650557797, "name": "Kubrickolo.gy", "now": false}, {"type": "Office", "lng": 4.830464964101317, "lat": 52.39093650557797, "name": "Kubrickolo.gy", "now": false}, {"type": "Recording Studio", "lng": 4.935832, "lat": 52.33755, "name": "Earforce", "now": false}, {"type": "Office", "lng": 4.830464964101317, "lat": 52.39093650557797, "name": "Kubrickolo.gy", "now": false}, {"type": "Gym / Fitness Center", "lng": 4.891156, "lat": 52.381323, "name": "Fit For Free", "now": false}, {"type": "Design Studio", "lng": 4.857742, "lat": 52.382521, "name": "Terra Preta Multimedia Studio", "now": false}, {"type": "Office", "lng": 4.830464964101317, "lat": 52.39093650557797, "name": "Kubrickolo.gy", "now": false}, {"type": "Caf\u00e9", "lng": 4.876341819763184, "lat": 52.36572102359264, "name": "Toussaint", "now": false}, {"type": "Water Park", "lng": 5.026974532285277, "lat": 52.29803495993694, "name": "Spa Wellness", "now": false}, {"type": "Office", "lng": 4.830464964101317, "lat": 52.39093650557797, "name": "Kubrickolo.gy", "now": false}, {"type": "General Entertainment", "lng": 8.42458041518783, "lat": 49.31824421292565, "name": "Stadthalle Speyer", "now": false}, {"type": "Town", "lng": 8.438272476196289, "lat": 49.31756930688871, "name": "Speyer", "now": false}, {"type": "Indie Movie Theater", "lng": 15.623007756729677, "lat": 48.205407907556, "name": "Cinema Paradiso", "now": false}, {"type": "Hotel", "lng": 15.625345985714288, "lat": 48.20248, "name": "Hotel Metropol", "now": false}, {"type": "Hotel", "lng": 8.258091895158243, "lat": 49.999296829135986, "name": "InterCityHotel Mainz", "now": false}, {"type": "Jazz Club", "lng": 7.643538545512308, "lat": 51.95179869705182, "name": "Hot Jazz Club", "now": false}, {"type": "Town", "lng": 7.206348256605179, "lat": 52.01928393915481, "name": "Rosendahl", "now": false}, {"type": "University", "lng": 9.506351294587903, "lat": 51.322543001183135, "name": "Universit\u00e4t Kassel", "now": false}, {"type": "Hotel", "lng": 9.459918483726456, "lat": 51.31662198799767, "name": "H4 Hotel Kassel", "now": false}, {"type": "Hotel", "lng": 8.016133244053206, "lat": 49.665269266586265, "name": "Hotel Braun", "now": false}, {"type": "Town", "lng": 7.206348256605179, "lat": 52.01928393915481, "name": "Rosendahl", "now": false}, {"type": "Town", "lng": 7.206348256605179, "lat": 52.01928393915481, "name": "Rosendahl", "now": false}, {"type": "American Restaurant", "lng": 6.156761852045855, "lat": 52.25210292704504, "name": "Restaurant Jackies", "now": false}, {"type": "Supermarket", "lng": 4.80970046767981, "lat": 52.463630219977524, "name": "Albert Heijn", "now": false}, {"type": "Caf\u00e9", "lng": 4.876341819763184, "lat": 52.36572102359264, "name": "Toussaint", "now": false}, {"type": "Electronics Store", "lng": 4.882461, "lat": 52.363551, "name": "Apple Store", "now": false}, {"type": "Office", "lng": 4.830464964101317, "lat": 52.39093650557797, "name": "Kubrickolo.gy", "now": false}, {"type": "Bar", "lng": 4.896572381258011, "lat": 52.36835454030276, "name": "Caf\u00e9 De Doelen", "now": false}, {"type": "Theater", "lng": 4.895987, "lat": 52.367063, "name": "De Kleine Komedie", "now": false}, {"type": "Museum", "lng": 4.901005240759131, "lat": 52.384122836878994, "name": "EYE", "now": false}, {"type": "Art Museum", "lng": 4.902853100025056, "lat": 52.365463961290274, "name": "Hermitage Amsterdam", "now": false}, {"type": "Design Studio", "lng": 4.857742, "lat": 52.382521, "name": "Terra Preta Multimedia Studio", "now": false}, {"type": "Caf\u00e9", "lng": 4.889687020629518, "lat": 52.37461906118459, "name": "Caf\u00e9 Van Zuylen", "now": false}, {"type": "Caf\u00e9", "lng": 4.8966890483948715, "lat": 52.399570226754, "name": "Noorderlicht", "now": false}, {"type": "Office", "lng": 4.830464964101317, "lat": 52.39093650557797, "name": "Kubrickolo.gy", "now": false}, {"type": "Design Studio", "lng": 4.857742, "lat": 52.382521, "name": "Terra Preta Multimedia Studio", "now": false}, {"type": "Caf\u00e9", "lng": 4.876341819763184, "lat": 52.36572102359264, "name": "Toussaint", "now": false}, {"type": "Office", "lng": 4.830464964101317, "lat": 52.39093650557797, "name": "Kubrickolo.gy", "now": false}, {"type": "Office", "lng": 4.830464964101317, "lat": 52.39093650557797, "name": "Kubrickolo.gy", "now": false}, {"type": "Caf\u00e9", "lng": 4.8966890483948715, "lat": 52.399570226754, "name": "Noorderlicht", "now": false}, {"type": "Office", "lng": 4.830464964101317, "lat": 52.39093650557797, "name": "Kubrickolo.gy", "now": false}, {"type": "Office", "lng": 4.830464964101317, "lat": 52.39093650557797, "name": "Kubrickolo.gy", "now": false}, {"type": "Office", "lng": 4.830464964101317, "lat": 52.39093650557797, "name": "Kubrickolo.gy", "now": false}, {"type": "Art Museum", "lng": 12.578197717666626, "lat": 55.68848399318558, "name": "Statens Museum for Kunst - SMK", "now": false}, {"type": "Caf\u00e9", "lng": 12.57982313632965, "lat": 55.67886687253232, "name": "Cafe Norden", "now": false}, {"type": "Design Studio", "lng": 4.857742, "lat": 52.382521, "name": "Terra Preta Multimedia Studio", "now": false}, {"type": "Museum", "lng": 4.901005240759131, "lat": 52.384122836878994, "name": "EYE", "now": false}, {"type": "Design Studio", "lng": 4.857742, "lat": 52.382521, "name": "Terra Preta Multimedia Studio", "now": false}, {"type": "Tapas Restaurant", "lng": 5.225149597463314, "lat": 52.25621416576005, "name": "Bodega-Bodega", "now": false}, {"type": "Bar", "lng": 5.223698616027832, "lat": 52.25693190564774, "name": "Caf\u00e9 't Bonte Paard", "now": false}, {"type": "French Restaurant", "lng": 4.399359833489032, "lat": 51.21999839716136, "name": "'t Hofke", "now": false}, {"type": "Caf\u00e9", "lng": 4.393988549118464, "lat": 51.197823395797535, "name": "Cafe De Singel", "now": false}, {"type": "Hotel", "lng": 4.406642407667383, "lat": 51.22564836683305, "name": "Zeemanshuis Hotel", "now": false}, {"type": "Strip Club", "lng": 4.420715367597144, "lat": 51.21785860359396, "name": "Amnesia", "now": false}, {"type": "Irish Pub", "lng": 4.418356324619787, "lat": 51.21765295812299, "name": "Kelly's Irish Pub", "now": false}, {"type": "Gastropub", "lng": 4.3993089707106545, "lat": 51.22086850253511, "name": "Ultimatum", "now": false}, {"type": "Restaurant", "lng": 4.402365613553338, "lat": 51.220673124093594, "name": "Grote Gans", "now": false}, {"type": "Train Station", "lng": 4.420931129469446, "lat": 51.21618610985961, "name": "Antwerp-Central Railway Station (Station Antwerpen-Centraal)", "now": false}, {"type": "Train Station", "lng": 4.900374412536621, "lat": 52.37878224866535, "name": "Amsterdam Central Railway Station (Station Amsterdam Centraal)", "now": false}, {"type": "Hotel", "lng": 4.894897565548369, "lat": 52.37279019614373, "name": "NH Collection Amsterdam Grand Hotel Krasnapolsky", "now": false}, {"type": "Office", "lng": 4.830464964101317, "lat": 52.39093650557797, "name": "Kubrickolo.gy", "now": false}, {"type": "Caf\u00e9", "lng": 4.876341819763184, "lat": 52.36572102359264, "name": "Toussaint", "now": false}, {"type": "Museum", "lng": 4.901005240759131, "lat": 52.384122836878994, "name": "EYE", "now": false}, {"type": "School", "lng": 4.813915607773605, "lat": 52.46086805417788, "name": "rijbewijsgigant", "now": false}, {"type": "Caf\u00e9", "lng": 4.894334077835083, "lat": 52.379522312779656, "name": "Caf\u00e9 Kobalt", "now": false}, {"type": "Gym / Fitness Center", "lng": 4.891156, "lat": 52.381323, "name": "Fit For Free", "now": false}, {"type": "Office", "lng": 4.830464964101317, "lat": 52.39093650557797, "name": "Kubrickolo.gy", "now": false}, {"type": "Caf\u00e9", "lng": 4.894334077835083, "lat": 52.379522312779656, "name": "Caf\u00e9 Kobalt", "now": false}, {"type": "Gym / Fitness Center", "lng": 4.891156, "lat": 52.381323, "name": "Fit For Free", "now": false}, {"type": "Office", "lng": 4.830464964101317, "lat": 52.39093650557797, "name": "Kubrickolo.gy", "now": false}, {"type": "Museum", "lng": 4.901005240759131, "lat": 52.384122836878994, "name": "EYE", "now": false}, {"type": "Office", "lng": 4.830464964101317, "lat": 52.39093650557797, "name": "Kubrickolo.gy", "now": false}, {"type": "Gym / Fitness Center", "lng": 4.891156, "lat": 52.381323, "name": "Fit For Free", "now": false}, {"type": "Gastropub", "lng": 4.81120357042186, "lat": 52.45759834435768, "name": "Eetcaf\u00e9 De Toog", "now": false}, {"type": "Office", "lng": 4.830464964101317, "lat": 52.39093650557797, "name": "Kubrickolo.gy", "now": false}, {"type": "Gym / Fitness Center", "lng": 4.891156, "lat": 52.381323, "name": "Fit For Free", "now": false}, {"type": "Office", "lng": 4.830464964101317, "lat": 52.39093650557797, "name": "Kubrickolo.gy", "now": false}, {"type": "Office", "lng": 4.830464964101317, "lat": 52.39093650557797, "name": "Kubrickolo.gy", "now": false}, {"type": "College Arts Building", "lng": 6.095811125275468, "lat": 52.514067635174676, "name": "Artez", "now": false}, {"type": "Design Studio", "lng": 4.857742, "lat": 52.382521, "name": "Terra Preta Multimedia Studio", "now": false}, {"type": "Bar", "lng": 5.906777681079501, "lat": 51.98230050778086, "name": "Bar Florian", "now": false}, {"type": "Office", "lng": 4.830464964101317, "lat": 52.39093650557797, "name": "Kubrickolo.gy", "now": false}, {"type": "Caf\u00e9", "lng": 4.894334077835083, "lat": 52.379522312779656, "name": "Caf\u00e9 Kobalt", "now": false}, {"type": "Museum", "lng": 4.901005240759131, "lat": 52.384122836878994, "name": "EYE", "now": false}, {"type": "Office", "lng": 4.830464964101317, "lat": 52.39093650557797, "name": "Kubrickolo.gy", "now": false}, {"type": "Office", "lng": 4.830464964101317, "lat": 52.39093650557797, "name": "Kubrickolo.gy", "now": false}, {"type": "Office", "lng": 4.830464964101317, "lat": 52.39093650557797, "name": "Kubrickolo.gy", "now": false}, {"type": "Design Studio", "lng": 4.857742, "lat": 52.382521, "name": "Terra Preta Multimedia Studio", "now": false}, {"type": "Gym / Fitness Center", "lng": 4.891156, "lat": 52.381323, "name": "Fit For Free", "now": false}, {"type": "Museum", "lng": 4.901005240759131, "lat": 52.384122836878994, "name": "EYE", "now": false}, {"type": "Plaza", "lng": 4.881491661071777, "lat": 52.3574525953504, "name": "Museumplein", "now": false}, {"type": "Office", "lng": 4.830464964101317, "lat": 52.39093650557797, "name": "Kubrickolo.gy", "now": false}, {"type": "Music Venue", "lng": 4.8781351000064, "lat": 52.3830052542326, "name": "Zaal 100", "now": false}, {"type": "Office", "lng": 4.830464964101317, "lat": 52.39093650557797, "name": "Kubrickolo.gy", "now": false}, {"type": "Office", "lng": 4.830464964101317, "lat": 52.39093650557797, "name": "Kubrickolo.gy", "now": false}, {"type": "Caf\u00e9", "lng": 4.889142, "lat": 52.368775, "name": "Caf\u00e9 Luxembourg", "now": false}, {"type": "Office", "lng": 4.830464964101317, "lat": 52.39093650557797, "name": "Kubrickolo.gy", "now": false}, {"type": "Caf\u00e9", "lng": 4.876341819763184, "lat": 52.36572102359264, "name": "Toussaint", "now": false}, {"type": "Office", "lng": 4.830464964101317, "lat": 52.39093650557797, "name": "Kubrickolo.gy", "now": false}, {"type": "Gym / Fitness Center", "lng": 4.891156, "lat": 52.381323, "name": "Fit For Free", "now": false}, {"type": "Office", "lng": 4.830464964101317, "lat": 52.39093650557797, "name": "Kubrickolo.gy", "now": false}, {"type": "Caf\u00e9", "lng": 4.894334077835083, "lat": 52.379522312779656, "name": "Caf\u00e9 Kobalt", "now": false}, {"type": "Caf\u00e9", "lng": 4.889142, "lat": 52.368775, "name": "Caf\u00e9 Luxembourg", "now": false}, {"type": "Office", "lng": 4.830464964101317, "lat": 52.39093650557797, "name": "Kubrickolo.gy", "now": false}, {"type": "Caf\u00e9", "lng": 4.876341819763184, "lat": 52.36572102359264, "name": "Toussaint", "now": false}, {"type": "Office", "lng": 4.830464964101317, "lat": 52.39093650557797, "name": "Kubrickolo.gy", "now": false}, {"type": "Town", "lng": 7.206348256605179, "lat": 52.01928393915481, "name": "Rosendahl", "now": false}, {"type": "Gym / Fitness Center", "lng": 4.891156, "lat": 52.381323, "name": "Fit For Free", "now": false}, {"type": "Office", "lng": 4.830464964101317, "lat": 52.39093650557797, "name": "Kubrickolo.gy", "now": false}, {"type": "Office", "lng": 4.830464964101317, "lat": 52.39093650557797, "name": "Kubrickolo.gy", "now": false}, {"type": "Museum", "lng": 4.901005240759131, "lat": 52.384122836878994, "name": "EYE", "now": false}, {"type": "Bar", "lng": 5.9058184125, "lat": 51.978621974999996, "name": "De Kroeg", "now": false}, {"type": "Office", "lng": 4.830464964101317, "lat": 52.39093650557797, "name": "Kubrickolo.gy", "now": false}, {"type": "Design Studio", "lng": 4.857742, "lat": 52.382521, "name": "Terra Preta Multimedia Studio", "now": false}, {"type": "Gym / Fitness Center", "lng": 4.891156, "lat": 52.381323, "name": "Fit For Free", "now": false}, {"type": "Museum", "lng": 4.901005240759131, "lat": 52.384122836878994, "name": "EYE", "now": false}, {"type": "Caf\u00e9", "lng": 4.894334077835083, "lat": 52.379522312779656, "name": "Caf\u00e9 Kobalt", "now": false}, {"type": "Design Studio", "lng": 4.857742, "lat": 52.382521, "name": "Terra Preta Multimedia Studio", "now": false}, {"type": "Museum", "lng": 4.901005240759131, "lat": 52.384122836878994, "name": "EYE", "now": false}, {"type": "Caf\u00e9", "lng": 5.117480316454088, "lat": 52.08993065053857, "name": "Caf\u00e9 Van Velsen", "now": false}, {"type": "Pub", "lng": 5.11714586958312, "lat": 52.09062079282885, "name": "'t College", "now": false}, {"type": "Office", "lng": 4.830464964101317, "lat": 52.39093650557797, "name": "Kubrickolo.gy", "now": false}, {"type": "Office", "lng": 4.830464964101317, "lat": 52.39093650557797, "name": "Kubrickolo.gy", "now": false}, {"type": "Caf\u00e9", "lng": 4.876341819763184, "lat": 52.36572102359264, "name": "Toussaint", "now": false}, {"type": "Office", "lng": 4.830464964101317, "lat": 52.39093650557797, "name": "Kubrickolo.gy", "now": false}, {"type": "Office", "lng": 4.830464964101317, "lat": 52.39093650557797, "name": "Kubrickolo.gy", "now": false}, {"type": "Caf\u00e9", "lng": 4.876341819763184, "lat": 52.36572102359264, "name": "Toussaint", "now": false}, {"type": "Bridge", "lng": 11.97911024093628, "lat": 54.946458266779665, "name": "Far\u00f8broerne", "now": false}, {"type": "Pub", "lng": 12.590675354003906, "lat": 55.68010089950764, "name": "McJoy's Choice", "now": false}, {"type": "Monument / Landmark", "lng": 12.575746178627014, "lat": 55.68129556990495, "name": "Rundet\u00e5rn", "now": false}, {"type": "Food Court", "lng": 12.569522883750302, "lat": 55.68380535833204, "name": "Torvehallerne", "now": false}, {"type": "Campground", "lng": 12.513916701134153, "lat": 55.7013940150627, "name": "Bellah\u00f8j Camping", "now": false}, {"type": "French Restaurant", "lng": 12.582041728884308, "lat": 55.68242253662171, "name": "Pastis", "now": false}, {"type": "Caf\u00e9", "lng": 12.58172515790418, "lat": 55.68153916625204, "name": "Caf\u00e9 Dan Turell", "now": false}, {"type": "Art Museum", "lng": 12.578197717666626, "lat": 55.68848399318558, "name": "Statens Museum for Kunst - SMK", "now": false}, {"type": "Caf\u00e9", "lng": 12.57982313632965, "lat": 55.67886687253232, "name": "Cafe Norden", "now": false}, {"type": "Toy / Game Store", "lng": 12.576179, "lat": 55.678658, "name": "LEGO Store", "now": false}, {"type": "Campground", "lng": 12.513916701134153, "lat": 55.7013940150627, "name": "Bellah\u00f8j Camping", "now": false}, {"type": "Other Great Outdoors", "lng": 10.329233169079322, "lat": 55.427809323430246, "name": "Jernalderlandsbyen", "now": false}, {"type": "Castle", "lng": 10.487514334729802, "lat": 55.174448094802436, "name": "Egeskov Slot", "now": false}, {"type": "Harbor / Marina", "lng": 10.614676423772215, "lat": 55.05931164279671, "name": "Svendborg Havn", "now": false}, {"type": "Campground", "lng": 10.244806, "lat": 54.922328, "name": "Roel and Mary's Secret Camping Spot", "now": false}, {"type": "Harbor / Marina", "lng": 9.985692501068115, "lat": 54.9938531870742, "name": "Fynshav F\u00e6rgehavn", "now": false}, {"type": "Hotel", "lng": 9.879510376768918, "lat": 54.16433899093954, "name": "Landhotel M\u00f6llhagen", "now": false}, {"type": "Caf\u00e9", "lng": 5.9152034190847465, "lat": 51.98204590303066, "name": "Caf\u00e9 Vrijdag", "now": false}, {"type": "Train Station", "lng": 4.837861500336683, "lat": 52.38897225483043, "name": "Amsterdam Sloterdijk Station (Station Amsterdam Sloterdijk)", "now": false}, {"type": "Caf\u00e9", "lng": 4.894334077835083, "lat": 52.379522312779656, "name": "Caf\u00e9 Kobalt", "now": false}, {"type": "Gym / Fitness Center", "lng": 4.891156, "lat": 52.381323, "name": "Fit For Free", "now": false}, {"type": "Concert Hall", "lng": 4.938552509832211, "lat": 52.3136105761727, "name": "Ziggo Dome", "now": false}, {"type": "Design Studio", "lng": 4.857742, "lat": 52.382521, "name": "Terra Preta Multimedia Studio", "now": false}, {"type": "Caf\u00e9", "lng": 5.9152034190847465, "lat": 51.98204590303066, "name": "Caf\u00e9 Vrijdag", "now": false}, {"type": "Indie Movie Theater", "lng": 5.1191801195495765, "lat": 52.08820829268549, "name": "Springhaver Theater", "now": false}, {"type": "Comic Shop", "lng": 5.1213508463897055, "lat": 52.088328477217814, "name": "Stripwinkel Blunder", "now": false}, {"type": "Design Studio", "lng": 4.857742, "lat": 52.382521, "name": "Terra Preta Multimedia Studio", "now": false}, {"type": "Beach", "lng": 3.8146340887795707, "lat": 51.74010751929659, "name": "Strandpavilioen Corazon", "now": false}, {"type": "Harbor / Marina", "lng": 3.8585400581359863, "lat": 51.75926079459099, "name": "Marina Port Z\u00e9lande", "now": false}, {"type": "Beach Bar", "lng": 3.82231497, "lat": 51.741969, "name": "Beachclub Perry's", "now": false}, {"type": "Resort", "lng": 3.8593413739147397, "lat": 51.755995243966616, "name": "Center Parcs Port Z\u00e9lande", "now": false}, {"type": "Coffee Shop", "lng": 6.094397525049007, "lat": 52.51302268219378, "name": "Brasserie Het Vliegerhuys", "now": false}, {"type": "Office", "lng": 4.830464964101317, "lat": 52.39093650557797, "name": "Kubrickolo.gy", "now": false}, {"type": "Caf\u00e9", "lng": 4.852870333917722, "lat": 52.39159009324955, "name": "Eetcaf\u00e9 Westpoort", "now": false}, {"type": "Design Studio", "lng": 4.857742, "lat": 52.382521, "name": "Terra Preta Multimedia Studio", "now": false}, {"type": "Design Studio", "lng": 4.857742, "lat": 52.382521, "name": "Terra Preta Multimedia Studio", "now": false}, {"type": "Gym / Fitness Center", "lng": 4.891156, "lat": 52.381323, "name": "Fit For Free", "now": false}, {"type": "School", "lng": 4.813915607773605, "lat": 52.46086805417788, "name": "rijbewijsgigant", "now": false}, {"type": "Caf\u00e9", "lng": 4.894334077835083, "lat": 52.379522312779656, "name": "Caf\u00e9 Kobalt", "now": false}, {"type": "Train Station", "lng": 4.818988688251826, "lat": 52.45691581899127, "name": "Station Zaandam Kogerveld", "now": false}, {"type": "Office", "lng": 4.830464964101317, "lat": 52.39093650557797, "name": "Kubrickolo.gy", "now": false}, {"type": "Gym / Fitness Center", "lng": 4.891156, "lat": 52.381323, "name": "Fit For Free", "now": false}, {"type": "Caf\u00e9", "lng": 4.894334077835083, "lat": 52.379522312779656, "name": "Caf\u00e9 Kobalt", "now": false}, {"type": "Office", "lng": 4.830464964101317, "lat": 52.39093650557797, "name": "Kubrickolo.gy", "now": false}, {"type": "Bar", "lng": 4.892563819885254, "lat": 52.36547862734887, "name": "P.King", "now": false}, {"type": "Design Studio", "lng": 4.857742, "lat": 52.382521, "name": "Terra Preta Multimedia Studio", "now": false}, {"type": "Museum", "lng": 4.901005240759131, "lat": 52.384122836878994, "name": "EYE", "now": false}, {"type": "Jazz Club", "lng": 4.912809133529663, "lat": 52.3779766780531, "name": "Bimhuis", "now": false}, {"type": "Design Studio", "lng": 4.857742, "lat": 52.382521, "name": "Terra Preta Multimedia Studio", "now": false}, {"type": "Office", "lng": 4.830464964101317, "lat": 52.39093650557797, "name": "Kubrickolo.gy", "now": false}, {"type": "Design Studio", "lng": 4.857742, "lat": 52.382521, "name": "Terra Preta Multimedia Studio", "now": false}, {"type": "Steakhouse", "lng": 5.227911592831392, "lat": 52.25382315665254, "name": "Caf\u00e9 Loetje", "now": false}, {"type": "Multiplex", "lng": 4.894820402019465, "lat": 52.366403170086535, "name": "Path\u00e9 Tuschinski", "now": false}, {"type": "Diner", "lng": 3.935639, "lat": 51.809584, "name": "In De Keulse Pot", "now": false}, {"type": "Music Venue", "lng": 3.825156257678536, "lat": 51.74811617859468, "name": "Concert at SEA 2013", "now": false}, {"type": "Gym / Fitness Center", "lng": 4.891156, "lat": 52.381323, "name": "Fit For Free", "now": false}, {"type": "School", "lng": 4.813915607773605, "lat": 52.46086805417788, "name": "rijbewijsgigant", "now": false}, {"type": "Office", "lng": 4.830464964101317, "lat": 52.39093650557797, "name": "Kubrickolo.gy", "now": false}, {"type": "Bakery", "lng": 4.874711036682129, "lat": 52.38576324505702, "name": "De Bakkerswinkel", "now": false}, {"type": "Sushi Restaurant", "lng": 5.1174190274194284, "lat": 52.08998813378618, "name": "Konnichi Wa", "now": false}, {"type": "Gym / Fitness Center", "lng": 4.891156, "lat": 52.381323, "name": "Fit For Free", "now": false}, {"type": "Office", "lng": 4.830464964101317, "lat": 52.39093650557797, "name": "Kubrickolo.gy", "now": false}, {"type": "Tea Room", "lng": 4.819934, "lat": 52.446305, "name": "De Koekfabriek", "now": false}, {"type": "Bakery", "lng": 4.874711036682129, "lat": 52.38576324505702, "name": "De Bakkerswinkel", "now": false}, {"type": "Gym / Fitness Center", "lng": 4.891156, "lat": 52.381323, "name": "Fit For Free", "now": false}, {"type": "Office", "lng": 4.830464964101317, "lat": 52.39093650557797, "name": "Kubrickolo.gy", "now": false}, {"type": "Trail", "lng": 4.575140770721518, "lat": 52.44980660113806, "name": "Kennmerduinen", "now": false}, {"type": "Design Studio", "lng": 4.857742, "lat": 52.382521, "name": "Terra Preta Multimedia Studio", "now": false}, {"type": "Caf\u00e9", "lng": 4.894334077835083, "lat": 52.379522312779656, "name": "Caf\u00e9 Kobalt", "now": false}, {"type": "Office", "lng": 4.830464964101317, "lat": 52.39093650557797, "name": "Kubrickolo.gy", "now": false}, {"type": "Caf\u00e9", "lng": 4.852870333917722, "lat": 52.39159009324955, "name": "Eetcaf\u00e9 Westpoort", "now": false}, {"type": "Gym / Fitness Center", "lng": 4.891156, "lat": 52.381323, "name": "Fit For Free", "now": false}, {"type": "Office", "lng": 4.830464964101317, "lat": 52.39093650557797, "name": "Kubrickolo.gy", "now": false}, {"type": "Gas Station", "lng": 4.855119915676098, "lat": 52.44256986729758, "name": "Esso", "now": false}, {"type": "Concert Hall", "lng": 4.912840083414216, "lat": 52.37809266488914, "name": "Muziekgebouw aan 't IJ", "now": false}, {"type": "Jazz Club", "lng": 4.912809133529663, "lat": 52.3779766780531, "name": "Bimhuis", "now": false}, {"type": "Jazz Club", "lng": 4.912809133529663, "lat": 52.3779766780531, "name": "Bimhuis", "now": false}, {"type": "Concert Hall", "lng": 4.912840083414216, "lat": 52.37809266488914, "name": "Muziekgebouw aan 't IJ", "now": false}, {"type": "Caf\u00e9", "lng": 4.894334077835083, "lat": 52.379522312779656, "name": "Caf\u00e9 Kobalt", "now": false}, {"type": "Design Studio", "lng": 4.857742, "lat": 52.382521, "name": "Terra Preta Multimedia Studio", "now": false}, {"type": "Caf\u00e9", "lng": 4.894334077835083, "lat": 52.379522312779656, "name": "Caf\u00e9 Kobalt", "now": false}, {"type": "Water Park", "lng": 5.026974532285277, "lat": 52.29803495993694, "name": "Spa Wellness", "now": false}, {"type": "Design Studio", "lng": 4.857742, "lat": 52.382521, "name": "Terra Preta Multimedia Studio", "now": false}, {"type": "Museum", "lng": 4.901005240759131, "lat": 52.384122836878994, "name": "EYE", "now": false}, {"type": "Caf\u00e9", "lng": 4.894334077835083, "lat": 52.379522312779656, "name": "Caf\u00e9 Kobalt", "now": false}, {"type": "Gym / Fitness Center", "lng": 4.891156, "lat": 52.381323, "name": "Fit For Free", "now": false}, {"type": "Cultural Center", "lng": 5.1049213087102565, "lat": 52.09683827106821, "name": "Het Huis", "now": false}, {"type": "Office", "lng": 4.830464964101317, "lat": 52.39093650557797, "name": "Kubrickolo.gy", "now": false}, {"type": "Office", "lng": 4.830464964101317, "lat": 52.39093650557797, "name": "Kubrickolo.gy", "now": false}, {"type": "Bar", "lng": 4.892563819885254, "lat": 52.36547862734887, "name": "P.King", "now": false}, {"type": "Office", "lng": 4.830464964101317, "lat": 52.39093650557797, "name": "Kubrickolo.gy", "now": false}, {"type": "Museum", "lng": 4.901005240759131, "lat": 52.384122836878994, "name": "EYE", "now": false}, {"type": "School", "lng": 4.813915607773605, "lat": 52.46086805417788, "name": "rijbewijsgigant", "now": false}, {"type": "Coffee Shop", "lng": 4.89748556343617, "lat": 52.3660492867161, "name": "Starbucks", "now": false}, {"type": "Office", "lng": 4.830464964101317, "lat": 52.39093650557797, "name": "Kubrickolo.gy", "now": false}, {"type": "Gym / Fitness Center", "lng": 4.891156, "lat": 52.381323, "name": "Fit For Free", "now": false}, {"type": "School", "lng": 4.813915607773605, "lat": 52.46086805417788, "name": "rijbewijsgigant", "now": false}, {"type": "Gym / Fitness Center", "lng": 4.891156, "lat": 52.381323, "name": "Fit For Free", "now": false}, {"type": "Design Studio", "lng": 4.857742, "lat": 52.382521, "name": "Terra Preta Multimedia Studio", "now": false}, {"type": "Jazz Club", "lng": 4.912809133529663, "lat": 52.3779766780531, "name": "Bimhuis", "now": false}, {"type": "Office", "lng": 4.830464964101317, "lat": 52.39093650557797, "name": "Kubrickolo.gy", "now": false}, {"type": "Caf\u00e9", "lng": 4.889142, "lat": 52.368775, "name": "Caf\u00e9 Luxembourg", "now": false}, {"type": "Office", "lng": 4.830464964101317, "lat": 52.39093650557797, "name": "Kubrickolo.gy", "now": false}, {"type": "Coffee Shop", "lng": 4.89748556343617, "lat": 52.3660492867161, "name": "Starbucks", "now": false}, {"type": "Gym / Fitness Center", "lng": 4.891156, "lat": 52.381323, "name": "Fit For Free", "now": false}, {"type": "Office", "lng": 4.830464964101317, "lat": 52.39093650557797, "name": "Kubrickolo.gy", "now": false}, {"type": "Water Park", "lng": 5.026974532285277, "lat": 52.29803495993694, "name": "Spa Wellness", "now": false}, {"type": "Gym / Fitness Center", "lng": 4.891156, "lat": 52.381323, "name": "Fit For Free", "now": false}, {"type": "Office", "lng": 4.830464964101317, "lat": 52.39093650557797, "name": "Kubrickolo.gy", "now": false}, {"type": "Office", "lng": 4.837192895741965, "lat": 52.3982466442635, "name": "UPS pickup centre", "now": false}, {"type": "Office", "lng": 4.830464964101317, "lat": 52.39093650557797, "name": "Kubrickolo.gy", "now": false}, {"type": "Gym / Fitness Center", "lng": 4.891156, "lat": 52.381323, "name": "Fit For Free", "now": false}, {"type": "Office", "lng": 4.830464964101317, "lat": 52.39093650557797, "name": "Kubrickolo.gy", "now": false}, {"type": "Office", "lng": 4.830464964101317, "lat": 52.39093650557797, "name": "Kubrickolo.gy", "now": false}, {"type": "Design Studio", "lng": 4.857742, "lat": 52.382521, "name": "Terra Preta Multimedia Studio", "now": false}, {"type": "Pub", "lng": 5.903799880923643, "lat": 51.98232041962352, "name": "Dollars Rock Caf\u00e9", "now": false}, {"type": "Italian Restaurant", "lng": 5.907581985417506, "lat": 51.98242066698302, "name": "ZILLI", "now": false}, {"type": "Bar", "lng": 5.906777681079501, "lat": 51.98230050778086, "name": "Bar Florian", "now": false}, {"type": "Art Gallery", "lng": 5.786996981608223, "lat": 52.102907075462106, "name": "Kr\u00f6ller M\u00fcller", "now": false}, {"type": "Office", "lng": 4.830464964101317, "lat": 52.39093650557797, "name": "Kubrickolo.gy", "now": false}, {"type": "Gym / Fitness Center", "lng": 4.891156, "lat": 52.381323, "name": "Fit For Free", "now": false}, {"type": "Office", "lng": 4.830464964101317, "lat": 52.39093650557797, "name": "Kubrickolo.gy", "now": false}, {"type": "Design Studio", "lng": 4.857742, "lat": 52.382521, "name": "Terra Preta Multimedia Studio", "now": false}, {"type": "Office", "lng": 4.830464964101317, "lat": 52.39093650557797, "name": "Kubrickolo.gy", "now": false}, {"type": "Design Studio", "lng": 4.857742, "lat": 52.382521, "name": "Terra Preta Multimedia Studio", "now": false}, {"type": "Gym / Fitness Center", "lng": 4.891156, "lat": 52.381323, "name": "Fit For Free", "now": false}, {"type": "Design Studio", "lng": 4.857742, "lat": 52.382521, "name": "Terra Preta Multimedia Studio", "now": false}, {"type": "Theater", "lng": 4.895987, "lat": 52.367063, "name": "De Kleine Komedie", "now": false}, {"type": "Coffee Shop", "lng": 4.89748556343617, "lat": 52.3660492867161, "name": "Starbucks", "now": false}, {"type": "Caf\u00e9", "lng": 5.909174276468052, "lat": 51.98287909861344, "name": "Babo Caf\u00e9", "now": false}, {"type": "Office", "lng": 4.830464964101317, "lat": 52.39093650557797, "name": "Kubrickolo.gy", "now": false}, {"type": "Office", "lng": 4.830464964101317, "lat": 52.39093650557797, "name": "Kubrickolo.gy", "now": false}, {"type": "Office", "lng": 4.830464964101317, "lat": 52.39093650557797, "name": "Kubrickolo.gy", "now": false}, {"type": "Office", "lng": 4.830464964101317, "lat": 52.39093650557797, "name": "Kubrickolo.gy", "now": false}, {"type": "Hotel", "lng": 5.532025314649446, "lat": 52.26817145828311, "name": "Postillion Hotel Amersfoort Veluwemeer", "now": false}, {"type": "Bar", "lng": 4.900115162186789, "lat": 52.366235156570035, "name": "Caf\u00e9 Langereis", "now": false}, {"type": "Theater", "lng": 4.895987, "lat": 52.367063, "name": "De Kleine Komedie", "now": false}, {"type": "Coffee Shop", "lng": 4.89748556343617, "lat": 52.3660492867161, "name": "Starbucks", "now": false}, {"type": "Department Store", "lng": 4.894392057276645, "lat": 52.37367647640282, "name": "De Bijenkorf", "now": false}, {"type": "Bookstore", "lng": 4.888937063662242, "lat": 52.368861524371965, "name": "Athenaeum Boekhandel", "now": false}, {"type": "Bakery", "lng": 4.874711036682129, "lat": 52.38576324505702, "name": "De Bakkerswinkel", "now": false}, {"type": "Irish Pub", "lng": 5.115757445341953, "lat": 52.09919297508205, "name": "O'Leary's Irish Pub & Restaurant", "now": false}, {"type": "Music Venue", "lng": 5.114489793777466, "lat": 52.09748970135219, "name": "EKKO", "now": false}, {"type": "Office", "lng": 4.830464964101317, "lat": 52.39093650557797, "name": "Kubrickolo.gy", "now": false}, {"type": "Office", "lng": 4.830464964101317, "lat": 52.39093650557797, "name": "Kubrickolo.gy", "now": false}, {"type": "Caf\u00e9", "lng": 4.894334077835083, "lat": 52.379522312779656, "name": "Caf\u00e9 Kobalt", "now": false}, {"type": "Office", "lng": 4.830464964101317, "lat": 52.39093650557797, "name": "Kubrickolo.gy", "now": false}, {"type": "Gym / Fitness Center", "lng": 4.891156, "lat": 52.381323, "name": "Fit For Free", "now": false}, {"type": "Office", "lng": 4.830464964101317, "lat": 52.39093650557797, "name": "Kubrickolo.gy", "now": false}, {"type": "Bar", "lng": 5.906777681079501, "lat": 51.98230050778086, "name": "Bar Florian", "now": false}, {"type": "Restaurant", "lng": 5.904691852085376, "lat": 51.982615784683915, "name": "Le Grand Caf\u00e9", "now": false}, {"type": "Bar", "lng": 5.906777681079501, "lat": 51.98230050778086, "name": "Bar Florian", "now": false}, {"type": "Bakery", "lng": 4.874711036682129, "lat": 52.38576324505702, "name": "De Bakkerswinkel", "now": false}, {"type": "Gym / Fitness Center", "lng": 4.891156, "lat": 52.381323, "name": "Fit For Free", "now": false}, {"type": "Concert Hall", "lng": 4.366006533864883, "lat": 50.84884060211883, "name": "Cirque Royal / Koninklijk Circus (Koninklijk Circus)", "now": false}, {"type": "Train Station", "lng": 4.336095345726152, "lat": 50.835869894077355, "name": "Brussels-South Railway Station (ZYR) (Station Brussel-Zuid)", "now": false}, {"type": "Train Station", "lng": 4.900374412536621, "lat": 52.37878224866535, "name": "Amsterdam Central Railway Station (Station Amsterdam Centraal)", "now": false}, {"type": "Coffee Shop", "lng": 4.899619024607492, "lat": 52.37898061166784, "name": "Starbucks", "now": false}, {"type": "Office", "lng": 4.830464964101317, "lat": 52.39093650557797, "name": "Kubrickolo.gy", "now": false}, {"type": "Caf\u00e9", "lng": 4.882841418138585, "lat": 52.373959769256366, "name": "De Oude Wester", "now": false}, {"type": "Gym / Fitness Center", "lng": 4.891156, "lat": 52.381323, "name": "Fit For Free", "now": false}, {"type": "Caf\u00e9", "lng": 4.894334077835083, "lat": 52.379522312779656, "name": "Caf\u00e9 Kobalt", "now": false}, {"type": "Department Store", "lng": 4.894392057276645, "lat": 52.37367647640282, "name": "De Bijenkorf", "now": false}, {"type": "Bookstore", "lng": 4.888937063662242, "lat": 52.368861524371965, "name": "Athenaeum Boekhandel", "now": false}]