[{"lat": 47.25545381275797, "lng": 39.80360971300479, "name": "Rostov-on-Don Airport (ROV) (\u0410\u044d\u0440\u043e\u043f\u043e\u0440\u0442 \u0420\u043e\u0441\u0442\u043e\u0432-\u043d\u0430-\u0414\u043e\u043d\u0443)", "type": "Airport", "now": true}, {"lat": 55.9636025861622, "lng": 37.406089185888405, "name": "Sheremetyevo International Airport (SVO) (\u041c\u0435\u0436\u0434\u0443\u043d\u0430\u0440\u043e\u0434\u043d\u044b\u0439 \u0430\u044d\u0440\u043e\u043f\u043e\u0440\u0442 \u0428\u0435\u0440\u0435\u043c\u0435\u0442\u044c\u0435\u0432\u043e)", "type": "Airport", "now": false}, {"lat": 52.30923267175452, "lng": 4.7625577372555465, "name": "Amsterdam Airport Schiphol (AMS)", "type": "Airport", "now": false}, {"lat": 52.30923267175452, "lng": 4.7625577372555465, "name": "Amsterdam Airport Schiphol (AMS)", "type": "Airport", "now": false}, {"lat": 50.07223010071994, "lng": 19.801819359365993, "name": "John Paul II International Airport Krak\u00f3w\u2013Balice (KRK) (Mi\u0119dzynarodowy Port Lotniczy im. Jana Paw\u0142a II Krak\u00f3w-Balice)", "type": "Airport", "now": false}, {"lat": 50.076977, "lng": 19.788118, "name": "Krakow", "type": "Airport Service", "now": false}, {"lat": 52.30923267175452, "lng": 4.7625577372555465, "name": "Amsterdam Airport Schiphol (AMS)", "type": "Airport", "now": false}, {"lat": 52.24111846696927, "lng": 6.048317551365021, "name": "Teuge International Airport (EHTE)", "type": "Airport", "now": false}, {"lat": 52.193148539617674, "lng": 5.152907255548942, "name": "Hilversum Airport (Vliegveld Hilversum)", "type": "Airport", "now": false}, {"lat": 63.99117062931456, "lng": -22.622909545898438, "name": "Keflavik International Airport (KEF) (Keflav\u00edkurflugv\u00f6llur)", "type": "Airport", "now": false}, {"lat": 63.99117062931456, "lng": -22.622909545898438, "name": "Keflavik International Airport (KEF) (Keflav\u00edkurflugv\u00f6llur)", "type": "Airport", "now": false}, {"lat": 52.30923267175452, "lng": 4.7625577372555465, "name": "Amsterdam Airport Schiphol (AMS)", "type": "Airport", "now": false}, {"lat": 52.30923267175452, "lng": 4.7625577372555465, "name": "Amsterdam Airport Schiphol (AMS)", "type": "Airport", "now": false}, {"lat": 51.50396412422985, "lng": 0.04976896880526665, "name": "London City Airport (LCY)", "type": "Airport", "now": false}, {"lat": 51.50396412422985, "lng": 0.04976896880526665, "name": "London City Airport (LCY)", "type": "Airport", "now": false}, {"lat": 52.30923267175452, "lng": 4.7625577372555465, "name": "Amsterdam Airport Schiphol (AMS)", "type": "Airport", "now": false}, {"lat": 52.30923267175452, "lng": 4.7625577372555465, "name": "Amsterdam Airport Schiphol (AMS)", "type": "Airport", "now": false}, {"lat": 49.004685160970574, "lng": 2.5702929199346776, "name": "Paris Charles de Gaulle Airport (CDG) (A\u00e9roport Paris-Charles de Gaulle)", "type": "Airport", "now": false}, {"lat": 40.64505809053733, "lng": -73.7834624434656, "name": "John F. Kennedy International Airport (JFK)", "type": "Airport", "now": false}, {"lat": 40.64505809053733, "lng": -73.7834624434656, "name": "John F. Kennedy International Airport (JFK)", "type": "Airport", "now": false}, {"lat": 52.30923267175452, "lng": 4.7625577372555465, "name": "Amsterdam Airport Schiphol (AMS)", "type": "Airport", "now": false}, {"lat": 52.30923267175452, "lng": 4.7625577372555465, "name": "Amsterdam Airport Schiphol (AMS)", "type": "Airport", "now": false}, {"lat": 37.61692481575441, "lng": -122.38885916361724, "name": "San Francisco International Airport (SFO)", "type": "Airport", "now": false}, {"lat": 37.42676990683185, "lng": -122.08071924173356, "name": "Google I/O 2017", "type": "Convention", "now": false}, {"lat": 37.61692481575441, "lng": -122.38885916361724, "name": "San Francisco International Airport (SFO)", "type": "Airport", "now": false}, {"lat": 40.78693504261269, "lng": -111.9813333185899, "name": "Salt Lake City International Airport (SLC)", "type": "Airport", "now": false}, {"lat": 52.30923267175452, "lng": 4.7625577372555465, "name": "Amsterdam Airport Schiphol (AMS)", "type": "Airport", "now": false}, {"lat": 55.62833695998232, "lng": 12.645695264827953, "name": "Copenhagen Airport (CPH) (K\u00f8benhavns Lufthavn)", "type": "Airport", "now": false}, {"lat": 40.78693504261269, "lng": -111.9813333185899, "name": "Salt Lake City International Airport (SLC)", "type": "Airport", "now": false}, {"lat": 36.0829846406578, "lng": -115.14644926715971, "name": "McCarran International Airport (LAS)", "type": "Airport", "now": false}, {"lat": 36.0829846406578, "lng": -115.14644926715971, "name": "McCarran International Airport (LAS)", "type": "Airport", "now": false}, {"lat": 33.94332434443264, "lng": -118.405601978302, "name": "Los Angeles International Airport (LAX)", "type": "Airport", "now": false}, {"lat": 37.61692481575441, "lng": -122.38885916361724, "name": "San Francisco International Airport (SFO)", "type": "Airport", "now": false}, {"lat": 37.61692481575441, "lng": -122.38885916361724, "name": "San Francisco International Airport (SFO)", "type": "Airport", "now": false}, {"lat": 33.94332434443264, "lng": -118.405601978302, "name": "Los Angeles International Airport (LAX)", "type": "Airport", "now": false}, {"lat": 30.202310129239955, "lng": -97.6668415425308, "name": "Austin Bergstrom International Airport (AUS)", "type": "Airport", "now": false}, {"lat": 30.202310129239955, "lng": -97.6668415425308, "name": "Austin Bergstrom International Airport (AUS)", "type": "Airport", "now": false}, {"lat": 40.78693504261269, "lng": -111.9813333185899, "name": "Salt Lake City International Airport (SLC)", "type": "Airport", "now": false}, {"lat": 37.61692481575441, "lng": -122.38885916361724, "name": "San Francisco International Airport (SFO)", "type": "Airport", "now": false}, {"lat": 37.61692481575441, "lng": -122.38885916361724, "name": "San Francisco International Airport (SFO)", "type": "Airport", "now": false}, {"lat": 52.30923267175452, "lng": 4.7625577372555465, "name": "Amsterdam Airport Schiphol (AMS)", "type": "Airport", "now": false}, {"lat": 52.30923267175452, "lng": 4.7625577372555465, "name": "Amsterdam Airport Schiphol (AMS)", "type": "Airport", "now": false}, {"lat": 37.61692481575441, "lng": -122.38885916361724, "name": "San Francisco International Airport (SFO)", "type": "Airport", "now": false}, {"lat": 37.61692481575441, "lng": -122.38885916361724, "name": "San Francisco International Airport (SFO)", "type": "Airport", "now": false}, {"lat": 52.30923267175452, "lng": 4.7625577372555465, "name": "Amsterdam Airport Schiphol (AMS)", "type": "Airport", "now": false}, {"lat": 48.11945479013332, "lng": 16.563956981297576, "name": "Vienna International Airport (VIE) (Flughafen Wien-Schwechat)", "type": "Airport", "now": false}, {"lat": 52.30923267175452, "lng": 4.7625577372555465, "name": "Amsterdam Airport Schiphol (AMS)", "type": "Airport", "now": false}, {"lat": 43.305375778120755, "lng": -2.9059542035252615, "name": "Aeropuerto de Bilbao (BIO)", "type": "Airport", "now": false}, {"lat": 43.305375778120755, "lng": -2.9059542035252615, "name": "Aeropuerto de Bilbao (BIO)", "type": "Airport", "now": false}, {"lat": 52.30923267175452, "lng": 4.7625577372555465, "name": "Amsterdam Airport Schiphol (AMS)", "type": "Airport", "now": false}, {"lat": 51.50396412422985, "lng": 0.04976896880526665, "name": "London City Airport (LCY)", "type": "Airport", "now": false}, {"lat": 51.50396412422985, "lng": 0.04976896880526665, "name": "London City Airport (LCY)", "type": "Airport", "now": false}, {"lat": 52.30923267175452, "lng": 4.7625577372555465, "name": "Amsterdam Airport Schiphol (AMS)", "type": "Airport", "now": false}, {"lat": 59.650527933419625, "lng": 17.93097496032715, "name": "Stockholm-Arlanda Airport (ARN)", "type": "Airport", "now": false}, {"lat": 59.60183262632053, "lng": 16.628351651724433, "name": "Stockholm V\u00e4ster\u00e5s Flygplats (VST)", "type": "Airport", "now": false}, {"lat": 60.318320554472244, "lng": 24.96758259012695, "name": "Helsinki Airport  (HEL) (Helsinki Airport (HEL))", "type": "Airport", "now": false}, {"lat": 52.30923267175452, "lng": 4.7625577372555465, "name": "Amsterdam Airport Schiphol (AMS)", "type": "Airport", "now": false}, {"lat": 40.87793275611709, "lng": 14.282985155394492, "name": "Naples International Airport \"Ugo Niutta\" (NAP) (Aeroporto Internazionale di Napoli Capodichino \"Ugo Niutta\")", "type": "Airport", "now": false}, {"lat": 40.87793275611709, "lng": 14.282985155394492, "name": "Naples International Airport \"Ugo Niutta\" (NAP) (Aeroporto Internazionale di Napoli Capodichino \"Ugo Niutta\")", "type": "Airport", "now": false}, {"lat": 52.30923267175452, "lng": 4.7625577372555465, "name": "Amsterdam Airport Schiphol (AMS)", "type": "Airport", "now": false}, {"lat": 52.30923267175452, "lng": 4.7625577372555465, "name": "Amsterdam Airport Schiphol (AMS)", "type": "Airport", "now": false}, {"lat": 59.79963388793562, "lng": 30.273572934764662, "name": "Pulkovo International Airport (LED) (\u041c\u0435\u0436\u0434\u0443\u043d\u0430\u0440\u043e\u0434\u043d\u044b\u0439 \u0430\u044d\u0440\u043e\u043f\u043e\u0440\u0442 \u041f\u0443\u043b\u043a\u043e\u0432\u043e)", "type": "Airport", "now": false}, {"lat": 59.79963388793562, "lng": 30.273572934764662, "name": "Pulkovo International Airport (LED) (\u041c\u0435\u0436\u0434\u0443\u043d\u0430\u0440\u043e\u0434\u043d\u044b\u0439 \u0430\u044d\u0440\u043e\u043f\u043e\u0440\u0442 \u041f\u0443\u043b\u043a\u043e\u0432\u043e)", "type": "Airport", "now": false}, {"lat": 52.30923267175452, "lng": 4.7625577372555465, "name": "Amsterdam Airport Schiphol (AMS)", "type": "Airport", "now": false}, {"lat": 37.61692481575441, "lng": -122.38885916361724, "name": "San Francisco International Airport (SFO)", "type": "Airport", "now": false}, {"lat": 37.80654071386508, "lng": -122.43206667777437, "name": "The Interval at Long Now", "type": "Cocktail Bar", "now": false}, {"lat": 37.752603, "lng": -122.41378448333333, "name": "Haus Coffee", "type": "Coffee Shop", "now": false}, {"lat": 37.49826584400928, "lng": -122.24446997734793, "name": "Devil's Canyon Brewing Company", "type": "Brewery", "now": false}, {"lat": 37.40147715999492, "lng": -122.1368343034103, "name": "Nest HQ 3.0", "type": "Office", "now": false}, {"lat": 37.61692481575441, "lng": -122.38885916361724, "name": "San Francisco International Airport (SFO)", "type": "Airport", "now": false}, {"lat": 52.30923267175452, "lng": 4.7625577372555465, "name": "Amsterdam Airport Schiphol (AMS)", "type": "Airport", "now": false}, {"lat": 52.37809266488914, "lng": 4.912840083414216, "name": "Muziekgebouw aan 't IJ", "type": "Concert Hall", "now": false}, {"lat": 52.37768285903766, "lng": 4.907363123797117, "name": "Choux", "type": "Restaurant", "now": false}, {"lat": 52.35349776449129, "lng": 4.902465220123396, "name": "Spaghetteria", "type": "Italian Restaurant", "now": false}, {"lat": 52.30276140436009, "lng": 4.9534359369595355, "name": "ING Haarlerbergpark (HBP)", "type": "Office", "now": false}, {"lat": 52.33765478895593, "lng": 4.871930635577136, "name": "Google Amsterdam", "type": "Office", "now": false}, {"lat": 35.68557476, "lng": 139.6906391, "name": "Park Hyatt Tokyo (\u30d1\u30fc\u30af\u30cf\u30a4\u30a2\u30c3\u30c8\u6771\u4eac)", "type": "Hotel", "now": false}, {"lat": 35.710054, "lng": 139.81071, "name": "Tokyo Skytree (\u6771\u4eac\u30b9\u30ab\u30a4\u30c4\u30ea\u30fc)", "type": "Monument / Landmark", "now": false}, {"lat": 35.66035416332519, "lng": 139.72963527697652, "name": "Mori Art Museum (\u68ee\u7f8e\u8853\u9928)", "type": "Art Museum", "now": false}, {"lat": 35.667477492825796, "lng": 139.73035991191864, "name": "21_21 DESIGN SIGHT", "type": "Art Gallery", "now": false}, {"lat": 35.709444, "lng": 139.771525, "name": "HOTEL COCOGRAND UENOSHINOBAZU (\u30db\u30c6\u30eb \u30b3\u30b3\u30fb\u30b0\u30e9\u30f3\u4e0a\u91ce\u4e0d\u5fcd)", "type": "Hotel", "now": false}, {"lat": 35.77190522612856, "lng": 140.38687589242883, "name": "Narita International Airport (NRT) (\u6210\u7530\u56fd\u969b\u7a7a\u6e2f)", "type": "Airport", "now": false}, {"lat": 52.30923267175452, "lng": 4.7625577372555465, "name": "Amsterdam Airport Schiphol (AMS)", "type": "Airport", "now": false}, {"lat": 52.366906780645856, "lng": 4.868118166923523, "name": "Foodhallen", "type": "Food Court", "now": false}, {"lat": 52.36896703972043, "lng": 4.889495372772216, "name": "The American Book Center", "type": "Bookstore", "now": false}, {"lat": 51.98230050778086, "lng": 5.906777681079501, "name": "Bar Florian", "type": "Bar", "now": false}, {"lat": 51.2345851154123, "lng": 6.823655466078068, "name": "METRO", "type": "Office", "now": false}, {"lat": 52.30276140436009, "lng": 4.9534359369595355, "name": "ING Haarlerbergpark (HBP)", "type": "Office", "now": false}, {"lat": 52.36662574805283, "lng": 4.926383968338442, "name": "Brouwerij 't IJ", "type": "Brewery", "now": false}, {"lat": 52.35097166520259, "lng": 4.891520255177822, "name": "Le Pain Quotidien - (de Pijp)", "type": "Bakery", "now": false}, {"lat": 52.366403170086535, "lng": 4.894820402019465, "name": "Path\u00e9 Tuschinski", "type": "Multiplex", "now": false}, {"lat": 52.366403170086535, "lng": 4.894820402019465, "name": "Path\u00e9 Tuschinski", "type": "Multiplex", "now": false}, {"lat": 52.36686522514216, "lng": 4.8940605057319, "name": "Burger Bar", "type": "Burger Joint", "now": false}, {"lat": 52.081642276790845, "lng": 5.12362003326416, "name": "Ledig Erf", "type": "Bar", "now": false}, {"lat": 52.34294433020198, "lng": 4.829206787797253, "name": "B.Amsterdam", "type": "Coworking Space", "now": false}, {"lat": 52.31422523381137, "lng": 4.946982375083081, "name": "ING Acanthus", "type": "Office", "now": false}, {"lat": 52.30276140436009, "lng": 4.9534359369595355, "name": "ING Haarlerbergpark (HBP)", "type": "Office", "now": false}, {"lat": 52.37678563024838, "lng": 4.905077493675435, "name": "DoubleTree by Hilton Hotel", "type": "Hotel", "now": false}, {"lat": 52.35349776449129, "lng": 4.902465220123396, "name": "Spaghetteria", "type": "Italian Restaurant", "now": false}, {"lat": 52.35746646338605, "lng": 4.906507679690257, "name": "De Ysbreeker", "type": "Restaurant", "now": false}, {"lat": 52.366403170086535, "lng": 4.894820402019465, "name": "Path\u00e9 Tuschinski", "type": "Multiplex", "now": false}, {"lat": 52.36277849511845, "lng": 4.88324214354567, "name": "Hosokawa", "type": "Japanese Restaurant", "now": false}, {"lat": 52.35862410711441, "lng": 4.878992977693823, "name": "Conservatorium Hotel", "type": "Hotel", "now": false}, {"lat": 52.366906780645856, "lng": 4.868118166923523, "name": "Foodhallen", "type": "Food Court", "now": false}, {"lat": 52.329746, "lng": 5.06915, "name": "Brasserie Herengracht 75", "type": "French Restaurant", "now": false}, {"lat": 52.34294433020198, "lng": 4.829206787797253, "name": "B.Amsterdam", "type": "Coworking Space", "now": false}, {"lat": 52.30276140436009, "lng": 4.9534359369595355, "name": "ING Haarlerbergpark (HBP)", "type": "Office", "now": false}, {"lat": 52.30809477675751, "lng": 5.043145874117438, "name": "Grieks restaurant Niki", "type": "Greek Restaurant", "now": false}, {"lat": 52.36414463427992, "lng": 4.88351945052098, "name": "Gauchos Grill-Restaurant", "type": "Steakhouse", "now": false}, {"lat": 52.36648118187473, "lng": 4.893660533510497, "name": "Path\u00e9", "type": "Multiplex", "now": false}, {"lat": 52.35097166520259, "lng": 4.891520255177822, "name": "Le Pain Quotidien - (de Pijp)", "type": "Bakery", "now": false}, {"lat": 52.35470354107215, "lng": 4.853176258330551, "name": "Gent aan de Schinkel", "type": "Belgian Restaurant", "now": false}, {"lat": 52.33765478895593, "lng": 4.871930635577136, "name": "Google Amsterdam", "type": "Office", "now": false}, {"lat": 52.35364083588143, "lng": 4.855798129255578, "name": "Franklin Bar & Kitchen", "type": "Restaurant", "now": false}, {"lat": 52.31422523381137, "lng": 4.946982375083081, "name": "ING Acanthus", "type": "Office", "now": false}, {"lat": 52.30276140436009, "lng": 4.9534359369595355, "name": "ING Haarlerbergpark (HBP)", "type": "Office", "now": false}, {"lat": 52.366403170086535, "lng": 4.894820402019465, "name": "Path\u00e9 Tuschinski", "type": "Multiplex", "now": false}, {"lat": 52.37127227602769, "lng": 4.860007776364371, "name": "Fa. Speijkervet", "type": "French Restaurant", "now": false}, {"lat": 52.30923267175452, "lng": 4.7625577372555465, "name": "Amsterdam Airport Schiphol (AMS)", "type": "Airport", "now": false}, {"lat": 37.61692481575441, "lng": -122.38885916361724, "name": "San Francisco International Airport (SFO)", "type": "Airport", "now": false}, {"lat": 37.79619516102866, "lng": -122.3938000202179, "name": "Slanted Door", "type": "Vietnamese Restaurant", "now": false}, {"lat": 37.7798708152251, "lng": -122.41303760716224, "name": "The Strand", "type": "Theater", "now": false}, {"lat": 37.61692481575441, "lng": -122.38885916361724, "name": "San Francisco International Airport (SFO)", "type": "Airport", "now": false}, {"lat": 52.30923267175452, "lng": 4.7625577372555465, "name": "Amsterdam Airport Schiphol (AMS)", "type": "Airport", "now": false}, {"lat": 52.30923267175452, "lng": 4.7625577372555465, "name": "Amsterdam Airport Schiphol (AMS)", "type": "Airport", "now": false}, {"lat": 51.469407923261336, "lng": -0.46234846115112305, "name": "London Heathrow Airport (LHR)", "type": "Airport", "now": false}, {"lat": 51.50396412422985, "lng": 0.04976896880526665, "name": "London City Airport (LCY)", "type": "Airport", "now": false}, {"lat": 52.30923267175452, "lng": 4.7625577372555465, "name": "Amsterdam Airport Schiphol (AMS)", "type": "Airport", "now": false}, {"lat": 53.42643943630694, "lng": -6.243851173903524, "name": "Dublin Airport (DUB)", "type": "Airport", "now": false}, {"lat": 52.30923267175452, "lng": 4.7625577372555465, "name": "Amsterdam Airport Schiphol (AMS)", "type": "Airport", "now": false}, {"lat": 51.50396412422985, "lng": 0.04976896880526665, "name": "London City Airport (LCY)", "type": "Airport", "now": false}, {"lat": 52.30923267175452, "lng": 4.7625577372555465, "name": "Amsterdam Airport Schiphol (AMS)", "type": "Airport", "now": false}, {"lat": 52.30923267175452, "lng": 4.7625577372555465, "name": "Amsterdam Airport Schiphol (AMS)", "type": "Airport", "now": false}, {"lat": 51.469407923261336, "lng": -0.46234846115112305, "name": "London Heathrow Airport (LHR)", "type": "Airport", "now": false}, {"lat": 51.75924697957355, "lng": -1.1515311995626192, "name": "Heathrow Terminal 4", "type": "Airport Terminal", "now": false}, {"lat": 52.30923267175452, "lng": 4.7625577372555465, "name": "Amsterdam Airport Schiphol (AMS)", "type": "Airport", "now": false}, {"lat": 52.30923267175452, "lng": 4.7625577372555465, "name": "Amsterdam Airport Schiphol (AMS)", "type": "Airport", "now": false}, {"lat": 39.899160357131585, "lng": -84.22042429447174, "name": "Dayton International Airport (DAY)", "type": "Airport", "now": false}, {"lat": 42.20819442185789, "lng": -83.35678162246185, "name": "Detroit Metropolitan Wayne County Airport (DTW)", "type": "Airport", "now": false}, {"lat": 52.30923267175452, "lng": 4.7625577372555465, "name": "Amsterdam Airport Schiphol (AMS)", "type": "Airport", "now": false}, {"lat": 52.354361365215375, "lng": 4.899178147315979, "name": "Caf\u00e9 Sarphaat", "type": "Caf\u00e9", "now": false}, {"lat": 51.469407923261336, "lng": -0.46234846115112305, "name": "London Heathrow Airport (LHR)", "type": "Airport", "now": false}, {"lat": 52.30923267175452, "lng": 4.7625577372555465, "name": "Amsterdam Airport Schiphol (AMS)", "type": "Airport", "now": false}, {"lat": 52.363317, "lng": 4.874774, "name": "De Koffie Salon", "type": "Coffee Shop", "now": false}, {"lat": 51.98306223905086, "lng": 5.904732181790947, "name": "Zappa's", "type": "Italian Restaurant", "now": false}, {"lat": 51.98334436464271, "lng": 5.903859123377906, "name": "Hotel Arnhem Centraal", "type": "Hotel Bar", "now": false}, {"lat": 52.37878224866535, "lng": 4.900374412536621, "name": "Amsterdam Central Railway Station (Station Amsterdam Centraal)", "type": "Train Station", "now": false}, {"lat": 52.389597591721106, "lng": 4.836822092513592, "name": "BRET", "type": "Beer Garden", "now": false}, {"lat": 52.37878224866535, "lng": 4.900374412536621, "name": "Amsterdam Central Railway Station (Station Amsterdam Centraal)", "type": "Train Station", "now": false}, {"lat": 52.310630158587166, "lng": 5.036458969116211, "name": "Weesp", "type": "City", "now": false}, {"lat": 52.30809477675751, "lng": 5.043145874117438, "name": "Grieks restaurant Niki", "type": "Greek Restaurant", "now": false}, {"lat": 52.39303628126104, "lng": 4.837201280497649, "name": "RELX", "type": "Office", "now": false}, {"lat": 52.310630158587166, "lng": 5.036458969116211, "name": "Weesp", "type": "City", "now": false}, {"lat": 52.504980233065716, "lng": 6.091332580018552, "name": "Zwolle Railway Station (Station Zwolle)", "type": "Train Station", "now": false}, {"lat": 52.153576994222696, "lng": 5.373310646468697, "name": "Amersfoort Railway Station (Station Amersfoort)", "type": "Train Station", "now": false}, {"lat": 52.310630158587166, "lng": 5.036458969116211, "name": "Weesp", "type": "City", "now": false}, {"lat": 40.7722435782595, "lng": -73.95575441021364, "name": "Uva", "type": "Italian Restaurant", "now": false}, {"lat": 40.77078584567459, "lng": -73.9510590675992, "name": "Salvo's Pizzabar", "type": "Pizza Place", "now": false}, {"lat": 52.3605643449918, "lng": 4.880496370462649, "name": "Kubrickology", "type": "Office", "now": false}, {"lat": 53.0979555766938, "lng": 4.758798254443129, "name": "Grand Hotel Opduin", "type": "Hotel", "now": false}, {"lat": 37.40441187160836, "lng": -121.97567375214359, "name": "Santa Clara Convention Center", "type": "Convention Center", "now": false}, {"lat": 52.35349776449129, "lng": 4.902465220123396, "name": "Spaghetteria", "type": "Italian Restaurant", "now": false}, {"lat": 35.77190522612856, "lng": 140.38687589242883, "name": "Narita International Airport (NRT) (\u6210\u7530\u56fd\u969b\u7a7a\u6e2f)", "type": "Airport", "now": false}, {"lat": 41.909199, "lng": 12.459096, "name": "Hotel Silla", "type": "Hotel", "now": false}, {"lat": 51.507719557012486, "lng": -0.09966519882371298, "name": "Tate Modern", "type": "Art Museum", "now": false}, {"lat": 51.790403, "lng": 0.13233, "name": "Harlow Mill Railway Station (HWM)", "type": "Train Station", "now": false}, {"lat": 52.365283959032816, "lng": 4.885558417939811, "name": "Caf\u00e9 De Klos", "type": "Steakhouse", "now": false}, {"lat": 52.36572102359264, "lng": 4.876341819763184, "name": "Toussaint", "type": "Caf\u00e9", "now": false}, {"lat": 52.36572102359264, "lng": 4.876341819763184, "name": "Toussaint", "type": "Caf\u00e9", "now": false}, {"lat": 52.36572102359264, "lng": 4.876341819763184, "name": "Toussaint", "type": "Caf\u00e9", "now": false}, {"lat": 52.344414, "lng": 4.890473, "name": "Vis aan de Schelde", "type": "Seafood Restaurant", "now": false}, {"lat": 52.36311683217743, "lng": 4.883090257644653, "name": "De Balie", "type": "Caf\u00e9", "now": false}, {"lat": 52.37001781, "lng": 4.893272, "name": "Comedy Theater", "type": "Comedy Club", "now": false}, {"lat": 52.36572102359264, "lng": 4.876341819763184, "name": "Toussaint", "type": "Caf\u00e9", "now": false}, {"lat": 52.36572102359264, "lng": 4.876341819763184, "name": "Toussaint", "type": "Caf\u00e9", "now": false}, {"lat": 52.365283959032816, "lng": 4.885558417939811, "name": "Caf\u00e9 De Klos", "type": "Steakhouse", "now": false}, {"lat": 52.368775, "lng": 4.889142, "name": "Caf\u00e9 Luxembourg", "type": "Caf\u00e9", "now": false}, {"lat": 51.98204590303066, "lng": 5.9152034190847465, "name": "Caf\u00e9 Vrijdag", "type": "Caf\u00e9", "now": false}, {"lat": 52.36479810916446, "lng": 4.881749153137207, "name": "Sugarfactory", "type": "Nightclub", "now": false}, {"lat": 52.38612558829538, "lng": 4.8744123060044915, "name": "North Sea Jazz Club", "type": "Jazz Club", "now": false}, {"lat": 52.366403170086535, "lng": 4.894820402019465, "name": "Path\u00e9 Tuschinski", "type": "Multiplex", "now": false}, {"lat": 52.36547862734887, "lng": 4.892563819885254, "name": "P.King", "type": "Bar", "now": false}, {"lat": 51.98230050778086, "lng": 5.906777681079501, "name": "Bar Florian", "type": "Bar", "now": false}, {"lat": 52.27250973947813, "lng": 8.058302455840424, "name": "Advena Bistro Cafe", "type": "Bar", "now": false}, {"lat": 52.30923267175452, "lng": 4.7625577372555465, "name": "Amsterdam Airport Schiphol (AMS)", "type": "Airport", "now": false}, {"lat": 52.30985405472443, "lng": 4.761218160197415, "name": "Theo Klaassen Drumservice", "type": "Music Store", "now": false}, {"lat": 52.36572102359264, "lng": 4.876341819763184, "name": "Toussaint", "type": "Caf\u00e9", "now": false}, {"lat": 52.362389021805356, "lng": 4.90393976086156, "name": "Koninklijk Theater Carr\u00e9", "type": "Theater", "now": false}, {"lat": 52.372338788573224, "lng": 4.89862310363732, "name": "Bethani\u00ebnklooster", "type": "Concert Hall", "now": false}, {"lat": 52.26817145828311, "lng": 5.532025314649446, "name": "Postillion Hotel Amersfoort Veluwemeer", "type": "Hotel", "now": false}, {"lat": 53.22661893256066, "lng": 6.598663682229057, "name": "Rikkers gitaarbouw", "type": "Music Store", "now": false}, {"lat": 52.35997477942264, "lng": 4.877381174216328, "name": "The Seafood Bar", "type": "Seafood Restaurant", "now": false}, {"lat": 51.98204590303066, "lng": 5.9152034190847465, "name": "Caf\u00e9 Vrijdag", "type": "Caf\u00e9", "now": false}, {"lat": 52.36329487903528, "lng": 4.879533214381348, "name": "People's Place", "type": "Event Space", "now": false}, {"lat": 52.36311683217743, "lng": 4.883090257644653, "name": "De Balie", "type": "Caf\u00e9", "now": false}, {"lat": 52.35997477942264, "lng": 4.877381174216328, "name": "The Seafood Bar", "type": "Seafood Restaurant", "now": false}, {"lat": 52.36572102359264, "lng": 4.876341819763184, "name": "Toussaint", "type": "Caf\u00e9", "now": false}, {"lat": 52.080361579305276, "lng": 4.3184460072101425, "name": "Caff\u00e8 Belmondo", "type": "Coffee Shop", "now": false}, {"lat": 52.368824824272146, "lng": 4.888866852515016, "name": "Hoppe", "type": "Bar", "now": false}, {"lat": 52.39303628126104, "lng": 4.837201280497649, "name": "RELX", "type": "Office", "now": false}, {"lat": 52.38051919611826, "lng": 4.886164544346121, "name": "Duende", "type": "Spanish Restaurant", "now": false}, {"lat": 52.25693190564774, "lng": 5.223698616027832, "name": "Caf\u00e9 't Bonte Paard", "type": "Bar", "now": false}, {"lat": 52.39093650557797, "lng": 4.830464964101317, "name": "Kubrickolo.gy", "type": "Office", "now": false}, {"lat": 52.35997477942264, "lng": 4.877381174216328, "name": "The Seafood Bar", "type": "Seafood Restaurant", "now": false}, {"lat": 52.39303628126104, "lng": 4.837201280497649, "name": "RELX", "type": "Office", "now": false}, {"lat": 52.366403170086535, "lng": 4.894820402019465, "name": "Path\u00e9 Tuschinski", "type": "Multiplex", "now": false}, {"lat": 52.36547862734887, "lng": 4.892563819885254, "name": "P.King", "type": "Bar", "now": false}, {"lat": 52.39303628126104, "lng": 4.837201280497649, "name": "RELX", "type": "Office", "now": false}, {"lat": 52.35997477942264, "lng": 4.877381174216328, "name": "The Seafood Bar", "type": "Seafood Restaurant", "now": false}, {"lat": 52.36572102359264, "lng": 4.876341819763184, "name": "Toussaint", "type": "Caf\u00e9", "now": false}, {"lat": 52.29827052715252, "lng": 5.027661323547363, "name": "Spa Wellness", "type": "Water Park", "now": false}, {"lat": 52.08994469336466, "lng": 5.116977834176556, "name": "Stairway", "type": "Restaurant", "now": false}, {"lat": 52.39303628126104, "lng": 4.837201280497649, "name": "RELX", "type": "Office", "now": false}, {"lat": 52.35997477942264, "lng": 4.877381174216328, "name": "The Seafood Bar", "type": "Seafood Restaurant", "now": false}, {"lat": 52.39303628126104, "lng": 4.837201280497649, "name": "RELX", "type": "Office", "now": false}, {"lat": 52.39093650557797, "lng": 4.830464964101317, "name": "Kubrickolo.gy", "type": "Office", "now": false}, {"lat": 52.39093650557797, "lng": 4.830464964101317, "name": "Kubrickolo.gy", "type": "Office", "now": false}, {"lat": 52.38251518892232, "lng": 4.8940229415893555, "name": "Kamer Van Koophandel", "type": "Government Building", "now": false}, {"lat": 52.36572102359264, "lng": 4.876341819763184, "name": "Toussaint", "type": "Caf\u00e9", "now": false}, {"lat": 52.37210069702588, "lng": 4.902357738264245, "name": "Eetcaf\u00e9 Van Beeren", "type": "Gastropub", "now": false}, {"lat": 52.36896703972043, "lng": 4.889495372772216, "name": "The American Book Center", "type": "Bookstore", "now": false}, {"lat": 52.36572102359264, "lng": 4.876341819763184, "name": "Toussaint", "type": "Caf\u00e9", "now": false}, {"lat": 52.381323, "lng": 4.891156, "name": "Fit For Free", "type": "Gym / Fitness Center", "now": false}, {"lat": 52.366403170086535, "lng": 4.894820402019465, "name": "Path\u00e9 Tuschinski", "type": "Multiplex", "now": false}, {"lat": 52.3660492867161, "lng": 4.89748556343617, "name": "Starbucks", "type": "Coffee Shop", "now": false}, {"lat": 52.36572102359264, "lng": 4.876341819763184, "name": "Toussaint", "type": "Caf\u00e9", "now": false}, {"lat": 52.39303628126104, "lng": 4.837201280497649, "name": "RELX", "type": "Office", "now": false}, {"lat": 52.37020140044718, "lng": 4.897781077788455, "name": "Compagnietheater", "type": "Theater", "now": false}, {"lat": 52.356151185800115, "lng": 4.8794529897790975, "name": "Het Concertgebouw", "type": "Concert Hall", "now": false}, {"lat": 52.3561997940526, "lng": 4.880129843307251, "name": "Solo Eten & Drinken", "type": "Mediterranean Restaurant", "now": false}, {"lat": 52.39303628126104, "lng": 4.837201280497649, "name": "RELX", "type": "Office", "now": false}, {"lat": 52.37391574432005, "lng": 4.898456595452706, "name": "Cafe Pleinzicht", "type": "Pub", "now": false}, {"lat": 52.37349682734866, "lng": 4.9001596361510975, "name": "Dijk 120", "type": "Dive Bar", "now": false}, {"lat": 52.36670697298532, "lng": 4.894028306007385, "name": "Gauchos", "type": "Steakhouse", "now": false}, {"lat": 52.368824824272146, "lng": 4.888866852515016, "name": "Hoppe", "type": "Bar", "now": false}, {"lat": 52.368775, "lng": 4.889142, "name": "Caf\u00e9 Luxembourg", "type": "Caf\u00e9", "now": false}, {"lat": 52.33693864261881, "lng": 4.8720502853393555, "name": "Amsterdam EXPO", "type": "Art Museum", "now": false}, {"lat": 52.33750345633959, "lng": 4.870025764727189, "name": "B&B", "type": "Restaurant", "now": false}, {"lat": 52.39303628126104, "lng": 4.837201280497649, "name": "RELX", "type": "Office", "now": false}, {"lat": 52.36572102359264, "lng": 4.876341819763184, "name": "Toussaint", "type": "Caf\u00e9", "now": false}, {"lat": 52.33755, "lng": 4.935832, "name": "Earforce", "type": "Recording Studio", "now": false}, {"lat": 52.39303628126104, "lng": 4.837201280497649, "name": "RELX", "type": "Office", "now": false}, {"lat": 52.39303628126104, "lng": 4.837201280497649, "name": "RELX", "type": "Office", "now": false}, {"lat": 52.381323, "lng": 4.891156, "name": "Fit For Free", "type": "Gym / Fitness Center", "now": false}, {"lat": 52.37968604210279, "lng": 4.8935723304748535, "name": "Cr\u00eaperie Le Berger", "type": "Creperie", "now": false}, {"lat": 52.38156168226328, "lng": 4.886129396206873, "name": "Espressobar Tazzina", "type": "Coffee Shop", "now": false}, {"lat": 52.36572102359264, "lng": 4.876341819763184, "name": "Toussaint", "type": "Caf\u00e9", "now": false}, {"lat": 52.381323, "lng": 4.891156, "name": "Fit For Free", "type": "Gym / Fitness Center", "now": false}, {"lat": 52.33755, "lng": 4.935832, "name": "Earforce", "type": "Recording Studio", "now": false}, {"lat": 51.98287909861344, "lng": 5.909174276468052, "name": "Babo Caf\u00e9", "type": "Caf\u00e9", "now": false}, {"lat": 51.979587014391136, "lng": 5.907118685942359, "name": "Graave Eten & Drinken", "type": "Restaurant", "now": false}, {"lat": 52.381323, "lng": 4.891156, "name": "Fit For Free", "type": "Gym / Fitness Center", "now": false}, {"lat": 52.39303628126104, "lng": 4.837201280497649, "name": "RELX", "type": "Office", "now": false}, {"lat": 52.381323, "lng": 4.891156, "name": "Fit For Free", "type": "Gym / Fitness Center", "now": false}, {"lat": 52.381323, "lng": 4.891156, "name": "Fit For Free", "type": "Gym / Fitness Center", "now": false}, {"lat": 52.39093650557797, "lng": 4.830464964101317, "name": "Kubrickolo.gy", "type": "Office", "now": false}, {"lat": 52.381323, "lng": 4.891156, "name": "Fit For Free", "type": "Gym / Fitness Center", "now": false}, {"lat": 52.381323, "lng": 4.891156, "name": "Fit For Free", "type": "Gym / Fitness Center", "now": false}, {"lat": 52.39303628126104, "lng": 4.837201280497649, "name": "RELX", "type": "Office", "now": false}, {"lat": 52.29827052715252, "lng": 5.027661323547363, "name": "Spa Wellness", "type": "Water Park", "now": false}, {"lat": 52.39303628126104, "lng": 4.837201280497649, "name": "RELX", "type": "Office", "now": false}, {"lat": 52.375186, "lng": 4.871015, "name": "Cafe 020", "type": "Bar", "now": false}, {"lat": 52.401495, "lng": 4.891021, "name": "Restaurant caf\u00e9 de IJ-kantine", "type": "Restaurant", "now": false}, {"lat": 52.38156168226328, "lng": 4.886129396206873, "name": "Espressobar Tazzina", "type": "Coffee Shop", "now": false}, {"lat": 52.36572102359264, "lng": 4.876341819763184, "name": "Toussaint", "type": "Caf\u00e9", "now": false}, {"lat": 51.984381266217916, "lng": 5.9120312333106995, "name": "Path\u00e9 Rembrandt Arnhem", "type": "Movie Theater", "now": false}, {"lat": 51.98230050778086, "lng": 5.906777681079501, "name": "Bar Florian", "type": "Bar", "now": false}, {"lat": 52.38156168226328, "lng": 4.886129396206873, "name": "Espressobar Tazzina", "type": "Coffee Shop", "now": false}, {"lat": 52.36572102359264, "lng": 4.876341819763184, "name": "Toussaint", "type": "Caf\u00e9", "now": false}, {"lat": 52.193148539617674, "lng": 5.152907255548942, "name": "Hilversum Airport (Vliegveld Hilversum)", "type": "Airport", "now": false}, {"lat": 53.44855094529289, "lng": 5.686102758128594, "name": "Ameland Airport Ballum", "type": "Airport", "now": false}, {"lat": 53.44367148137013, "lng": 5.687318196080954, "name": "Caf\u00e9 Nobel", "type": "Bar", "now": false}, {"lat": 52.193148539617674, "lng": 5.152907255548942, "name": "Hilversum Airport (Vliegveld Hilversum)", "type": "Airport", "now": false}, {"lat": 52.39093650557797, "lng": 4.830464964101317, "name": "Kubrickolo.gy", "type": "Office", "now": false}, {"lat": 52.12076281382748, "lng": 5.0381433963775635, "name": "Carlton President Hotel Utrecht", "type": "Hotel", "now": false}, {"lat": 52.129195, "lng": 5.088132, "name": "Koop Bronbemaling", "type": "Factory", "now": false}, {"lat": 52.36572102359264, "lng": 4.876341819763184, "name": "Toussaint", "type": "Caf\u00e9", "now": false}, {"lat": 52.35349776449129, "lng": 4.902465220123396, "name": "Spaghetteria", "type": "Italian Restaurant", "now": false}, {"lat": 52.36572102359264, "lng": 4.876341819763184, "name": "Toussaint", "type": "Caf\u00e9", "now": false}, {"lat": 52.09275451032142, "lng": 5.116911761774721, "name": "Stadskasteel Oudaen", "type": "Castle", "now": false}, {"lat": 52.129195, "lng": 5.088132, "name": "Koop Bronbemaling", "type": "Factory", "now": false}, {"lat": 52.36896703972043, "lng": 4.889495372772216, "name": "The American Book Center", "type": "Bookstore", "now": false}, {"lat": 52.3774592940137, "lng": 4.988672868032491, "name": "De Oude Taveerne", "type": "Restaurant", "now": false}, {"lat": 52.36572102359264, "lng": 4.876341819763184, "name": "Toussaint", "type": "Caf\u00e9", "now": false}, {"lat": 52.366403170086535, "lng": 4.894820402019465, "name": "Path\u00e9 Tuschinski", "type": "Multiplex", "now": false}, {"lat": 52.39093650557797, "lng": 4.830464964101317, "name": "Kubrickolo.gy", "type": "Office", "now": false}, {"lat": 52.39093650557797, "lng": 4.830464964101317, "name": "Kubrickolo.gy", "type": "Office", "now": false}, {"lat": 52.36572102359264, "lng": 4.876341819763184, "name": "Toussaint", "type": "Caf\u00e9", "now": false}, {"lat": 52.39303628126104, "lng": 4.837201280497649, "name": "RELX", "type": "Office", "now": false}, {"lat": 52.36572102359264, "lng": 4.876341819763184, "name": "Toussaint", "type": "Caf\u00e9", "now": false}, {"lat": 52.39303628126104, "lng": 4.837201280497649, "name": "RELX", "type": "Office", "now": false}, {"lat": 51.987205815370785, "lng": 5.933415494934803, "name": "Fit For Free Arnhem", "type": "Gym", "now": false}, {"lat": 52.36572102359264, "lng": 4.876341819763184, "name": "Toussaint", "type": "Caf\u00e9", "now": false}, {"lat": 52.51047721502893, "lng": 6.091852549607971, "name": "Theater Odeon", "type": "Theater", "now": false}, {"lat": 52.39093650557797, "lng": 4.830464964101317, "name": "Kubrickolo.gy", "type": "Office", "now": false}, {"lat": 52.27333740063165, "lng": 5.159035921096802, "name": "El Verano", "type": "Italian Restaurant", "now": false}, {"lat": 52.36572102359264, "lng": 4.876341819763184, "name": "Toussaint", "type": "Caf\u00e9", "now": false}, {"lat": 52.39093650557797, "lng": 4.830464964101317, "name": "Kubrickolo.gy", "type": "Office", "now": false}, {"lat": 52.39303628126104, "lng": 4.837201280497649, "name": "RELX", "type": "Office", "now": false}, {"lat": 52.39303628126104, "lng": 4.837201280497649, "name": "RELX", "type": "Office", "now": false}, {"lat": 52.39303628126104, "lng": 4.837201280497649, "name": "RELX", "type": "Office", "now": false}, {"lat": 52.337429, "lng": 4.936267, "name": "Cinetone", "type": "Diner", "now": false}, {"lat": 52.33755, "lng": 4.935832, "name": "Earforce", "type": "Recording Studio", "now": false}, {"lat": 51.980858076581704, "lng": 5.904175517874297, "name": "MoBa", "type": "Art Gallery", "now": false}, {"lat": 52.37210069702588, "lng": 4.902357738264245, "name": "Eetcaf\u00e9 Van Beeren", "type": "Gastropub", "now": false}, {"lat": 52.39303628126104, "lng": 4.837201280497649, "name": "RELX", "type": "Office", "now": false}, {"lat": 52.3513582953187, "lng": 5.619723356507592, "name": "Vischmarkt", "type": "Plaza", "now": false}, {"lat": 52.090124, "lng": 5.116853, "name": "Smith & Jones Poolcentrum", "type": "Pool Hall", "now": false}, {"lat": 52.02805697688054, "lng": 5.173876197182411, "name": "Racketcentrum Houten", "type": "General Entertainment", "now": false}, {"lat": 52.02704358430311, "lng": 5.16236605799776, "name": "Tapperij de Zwijger", "type": "Pub", "now": false}, {"lat": 51.98230050778086, "lng": 5.906777681079501, "name": "Bar Florian", "type": "Bar", "now": false}, {"lat": 52.39303628126104, "lng": 4.837201280497649, "name": "RELX", "type": "Office", "now": false}, {"lat": 52.39303628126104, "lng": 4.837201280497649, "name": "RELX", "type": "Office", "now": false}, {"lat": 52.02805697688054, "lng": 5.173876197182411, "name": "Racketcentrum Houten", "type": "General Entertainment", "now": false}, {"lat": 52.33755, "lng": 4.935832, "name": "Earforce", "type": "Recording Studio", "now": false}, {"lat": 52.399570226754, "lng": 4.8966890483948715, "name": "Noorderlicht", "type": "Caf\u00e9", "now": false}, {"lat": 52.364862, "lng": 4.874088, "name": "Pastis", "type": "French Restaurant", "now": false}, {"lat": 52.356151185800115, "lng": 4.8794529897790975, "name": "Het Concertgebouw", "type": "Concert Hall", "now": false}, {"lat": 52.36572102359264, "lng": 4.876341819763184, "name": "Toussaint", "type": "Caf\u00e9", "now": false}, {"lat": 52.39093650557797, "lng": 4.830464964101317, "name": "Kubrickolo.gy", "type": "Office", "now": false}, {"lat": 52.092068326987, "lng": 5.116218477487564, "name": "Straks", "type": "Restaurant", "now": false}, {"lat": 52.39093650557797, "lng": 4.830464964101317, "name": "Kubrickolo.gy", "type": "Office", "now": false}, {"lat": 52.36572102359264, "lng": 4.876341819763184, "name": "Toussaint", "type": "Caf\u00e9", "now": false}, {"lat": 51.98287909861344, "lng": 5.909174276468052, "name": "Babo Caf\u00e9", "type": "Caf\u00e9", "now": false}, {"lat": 51.98248564488, "lng": 5.904500042418391, "name": "Freaky Pianobar", "type": "Piano Bar", "now": false}, {"lat": 51.98227350171531, "lng": 5.906688565927889, "name": "Arneym Lunch & Bites", "type": "Sandwich Place", "now": false}, {"lat": 52.39093650557797, "lng": 4.830464964101317, "name": "Kubrickolo.gy", "type": "Office", "now": false}, {"lat": 52.39303628126104, "lng": 4.837201280497649, "name": "RELX", "type": "Office", "now": false}, {"lat": 52.39093650557797, "lng": 4.830464964101317, "name": "Kubrickolo.gy", "type": "Office", "now": false}, {"lat": 52.39303628126104, "lng": 4.837201280497649, "name": "RELX", "type": "Office", "now": false}, {"lat": 52.36572102359264, "lng": 4.876341819763184, "name": "Toussaint", "type": "Caf\u00e9", "now": false}, {"lat": 52.36648118187473, "lng": 4.893660533510497, "name": "Path\u00e9", "type": "Multiplex", "now": false}, {"lat": 52.514067635174676, "lng": 6.095811125275468, "name": "Artez", "type": "College Arts Building", "now": false}, {"lat": 52.35349776449129, "lng": 4.902465220123396, "name": "Spaghetteria", "type": "Italian Restaurant", "now": false}, {"lat": 52.39093650557797, "lng": 4.830464964101317, "name": "Kubrickolo.gy", "type": "Office", "now": false}, {"lat": 52.381323, "lng": 4.891156, "name": "Fit For Free", "type": "Gym / Fitness Center", "now": false}, {"lat": 52.382521, "lng": 4.857742, "name": "Terra Preta Multimedia Studio", "type": "Design Studio", "now": false}, {"lat": 52.39093650557797, "lng": 4.830464964101317, "name": "Kubrickolo.gy", "type": "Office", "now": false}, {"lat": 52.35349776449129, "lng": 4.902465220123396, "name": "Spaghetteria", "type": "Italian Restaurant", "now": false}, {"lat": 52.382521, "lng": 4.857742, "name": "Terra Preta Multimedia Studio", "type": "Design Studio", "now": false}, {"lat": 52.389080498532294, "lng": 4.83766379804228, "name": "Starbucks", "type": "Coffee Shop", "now": false}, {"lat": 52.37210069702588, "lng": 4.902357738264245, "name": "Eetcaf\u00e9 Van Beeren", "type": "Gastropub", "now": false}, {"lat": 52.374531662802255, "lng": 4.872830208345636, "name": "Razmataz", "type": "French Restaurant", "now": false}, {"lat": 52.36572102359264, "lng": 4.876341819763184, "name": "Toussaint", "type": "Caf\u00e9", "now": false}, {"lat": 52.39093650557797, "lng": 4.830464964101317, "name": "Kubrickolo.gy", "type": "Office", "now": false}, {"lat": 52.384122836878994, "lng": 4.901005240759131, "name": "EYE", "type": "Museum", "now": false}, {"lat": 52.36572102359264, "lng": 4.876341819763184, "name": "Toussaint", "type": "Caf\u00e9", "now": false}, {"lat": 52.39093650557797, "lng": 4.830464964101317, "name": "Kubrickolo.gy", "type": "Office", "now": false}, {"lat": 52.36572102359264, "lng": 4.876341819763184, "name": "Toussaint", "type": "Caf\u00e9", "now": false}, {"lat": 52.39093650557797, "lng": 4.830464964101317, "name": "Kubrickolo.gy", "type": "Office", "now": false}, {"lat": 52.29827052715252, "lng": 5.027661323547363, "name": "Spa Wellness", "type": "Water Park", "now": false}, {"lat": 52.55754055114569, "lng": 4.606487970150741, "name": "Zoomers", "type": "Beach", "now": false}, {"lat": 52.55740465722111, "lng": 4.606658844662898, "name": "Strand Castricum", "type": "Beach", "now": false}, {"lat": 52.39093650557797, "lng": 4.830464964101317, "name": "Kubrickolo.gy", "type": "Office", "now": false}, {"lat": 52.36572102359264, "lng": 4.876341819763184, "name": "Toussaint", "type": "Caf\u00e9", "now": false}, {"lat": 52.39093650557797, "lng": 4.830464964101317, "name": "Kubrickolo.gy", "type": "Office", "now": false}, {"lat": 52.362817010861974, "lng": 4.885097573264141, "name": "Whisky Caf\u00e9 L&B", "type": "Whisky Bar", "now": false}, {"lat": 52.36349242651208, "lng": 4.884371300142634, "name": "Jazz Caf\u00e9 Alto", "type": "Jazz Club", "now": false}, {"lat": 52.368824824272146, "lng": 4.888866852515016, "name": "Hoppe", "type": "Bar", "now": false}, {"lat": 52.34544416812631, "lng": 4.809552856907437, "name": "Squashcentrum Match", "type": "Gym / Fitness Center", "now": false}, {"lat": 52.36572102359264, "lng": 4.876341819763184, "name": "Toussaint", "type": "Caf\u00e9", "now": false}, {"lat": 52.39093650557797, "lng": 4.830464964101317, "name": "Kubrickolo.gy", "type": "Office", "now": false}, {"lat": 52.39093650557797, "lng": 4.830464964101317, "name": "Kubrickolo.gy", "type": "Office", "now": false}, {"lat": 52.36572102359264, "lng": 4.876341819763184, "name": "Toussaint", "type": "Caf\u00e9", "now": false}, {"lat": 52.39093650557797, "lng": 4.830464964101317, "name": "Kubrickolo.gy", "type": "Office", "now": false}, {"lat": 52.382521, "lng": 4.857742, "name": "Terra Preta Multimedia Studio", "type": "Design Studio", "now": false}, {"lat": 52.39093650557797, "lng": 4.830464964101317, "name": "Kubrickolo.gy", "type": "Office", "now": false}, {"lat": 52.368775, "lng": 4.889142, "name": "Caf\u00e9 Luxembourg", "type": "Caf\u00e9", "now": false}, {"lat": 52.368852511633456, "lng": 4.889081321504096, "name": "Athenaeum Boekhandel", "type": "Bookstore", "now": false}, {"lat": 52.36572102359264, "lng": 4.876341819763184, "name": "Toussaint", "type": "Caf\u00e9", "now": false}, {"lat": 52.39093650557797, "lng": 4.830464964101317, "name": "Kubrickolo.gy", "type": "Office", "now": false}, {"lat": 52.36572102359264, "lng": 4.876341819763184, "name": "Toussaint", "type": "Caf\u00e9", "now": false}, {"lat": 52.39093650557797, "lng": 4.830464964101317, "name": "Kubrickolo.gy", "type": "Office", "now": false}, {"lat": 52.39093650557797, "lng": 4.830464964101317, "name": "Kubrickolo.gy", "type": "Office", "now": false}, {"lat": 52.36787663174073, "lng": 4.8909186831423215, "name": "Vlaams Friteshuis Vleminckx", "type": "Friterie", "now": false}, {"lat": 52.368852511633456, "lng": 4.889081321504096, "name": "Athenaeum Boekhandel", "type": "Bookstore", "now": false}, {"lat": 52.368824824272146, "lng": 4.888866852515016, "name": "Hoppe", "type": "Bar", "now": false}, {"lat": 52.36572102359264, "lng": 4.876341819763184, "name": "Toussaint", "type": "Caf\u00e9", "now": false}, {"lat": 52.39093650557797, "lng": 4.830464964101317, "name": "Kubrickolo.gy", "type": "Office", "now": false}, {"lat": 52.382521, "lng": 4.857742, "name": "Terra Preta Multimedia Studio", "type": "Design Studio", "now": false}, {"lat": 52.39093650557797, "lng": 4.830464964101317, "name": "Kubrickolo.gy", "type": "Office", "now": false}, {"lat": 52.39093650557797, "lng": 4.830464964101317, "name": "Kubrickolo.gy", "type": "Office", "now": false}, {"lat": 52.368824824272146, "lng": 4.888866852515016, "name": "Hoppe", "type": "Bar", "now": false}, {"lat": 52.39093650557797, "lng": 4.830464964101317, "name": "Kubrickolo.gy", "type": "Office", "now": false}, {"lat": 52.39093650557797, "lng": 4.830464964101317, "name": "Kubrickolo.gy", "type": "Office", "now": false}, {"lat": 52.39093650557797, "lng": 4.830464964101317, "name": "Kubrickolo.gy", "type": "Office", "now": false}, {"lat": 52.39093650557797, "lng": 4.830464964101317, "name": "Kubrickolo.gy", "type": "Office", "now": false}, {"lat": 52.382521, "lng": 4.857742, "name": "Terra Preta Multimedia Studio", "type": "Design Studio", "now": false}, {"lat": 52.39093650557797, "lng": 4.830464964101317, "name": "Kubrickolo.gy", "type": "Office", "now": false}, {"lat": 52.39093650557797, "lng": 4.830464964101317, "name": "Kubrickolo.gy", "type": "Office", "now": false}, {"lat": 52.399570226754, "lng": 4.8966890483948715, "name": "Noorderlicht", "type": "Caf\u00e9", "now": false}, {"lat": 52.111184428041916, "lng": 5.111520232117907, "name": "Das Spectrum", "type": "Art Gallery", "now": false}, {"lat": 52.34544416812631, "lng": 4.809552856907437, "name": "Squashcentrum Match", "type": "Gym / Fitness Center", "now": false}, {"lat": 52.39093650557797, "lng": 4.830464964101317, "name": "Kubrickolo.gy", "type": "Office", "now": false}, {"lat": 52.381323, "lng": 4.891156, "name": "Fit For Free", "type": "Gym / Fitness Center", "now": false}, {"lat": 52.39093650557797, "lng": 4.830464964101317, "name": "Kubrickolo.gy", "type": "Office", "now": false}, {"lat": 52.366403170086535, "lng": 4.894820402019465, "name": "Path\u00e9 Tuschinski", "type": "Multiplex", "now": false}, {"lat": 52.36572102359264, "lng": 4.876341819763184, "name": "Toussaint", "type": "Caf\u00e9", "now": false}, {"lat": 52.382521, "lng": 4.857742, "name": "Terra Preta Multimedia Studio", "type": "Design Studio", "now": false}, {"lat": 52.39093650557797, "lng": 4.830464964101317, "name": "Kubrickolo.gy", "type": "Office", "now": false}, {"lat": 52.36572102359264, "lng": 4.876341819763184, "name": "Toussaint", "type": "Caf\u00e9", "now": false}, {"lat": 52.089120858499975, "lng": 5.121092032661903, "name": "Caf\u00e9 de Postillon", "type": "Pub", "now": false}, {"lat": 52.09053031127685, "lng": 5.109741222004852, "name": "NS Stations", "type": "Office", "now": false}, {"lat": 52.39093650557797, "lng": 4.830464964101317, "name": "Kubrickolo.gy", "type": "Office", "now": false}, {"lat": 52.30923267175452, "lng": 4.7625577372555465, "name": "Amsterdam Airport Schiphol (AMS)", "type": "Airport", "now": false}, {"lat": 52.39093650557797, "lng": 4.830464964101317, "name": "Kubrickolo.gy", "type": "Office", "now": false}, {"lat": 52.39093650557797, "lng": 4.830464964101317, "name": "Kubrickolo.gy", "type": "Office", "now": false}, {"lat": 52.37210069702588, "lng": 4.902357738264245, "name": "Eetcaf\u00e9 Van Beeren", "type": "Gastropub", "now": false}, {"lat": 52.39093650557797, "lng": 4.830464964101317, "name": "Kubrickolo.gy", "type": "Office", "now": false}, {"lat": 51.98204590303066, "lng": 5.9152034190847465, "name": "Caf\u00e9 Vrijdag", "type": "Caf\u00e9", "now": false}, {"lat": 52.39093650557797, "lng": 4.830464964101317, "name": "Kubrickolo.gy", "type": "Office", "now": false}, {"lat": 52.381323, "lng": 4.891156, "name": "Fit For Free", "type": "Gym / Fitness Center", "now": false}, {"lat": 52.39093650557797, "lng": 4.830464964101317, "name": "Kubrickolo.gy", "type": "Office", "now": false}, {"lat": 52.382521, "lng": 4.857742, "name": "Terra Preta Multimedia Studio", "type": "Design Studio", "now": false}, {"lat": 52.39093650557797, "lng": 4.830464964101317, "name": "Kubrickolo.gy", "type": "Office", "now": false}, {"lat": 52.399570226754, "lng": 4.8966890483948715, "name": "Noorderlicht", "type": "Caf\u00e9", "now": false}, {"lat": 52.39093650557797, "lng": 4.830464964101317, "name": "Kubrickolo.gy", "type": "Office", "now": false}, {"lat": 52.39093650557797, "lng": 4.830464964101317, "name": "Kubrickolo.gy", "type": "Office", "now": false}, {"lat": 52.39093650557797, "lng": 4.830464964101317, "name": "Kubrickolo.gy", "type": "Office", "now": false}, {"lat": 52.381323, "lng": 4.891156, "name": "Fit For Free", "type": "Gym / Fitness Center", "now": false}, {"lat": 52.39093650557797, "lng": 4.830464964101317, "name": "Kubrickolo.gy", "type": "Office", "now": false}, {"lat": 52.36572102359264, "lng": 4.876341819763184, "name": "Toussaint", "type": "Caf\u00e9", "now": false}, {"lat": 52.382521, "lng": 4.857742, "name": "Terra Preta Multimedia Studio", "type": "Design Studio", "now": false}, {"lat": 52.34544416812631, "lng": 4.809552856907437, "name": "Squashcentrum Match", "type": "Gym / Fitness Center", "now": false}, {"lat": 52.39093650557797, "lng": 4.830464964101317, "name": "Kubrickolo.gy", "type": "Office", "now": false}, {"lat": 52.39093650557797, "lng": 4.830464964101317, "name": "Kubrickolo.gy", "type": "Office", "now": false}, {"lat": 52.39093650557797, "lng": 4.830464964101317, "name": "Kubrickolo.gy", "type": "Office", "now": false}, {"lat": 48.864206594101105, "lng": 2.3500388860702515, "name": "Les T\u00eates Br\u00fbl\u00e9es", "type": "Coffee Shop", "now": false}, {"lat": 48.866775611250205, "lng": 2.3535633087158203, "name": "La Ga\u00eet\u00e9 Lyrique", "type": "Concert Hall", "now": false}, {"lat": 48.86710025787718, "lng": 2.353348731994629, "name": "Bistrot de la Gait\u00e9", "type": "Bistro", "now": false}, {"lat": 48.865447411624466, "lng": 2.352915032199677, "name": "H\u00f4tel de Roubaix", "type": "Hotel", "now": false}, {"lat": 52.39093650557797, "lng": 4.830464964101317, "name": "Kubrickolo.gy", "type": "Office", "now": false}, {"lat": 52.39093650557797, "lng": 4.830464964101317, "name": "Kubrickolo.gy", "type": "Office", "now": false}, {"lat": 52.33755, "lng": 4.935832, "name": "Earforce", "type": "Recording Studio", "now": false}, {"lat": 52.39093650557797, "lng": 4.830464964101317, "name": "Kubrickolo.gy", "type": "Office", "now": false}, {"lat": 52.381323, "lng": 4.891156, "name": "Fit For Free", "type": "Gym / Fitness Center", "now": false}, {"lat": 52.382521, "lng": 4.857742, "name": "Terra Preta Multimedia Studio", "type": "Design Studio", "now": false}, {"lat": 52.39093650557797, "lng": 4.830464964101317, "name": "Kubrickolo.gy", "type": "Office", "now": false}, {"lat": 52.36572102359264, "lng": 4.876341819763184, "name": "Toussaint", "type": "Caf\u00e9", "now": false}, {"lat": 52.29827052715252, "lng": 5.027661323547363, "name": "Spa Wellness", "type": "Water Park", "now": false}, {"lat": 52.39093650557797, "lng": 4.830464964101317, "name": "Kubrickolo.gy", "type": "Office", "now": false}, {"lat": 49.31824421292565, "lng": 8.42458041518783, "name": "Stadthalle Speyer", "type": "General Entertainment", "now": false}, {"lat": 49.31756930688871, "lng": 8.438272476196289, "name": "Speyer", "type": "Town", "now": false}, {"lat": 48.205407907556, "lng": 15.623007756729677, "name": "Cinema Paradiso", "type": "Indie Movie Theater", "now": false}, {"lat": 48.20248, "lng": 15.625345985714288, "name": "Hotel Metropol", "type": "Hotel", "now": false}, {"lat": 49.999296829135986, "lng": 8.258091895158243, "name": "InterCityHotel Mainz", "type": "Hotel", "now": false}, {"lat": 51.95179869705182, "lng": 7.643538545512308, "name": "Hot Jazz Club", "type": "Jazz Club", "now": false}, {"lat": 52.01928393915481, "lng": 7.206348256605179, "name": "Rosendahl", "type": "Town", "now": false}, {"lat": 51.322543001183135, "lng": 9.506351294587903, "name": "Universit\u00e4t Kassel", "type": "University", "now": false}, {"lat": 51.31662198799767, "lng": 9.459918483726456, "name": "H4 Hotel Kassel", "type": "Hotel", "now": false}, {"lat": 49.665269266586265, "lng": 8.016133244053206, "name": "Hotel Braun", "type": "Hotel", "now": false}, {"lat": 52.01928393915481, "lng": 7.206348256605179, "name": "Rosendahl", "type": "Town", "now": false}, {"lat": 52.01928393915481, "lng": 7.206348256605179, "name": "Rosendahl", "type": "Town", "now": false}, {"lat": 52.25210292704504, "lng": 6.156761852045855, "name": "Restaurant Jackies", "type": "American Restaurant", "now": false}, {"lat": 52.463630219977524, "lng": 4.80970046767981, "name": "Albert Heijn", "type": "Supermarket", "now": false}, {"lat": 52.36572102359264, "lng": 4.876341819763184, "name": "Toussaint", "type": "Caf\u00e9", "now": false}, {"lat": 52.363551, "lng": 4.882461, "name": "Apple Store", "type": "Electronics Store", "now": false}, {"lat": 52.39093650557797, "lng": 4.830464964101317, "name": "Kubrickolo.gy", "type": "Office", "now": false}, {"lat": 52.36835454030276, "lng": 4.896572381258011, "name": "Caf\u00e9 De Doelen", "type": "Bar", "now": false}, {"lat": 52.367063, "lng": 4.895987, "name": "De Kleine Komedie", "type": "Theater", "now": false}, {"lat": 52.384122836878994, "lng": 4.901005240759131, "name": "EYE", "type": "Museum", "now": false}, {"lat": 52.365463961290274, "lng": 4.902853100025056, "name": "Hermitage Amsterdam", "type": "Art Museum", "now": false}, {"lat": 52.382521, "lng": 4.857742, "name": "Terra Preta Multimedia Studio", "type": "Design Studio", "now": false}, {"lat": 52.37461906118459, "lng": 4.889687020629518, "name": "Caf\u00e9 Van Zuylen", "type": "Caf\u00e9", "now": false}, {"lat": 52.399570226754, "lng": 4.8966890483948715, "name": "Noorderlicht", "type": "Caf\u00e9", "now": false}, {"lat": 52.39093650557797, "lng": 4.830464964101317, "name": "Kubrickolo.gy", "type": "Office", "now": false}, {"lat": 52.382521, "lng": 4.857742, "name": "Terra Preta Multimedia Studio", "type": "Design Studio", "now": false}, {"lat": 52.36572102359264, "lng": 4.876341819763184, "name": "Toussaint", "type": "Caf\u00e9", "now": false}, {"lat": 52.39093650557797, "lng": 4.830464964101317, "name": "Kubrickolo.gy", "type": "Office", "now": false}, {"lat": 52.39093650557797, "lng": 4.830464964101317, "name": "Kubrickolo.gy", "type": "Office", "now": false}, {"lat": 52.399570226754, "lng": 4.8966890483948715, "name": "Noorderlicht", "type": "Caf\u00e9", "now": false}, {"lat": 52.39093650557797, "lng": 4.830464964101317, "name": "Kubrickolo.gy", "type": "Office", "now": false}, {"lat": 52.39093650557797, "lng": 4.830464964101317, "name": "Kubrickolo.gy", "type": "Office", "now": false}, {"lat": 52.39093650557797, "lng": 4.830464964101317, "name": "Kubrickolo.gy", "type": "Office", "now": false}, {"lat": 55.68848399318558, "lng": 12.578197717666626, "name": "Statens Museum for Kunst - SMK", "type": "Art Museum", "now": false}, {"lat": 55.67886687253232, "lng": 12.57982313632965, "name": "Cafe Norden", "type": "Caf\u00e9", "now": false}, {"lat": 52.382521, "lng": 4.857742, "name": "Terra Preta Multimedia Studio", "type": "Design Studio", "now": false}, {"lat": 52.384122836878994, "lng": 4.901005240759131, "name": "EYE", "type": "Museum", "now": false}, {"lat": 52.382521, "lng": 4.857742, "name": "Terra Preta Multimedia Studio", "type": "Design Studio", "now": false}, {"lat": 52.25621416576005, "lng": 5.225149597463314, "name": "Bodega-Bodega", "type": "Tapas Restaurant", "now": false}, {"lat": 52.25693190564774, "lng": 5.223698616027832, "name": "Caf\u00e9 't Bonte Paard", "type": "Bar", "now": false}, {"lat": 51.21999839716136, "lng": 4.399359833489032, "name": "'t Hofke", "type": "French Restaurant", "now": false}, {"lat": 51.197823395797535, "lng": 4.393988549118464, "name": "Cafe De Singel", "type": "Caf\u00e9", "now": false}, {"lat": 51.22564836683305, "lng": 4.406642407667383, "name": "Zeemanshuis Hotel", "type": "Hotel", "now": false}, {"lat": 51.21785860359396, "lng": 4.420715367597144, "name": "Amnesia", "type": "Strip Club", "now": false}, {"lat": 51.21765295812299, "lng": 4.418356324619787, "name": "Kelly's Irish Pub", "type": "Irish Pub", "now": false}, {"lat": 51.22086850253511, "lng": 4.3993089707106545, "name": "Ultimatum", "type": "Gastropub", "now": false}, {"lat": 51.220673124093594, "lng": 4.402365613553338, "name": "Grote Gans", "type": "Restaurant", "now": false}, {"lat": 51.21618610985961, "lng": 4.420931129469446, "name": "Antwerp-Central Railway Station (Station Antwerpen-Centraal)", "type": "Train Station", "now": false}, {"lat": 52.37878224866535, "lng": 4.900374412536621, "name": "Amsterdam Central Railway Station (Station Amsterdam Centraal)", "type": "Train Station", "now": false}, {"lat": 52.37279019614373, "lng": 4.894897565548369, "name": "NH Collection Amsterdam Grand Hotel Krasnapolsky", "type": "Hotel", "now": false}, {"lat": 52.39093650557797, "lng": 4.830464964101317, "name": "Kubrickolo.gy", "type": "Office", "now": false}, {"lat": 52.36572102359264, "lng": 4.876341819763184, "name": "Toussaint", "type": "Caf\u00e9", "now": false}, {"lat": 52.384122836878994, "lng": 4.901005240759131, "name": "EYE", "type": "Museum", "now": false}, {"lat": 52.46086805417788, "lng": 4.813915607773605, "name": "rijbewijsgigant", "type": "School", "now": false}, {"lat": 52.379522312779656, "lng": 4.894334077835083, "name": "Caf\u00e9 Kobalt", "type": "Caf\u00e9", "now": false}, {"lat": 52.381323, "lng": 4.891156, "name": "Fit For Free", "type": "Gym / Fitness Center", "now": false}, {"lat": 52.39093650557797, "lng": 4.830464964101317, "name": "Kubrickolo.gy", "type": "Office", "now": false}, {"lat": 52.379522312779656, "lng": 4.894334077835083, "name": "Caf\u00e9 Kobalt", "type": "Caf\u00e9", "now": false}, {"lat": 52.381323, "lng": 4.891156, "name": "Fit For Free", "type": "Gym / Fitness Center", "now": false}, {"lat": 52.39093650557797, "lng": 4.830464964101317, "name": "Kubrickolo.gy", "type": "Office", "now": false}, {"lat": 52.384122836878994, "lng": 4.901005240759131, "name": "EYE", "type": "Museum", "now": false}, {"lat": 52.39093650557797, "lng": 4.830464964101317, "name": "Kubrickolo.gy", "type": "Office", "now": false}, {"lat": 52.381323, "lng": 4.891156, "name": "Fit For Free", "type": "Gym / Fitness Center", "now": false}, {"lat": 52.45759834435768, "lng": 4.81120357042186, "name": "Eetcaf\u00e9 De Toog", "type": "Gastropub", "now": false}, {"lat": 52.39093650557797, "lng": 4.830464964101317, "name": "Kubrickolo.gy", "type": "Office", "now": false}, {"lat": 52.381323, "lng": 4.891156, "name": "Fit For Free", "type": "Gym / Fitness Center", "now": false}, {"lat": 52.39093650557797, "lng": 4.830464964101317, "name": "Kubrickolo.gy", "type": "Office", "now": false}, {"lat": 52.39093650557797, "lng": 4.830464964101317, "name": "Kubrickolo.gy", "type": "Office", "now": false}, {"lat": 52.514067635174676, "lng": 6.095811125275468, "name": "Artez", "type": "College Arts Building", "now": false}, {"lat": 52.382521, "lng": 4.857742, "name": "Terra Preta Multimedia Studio", "type": "Design Studio", "now": false}, {"lat": 51.98230050778086, "lng": 5.906777681079501, "name": "Bar Florian", "type": "Bar", "now": false}, {"lat": 52.39093650557797, "lng": 4.830464964101317, "name": "Kubrickolo.gy", "type": "Office", "now": false}, {"lat": 52.379522312779656, "lng": 4.894334077835083, "name": "Caf\u00e9 Kobalt", "type": "Caf\u00e9", "now": false}, {"lat": 52.384122836878994, "lng": 4.901005240759131, "name": "EYE", "type": "Museum", "now": false}, {"lat": 52.39093650557797, "lng": 4.830464964101317, "name": "Kubrickolo.gy", "type": "Office", "now": false}, {"lat": 52.39093650557797, "lng": 4.830464964101317, "name": "Kubrickolo.gy", "type": "Office", "now": false}, {"lat": 52.39093650557797, "lng": 4.830464964101317, "name": "Kubrickolo.gy", "type": "Office", "now": false}, {"lat": 52.382521, "lng": 4.857742, "name": "Terra Preta Multimedia Studio", "type": "Design Studio", "now": false}, {"lat": 52.381323, "lng": 4.891156, "name": "Fit For Free", "type": "Gym / Fitness Center", "now": false}, {"lat": 52.384122836878994, "lng": 4.901005240759131, "name": "EYE", "type": "Museum", "now": false}, {"lat": 52.3574525953504, "lng": 4.881491661071777, "name": "Museumplein", "type": "Plaza", "now": false}, {"lat": 52.39093650557797, "lng": 4.830464964101317, "name": "Kubrickolo.gy", "type": "Office", "now": false}, {"lat": 52.3830052542326, "lng": 4.8781351000064, "name": "Zaal 100", "type": "Music Venue", "now": false}, {"lat": 52.39093650557797, "lng": 4.830464964101317, "name": "Kubrickolo.gy", "type": "Office", "now": false}, {"lat": 52.39093650557797, "lng": 4.830464964101317, "name": "Kubrickolo.gy", "type": "Office", "now": false}, {"lat": 52.368775, "lng": 4.889142, "name": "Caf\u00e9 Luxembourg", "type": "Caf\u00e9", "now": false}, {"lat": 52.39093650557797, "lng": 4.830464964101317, "name": "Kubrickolo.gy", "type": "Office", "now": false}, {"lat": 52.36572102359264, "lng": 4.876341819763184, "name": "Toussaint", "type": "Caf\u00e9", "now": false}, {"lat": 52.39093650557797, "lng": 4.830464964101317, "name": "Kubrickolo.gy", "type": "Office", "now": false}, {"lat": 52.381323, "lng": 4.891156, "name": "Fit For Free", "type": "Gym / Fitness Center", "now": false}, {"lat": 52.39093650557797, "lng": 4.830464964101317, "name": "Kubrickolo.gy", "type": "Office", "now": false}, {"lat": 52.379522312779656, "lng": 4.894334077835083, "name": "Caf\u00e9 Kobalt", "type": "Caf\u00e9", "now": false}, {"lat": 52.368775, "lng": 4.889142, "name": "Caf\u00e9 Luxembourg", "type": "Caf\u00e9", "now": false}, {"lat": 52.39093650557797, "lng": 4.830464964101317, "name": "Kubrickolo.gy", "type": "Office", "now": false}, {"lat": 52.36572102359264, "lng": 4.876341819763184, "name": "Toussaint", "type": "Caf\u00e9", "now": false}, {"lat": 52.39093650557797, "lng": 4.830464964101317, "name": "Kubrickolo.gy", "type": "Office", "now": false}, {"lat": 52.01928393915481, "lng": 7.206348256605179, "name": "Rosendahl", "type": "Town", "now": false}, {"lat": 52.381323, "lng": 4.891156, "name": "Fit For Free", "type": "Gym / Fitness Center", "now": false}, {"lat": 52.39093650557797, "lng": 4.830464964101317, "name": "Kubrickolo.gy", "type": "Office", "now": false}, {"lat": 52.39093650557797, "lng": 4.830464964101317, "name": "Kubrickolo.gy", "type": "Office", "now": false}, {"lat": 52.384122836878994, "lng": 4.901005240759131, "name": "EYE", "type": "Museum", "now": false}, {"lat": 51.978621974999996, "lng": 5.9058184125, "name": "De Kroeg", "type": "Bar", "now": false}, {"lat": 52.39093650557797, "lng": 4.830464964101317, "name": "Kubrickolo.gy", "type": "Office", "now": false}, {"lat": 52.382521, "lng": 4.857742, "name": "Terra Preta Multimedia Studio", "type": "Design Studio", "now": false}, {"lat": 52.381323, "lng": 4.891156, "name": "Fit For Free", "type": "Gym / Fitness Center", "now": false}, {"lat": 52.384122836878994, "lng": 4.901005240759131, "name": "EYE", "type": "Museum", "now": false}, {"lat": 52.379522312779656, "lng": 4.894334077835083, "name": "Caf\u00e9 Kobalt", "type": "Caf\u00e9", "now": false}, {"lat": 52.382521, "lng": 4.857742, "name": "Terra Preta Multimedia Studio", "type": "Design Studio", "now": false}, {"lat": 52.384122836878994, "lng": 4.901005240759131, "name": "EYE", "type": "Museum", "now": false}, {"lat": 52.08993065053857, "lng": 5.117480316454088, "name": "Caf\u00e9 Van Velsen", "type": "Caf\u00e9", "now": false}, {"lat": 52.09062079282885, "lng": 5.11714586958312, "name": "'t College", "type": "Pub", "now": false}, {"lat": 52.39093650557797, "lng": 4.830464964101317, "name": "Kubrickolo.gy", "type": "Office", "now": false}, {"lat": 52.39093650557797, "lng": 4.830464964101317, "name": "Kubrickolo.gy", "type": "Office", "now": false}, {"lat": 52.36572102359264, "lng": 4.876341819763184, "name": "Toussaint", "type": "Caf\u00e9", "now": false}, {"lat": 52.39093650557797, "lng": 4.830464964101317, "name": "Kubrickolo.gy", "type": "Office", "now": false}, {"lat": 52.39093650557797, "lng": 4.830464964101317, "name": "Kubrickolo.gy", "type": "Office", "now": false}, {"lat": 52.36572102359264, "lng": 4.876341819763184, "name": "Toussaint", "type": "Caf\u00e9", "now": false}, {"lat": 54.946458266779665, "lng": 11.97911024093628, "name": "Far\u00f8broerne", "type": "Bridge", "now": false}, {"lat": 55.68010089950764, "lng": 12.590675354003906, "name": "McJoy's Choice", "type": "Pub", "now": false}, {"lat": 55.68129556990495, "lng": 12.575746178627014, "name": "Rundet\u00e5rn", "type": "Monument / Landmark", "now": false}, {"lat": 55.68380535833204, "lng": 12.569522883750302, "name": "Torvehallerne", "type": "Food Court", "now": false}, {"lat": 55.7013940150627, "lng": 12.513916701134153, "name": "Bellah\u00f8j Camping", "type": "Campground", "now": false}, {"lat": 55.68242253662171, "lng": 12.582041728884308, "name": "Pastis", "type": "French Restaurant", "now": false}, {"lat": 55.68153916625204, "lng": 12.58172515790418, "name": "Caf\u00e9 Dan Turell", "type": "Caf\u00e9", "now": false}, {"lat": 55.68848399318558, "lng": 12.578197717666626, "name": "Statens Museum for Kunst - SMK", "type": "Art Museum", "now": false}, {"lat": 55.67886687253232, "lng": 12.57982313632965, "name": "Cafe Norden", "type": "Caf\u00e9", "now": false}, {"lat": 55.678658, "lng": 12.576179, "name": "LEGO Store", "type": "Toy / Game Store", "now": false}, {"lat": 55.7013940150627, "lng": 12.513916701134153, "name": "Bellah\u00f8j Camping", "type": "Campground", "now": false}, {"lat": 55.427809323430246, "lng": 10.329233169079322, "name": "Jernalderlandsbyen", "type": "Other Great Outdoors", "now": false}, {"lat": 55.174448094802436, "lng": 10.487514334729802, "name": "Egeskov Slot", "type": "Castle", "now": false}, {"lat": 55.05931164279671, "lng": 10.614676423772215, "name": "Svendborg Havn", "type": "Harbor / Marina", "now": false}, {"lat": 54.922328, "lng": 10.244806, "name": "Roel and Mary's Secret Camping Spot", "type": "Campground", "now": false}, {"lat": 54.9938531870742, "lng": 9.985692501068115, "name": "Fynshav F\u00e6rgehavn", "type": "Harbor / Marina", "now": false}, {"lat": 54.16433899093954, "lng": 9.879510376768918, "name": "Landhotel M\u00f6llhagen", "type": "Hotel", "now": false}, {"lat": 51.98204590303066, "lng": 5.9152034190847465, "name": "Caf\u00e9 Vrijdag", "type": "Caf\u00e9", "now": false}, {"lat": 52.38897225483043, "lng": 4.837861500336683, "name": "Amsterdam Sloterdijk Station (Station Amsterdam Sloterdijk)", "type": "Train Station", "now": false}, {"lat": 52.379522312779656, "lng": 4.894334077835083, "name": "Caf\u00e9 Kobalt", "type": "Caf\u00e9", "now": false}, {"lat": 52.381323, "lng": 4.891156, "name": "Fit For Free", "type": "Gym / Fitness Center", "now": false}, {"lat": 52.3136105761727, "lng": 4.938552509832211, "name": "Ziggo Dome", "type": "Concert Hall", "now": false}, {"lat": 52.382521, "lng": 4.857742, "name": "Terra Preta Multimedia Studio", "type": "Design Studio", "now": false}, {"lat": 51.98204590303066, "lng": 5.9152034190847465, "name": "Caf\u00e9 Vrijdag", "type": "Caf\u00e9", "now": false}, {"lat": 52.08820829268549, "lng": 5.1191801195495765, "name": "Springhaver Theater", "type": "Indie Movie Theater", "now": false}, {"lat": 52.088328477217814, "lng": 5.1213508463897055, "name": "Stripwinkel Blunder", "type": "Comic Shop", "now": false}, {"lat": 52.382521, "lng": 4.857742, "name": "Terra Preta Multimedia Studio", "type": "Design Studio", "now": false}, {"lat": 51.74010751929659, "lng": 3.8146340887795707, "name": "Strandpavilioen Corazon", "type": "Beach", "now": false}, {"lat": 51.75926079459099, "lng": 3.8585400581359863, "name": "Marina Port Z\u00e9lande", "type": "Harbor / Marina", "now": false}, {"lat": 51.741969, "lng": 3.82231497, "name": "Beachclub Perry's", "type": "Beach Bar", "now": false}, {"lat": 51.755995243966616, "lng": 3.8593413739147397, "name": "Center Parcs Port Z\u00e9lande", "type": "Resort", "now": false}, {"lat": 52.51306442637838, "lng": 6.094385509701484, "name": "Brasserie Het Vliegerhuys", "type": "Coffee Shop", "now": false}, {"lat": 52.39093650557797, "lng": 4.830464964101317, "name": "Kubrickolo.gy", "type": "Office", "now": false}, {"lat": 52.39159009324955, "lng": 4.852870333917722, "name": "Eetcaf\u00e9 Westpoort", "type": "Caf\u00e9", "now": false}, {"lat": 52.382521, "lng": 4.857742, "name": "Terra Preta Multimedia Studio", "type": "Design Studio", "now": false}, {"lat": 52.382521, "lng": 4.857742, "name": "Terra Preta Multimedia Studio", "type": "Design Studio", "now": false}, {"lat": 52.381323, "lng": 4.891156, "name": "Fit For Free", "type": "Gym / Fitness Center", "now": false}, {"lat": 52.46086805417788, "lng": 4.813915607773605, "name": "rijbewijsgigant", "type": "School", "now": false}, {"lat": 52.379522312779656, "lng": 4.894334077835083, "name": "Caf\u00e9 Kobalt", "type": "Caf\u00e9", "now": false}, {"lat": 52.45691581899127, "lng": 4.818988688251826, "name": "Station Zaandam Kogerveld", "type": "Train Station", "now": false}, {"lat": 52.39093650557797, "lng": 4.830464964101317, "name": "Kubrickolo.gy", "type": "Office", "now": false}, {"lat": 52.381323, "lng": 4.891156, "name": "Fit For Free", "type": "Gym / Fitness Center", "now": false}, {"lat": 52.379522312779656, "lng": 4.894334077835083, "name": "Caf\u00e9 Kobalt", "type": "Caf\u00e9", "now": false}, {"lat": 52.39093650557797, "lng": 4.830464964101317, "name": "Kubrickolo.gy", "type": "Office", "now": false}, {"lat": 52.36547862734887, "lng": 4.892563819885254, "name": "P.King", "type": "Bar", "now": false}, {"lat": 52.382521, "lng": 4.857742, "name": "Terra Preta Multimedia Studio", "type": "Design Studio", "now": false}, {"lat": 52.384122836878994, "lng": 4.901005240759131, "name": "EYE", "type": "Museum", "now": false}, {"lat": 52.3779766780531, "lng": 4.912809133529663, "name": "Bimhuis", "type": "Jazz Club", "now": false}, {"lat": 52.382521, "lng": 4.857742, "name": "Terra Preta Multimedia Studio", "type": "Design Studio", "now": false}, {"lat": 52.39093650557797, "lng": 4.830464964101317, "name": "Kubrickolo.gy", "type": "Office", "now": false}, {"lat": 52.382521, "lng": 4.857742, "name": "Terra Preta Multimedia Studio", "type": "Design Studio", "now": false}, {"lat": 52.25382315665254, "lng": 5.227911592831392, "name": "Caf\u00e9 Loetje", "type": "Steakhouse", "now": false}, {"lat": 52.366403170086535, "lng": 4.894820402019465, "name": "Path\u00e9 Tuschinski", "type": "Multiplex", "now": false}, {"lat": 51.809584, "lng": 3.935639, "name": "In De Keulse Pot", "type": "Diner", "now": false}, {"lat": 51.74811617859468, "lng": 3.825156257678536, "name": "Concert at SEA 2013", "type": "Music Venue", "now": false}, {"lat": 52.381323, "lng": 4.891156, "name": "Fit For Free", "type": "Gym / Fitness Center", "now": false}, {"lat": 52.46086805417788, "lng": 4.813915607773605, "name": "rijbewijsgigant", "type": "School", "now": false}, {"lat": 52.39093650557797, "lng": 4.830464964101317, "name": "Kubrickolo.gy", "type": "Office", "now": false}, {"lat": 52.38576324505702, "lng": 4.874711036682129, "name": "De Bakkerswinkel", "type": "Bakery", "now": false}, {"lat": 52.08998813378618, "lng": 5.1174190274194284, "name": "Konnichi Wa", "type": "Sushi Restaurant", "now": false}, {"lat": 52.381323, "lng": 4.891156, "name": "Fit For Free", "type": "Gym / Fitness Center", "now": false}, {"lat": 52.39093650557797, "lng": 4.830464964101317, "name": "Kubrickolo.gy", "type": "Office", "now": false}, {"lat": 52.446305, "lng": 4.819934, "name": "De Koekfabriek", "type": "Tea Room", "now": false}, {"lat": 52.38576324505702, "lng": 4.874711036682129, "name": "De Bakkerswinkel", "type": "Bakery", "now": false}, {"lat": 52.381323, "lng": 4.891156, "name": "Fit For Free", "type": "Gym / Fitness Center", "now": false}, {"lat": 52.39093650557797, "lng": 4.830464964101317, "name": "Kubrickolo.gy", "type": "Office", "now": false}, {"lat": 52.44980660113806, "lng": 4.575140770721518, "name": "Kennmerduinen", "type": "Trail", "now": false}, {"lat": 52.382521, "lng": 4.857742, "name": "Terra Preta Multimedia Studio", "type": "Design Studio", "now": false}, {"lat": 52.379522312779656, "lng": 4.894334077835083, "name": "Caf\u00e9 Kobalt", "type": "Caf\u00e9", "now": false}, {"lat": 52.39093650557797, "lng": 4.830464964101317, "name": "Kubrickolo.gy", "type": "Office", "now": false}, {"lat": 52.39159009324955, "lng": 4.852870333917722, "name": "Eetcaf\u00e9 Westpoort", "type": "Caf\u00e9", "now": false}, {"lat": 52.381323, "lng": 4.891156, "name": "Fit For Free", "type": "Gym / Fitness Center", "now": false}, {"lat": 52.39093650557797, "lng": 4.830464964101317, "name": "Kubrickolo.gy", "type": "Office", "now": false}, {"lat": 52.44256986729758, "lng": 4.855119915676098, "name": "Esso", "type": "Gas Station", "now": false}, {"lat": 52.37809266488914, "lng": 4.912840083414216, "name": "Muziekgebouw aan 't IJ", "type": "Concert Hall", "now": false}, {"lat": 52.3779766780531, "lng": 4.912809133529663, "name": "Bimhuis", "type": "Jazz Club", "now": false}, {"lat": 52.3779766780531, "lng": 4.912809133529663, "name": "Bimhuis", "type": "Jazz Club", "now": false}, {"lat": 52.37809266488914, "lng": 4.912840083414216, "name": "Muziekgebouw aan 't IJ", "type": "Concert Hall", "now": false}, {"lat": 52.379522312779656, "lng": 4.894334077835083, "name": "Caf\u00e9 Kobalt", "type": "Caf\u00e9", "now": false}, {"lat": 52.382521, "lng": 4.857742, "name": "Terra Preta Multimedia Studio", "type": "Design Studio", "now": false}, {"lat": 52.379522312779656, "lng": 4.894334077835083, "name": "Caf\u00e9 Kobalt", "type": "Caf\u00e9", "now": false}, {"lat": 52.29827052715252, "lng": 5.027661323547363, "name": "Spa Wellness", "type": "Water Park", "now": false}, {"lat": 52.382521, "lng": 4.857742, "name": "Terra Preta Multimedia Studio", "type": "Design Studio", "now": false}, {"lat": 52.384122836878994, "lng": 4.901005240759131, "name": "EYE", "type": "Museum", "now": false}, {"lat": 52.379522312779656, "lng": 4.894334077835083, "name": "Caf\u00e9 Kobalt", "type": "Caf\u00e9", "now": false}, {"lat": 52.381323, "lng": 4.891156, "name": "Fit For Free", "type": "Gym / Fitness Center", "now": false}, {"lat": 52.09683827106821, "lng": 5.1049213087102565, "name": "Het Huis", "type": "Cultural Center", "now": false}, {"lat": 52.39093650557797, "lng": 4.830464964101317, "name": "Kubrickolo.gy", "type": "Office", "now": false}, {"lat": 52.39093650557797, "lng": 4.830464964101317, "name": "Kubrickolo.gy", "type": "Office", "now": false}, {"lat": 52.36547862734887, "lng": 4.892563819885254, "name": "P.King", "type": "Bar", "now": false}, {"lat": 52.39093650557797, "lng": 4.830464964101317, "name": "Kubrickolo.gy", "type": "Office", "now": false}, {"lat": 52.384122836878994, "lng": 4.901005240759131, "name": "EYE", "type": "Museum", "now": false}, {"lat": 52.46086805417788, "lng": 4.813915607773605, "name": "rijbewijsgigant", "type": "School", "now": false}, {"lat": 52.3660492867161, "lng": 4.89748556343617, "name": "Starbucks", "type": "Coffee Shop", "now": false}, {"lat": 52.39093650557797, "lng": 4.830464964101317, "name": "Kubrickolo.gy", "type": "Office", "now": false}, {"lat": 52.381323, "lng": 4.891156, "name": "Fit For Free", "type": "Gym / Fitness Center", "now": false}, {"lat": 52.46086805417788, "lng": 4.813915607773605, "name": "rijbewijsgigant", "type": "School", "now": false}, {"lat": 52.381323, "lng": 4.891156, "name": "Fit For Free", "type": "Gym / Fitness Center", "now": false}, {"lat": 52.382521, "lng": 4.857742, "name": "Terra Preta Multimedia Studio", "type": "Design Studio", "now": false}, {"lat": 52.3779766780531, "lng": 4.912809133529663, "name": "Bimhuis", "type": "Jazz Club", "now": false}, {"lat": 52.39093650557797, "lng": 4.830464964101317, "name": "Kubrickolo.gy", "type": "Office", "now": false}, {"lat": 52.368775, "lng": 4.889142, "name": "Caf\u00e9 Luxembourg", "type": "Caf\u00e9", "now": false}, {"lat": 52.39093650557797, "lng": 4.830464964101317, "name": "Kubrickolo.gy", "type": "Office", "now": false}, {"lat": 52.3660492867161, "lng": 4.89748556343617, "name": "Starbucks", "type": "Coffee Shop", "now": false}, {"lat": 52.381323, "lng": 4.891156, "name": "Fit For Free", "type": "Gym / Fitness Center", "now": false}, {"lat": 52.39093650557797, "lng": 4.830464964101317, "name": "Kubrickolo.gy", "type": "Office", "now": false}, {"lat": 52.29827052715252, "lng": 5.027661323547363, "name": "Spa Wellness", "type": "Water Park", "now": false}, {"lat": 52.381323, "lng": 4.891156, "name": "Fit For Free", "type": "Gym / Fitness Center", "now": false}, {"lat": 52.39093650557797, "lng": 4.830464964101317, "name": "Kubrickolo.gy", "type": "Office", "now": false}, {"lat": 52.3982466442635, "lng": 4.837192895741965, "name": "UPS pickup centre", "type": "Office", "now": false}, {"lat": 52.39093650557797, "lng": 4.830464964101317, "name": "Kubrickolo.gy", "type": "Office", "now": false}, {"lat": 52.381323, "lng": 4.891156, "name": "Fit For Free", "type": "Gym / Fitness Center", "now": false}, {"lat": 52.39093650557797, "lng": 4.830464964101317, "name": "Kubrickolo.gy", "type": "Office", "now": false}, {"lat": 52.39093650557797, "lng": 4.830464964101317, "name": "Kubrickolo.gy", "type": "Office", "now": false}, {"lat": 52.382521, "lng": 4.857742, "name": "Terra Preta Multimedia Studio", "type": "Design Studio", "now": false}, {"lat": 51.982317680214415, "lng": 5.90383532678306, "name": "Dollars Rock Caf\u00e9", "type": "Pub", "now": false}, {"lat": 51.98242066698302, "lng": 5.907581985417506, "name": "ZILLI", "type": "Italian Restaurant", "now": false}, {"lat": 51.98230050778086, "lng": 5.906777681079501, "name": "Bar Florian", "type": "Bar", "now": false}, {"lat": 52.102907075462106, "lng": 5.786996981608223, "name": "Kr\u00f6ller M\u00fcller", "type": "Art Gallery", "now": false}, {"lat": 52.39093650557797, "lng": 4.830464964101317, "name": "Kubrickolo.gy", "type": "Office", "now": false}, {"lat": 52.381323, "lng": 4.891156, "name": "Fit For Free", "type": "Gym / Fitness Center", "now": false}, {"lat": 52.39093650557797, "lng": 4.830464964101317, "name": "Kubrickolo.gy", "type": "Office", "now": false}, {"lat": 52.382521, "lng": 4.857742, "name": "Terra Preta Multimedia Studio", "type": "Design Studio", "now": false}, {"lat": 52.39093650557797, "lng": 4.830464964101317, "name": "Kubrickolo.gy", "type": "Office", "now": false}, {"lat": 52.382521, "lng": 4.857742, "name": "Terra Preta Multimedia Studio", "type": "Design Studio", "now": false}, {"lat": 52.381323, "lng": 4.891156, "name": "Fit For Free", "type": "Gym / Fitness Center", "now": false}, {"lat": 52.382521, "lng": 4.857742, "name": "Terra Preta Multimedia Studio", "type": "Design Studio", "now": false}, {"lat": 52.367063, "lng": 4.895987, "name": "De Kleine Komedie", "type": "Theater", "now": false}, {"lat": 52.3660492867161, "lng": 4.89748556343617, "name": "Starbucks", "type": "Coffee Shop", "now": false}, {"lat": 51.98287909861344, "lng": 5.909174276468052, "name": "Babo Caf\u00e9", "type": "Caf\u00e9", "now": false}, {"lat": 52.39093650557797, "lng": 4.830464964101317, "name": "Kubrickolo.gy", "type": "Office", "now": false}, {"lat": 52.39093650557797, "lng": 4.830464964101317, "name": "Kubrickolo.gy", "type": "Office", "now": false}, {"lat": 52.39093650557797, "lng": 4.830464964101317, "name": "Kubrickolo.gy", "type": "Office", "now": false}, {"lat": 52.39093650557797, "lng": 4.830464964101317, "name": "Kubrickolo.gy", "type": "Office", "now": false}, {"lat": 52.26817145828311, "lng": 5.532025314649446, "name": "Postillion Hotel Amersfoort Veluwemeer", "type": "Hotel", "now": false}, {"lat": 52.366235156570035, "lng": 4.900115162186789, "name": "Caf\u00e9 Langereis", "type": "Bar", "now": false}, {"lat": 52.367063, "lng": 4.895987, "name": "De Kleine Komedie", "type": "Theater", "now": false}, {"lat": 52.3660492867161, "lng": 4.89748556343617, "name": "Starbucks", "type": "Coffee Shop", "now": false}, {"lat": 52.37367647640282, "lng": 4.894392057276645, "name": "De Bijenkorf", "type": "Department Store", "now": false}, {"lat": 52.368852511633456, "lng": 4.889081321504096, "name": "Athenaeum Boekhandel", "type": "Bookstore", "now": false}, {"lat": 52.38576324505702, "lng": 4.874711036682129, "name": "De Bakkerswinkel", "type": "Bakery", "now": false}, {"lat": 52.099196007254, "lng": 5.115825820256804, "name": "O'Leary's Irish Pub & Restaurant", "type": "Irish Pub", "now": false}, {"lat": 52.09748970135219, "lng": 5.114489793777466, "name": "EKKO", "type": "Music Venue", "now": false}, {"lat": 52.39093650557797, "lng": 4.830464964101317, "name": "Kubrickolo.gy", "type": "Office", "now": false}, {"lat": 52.39093650557797, "lng": 4.830464964101317, "name": "Kubrickolo.gy", "type": "Office", "now": false}, {"lat": 52.379522312779656, "lng": 4.894334077835083, "name": "Caf\u00e9 Kobalt", "type": "Caf\u00e9", "now": false}, {"lat": 52.39093650557797, "lng": 4.830464964101317, "name": "Kubrickolo.gy", "type": "Office", "now": false}, {"lat": 52.381323, "lng": 4.891156, "name": "Fit For Free", "type": "Gym / Fitness Center", "now": false}, {"lat": 52.39093650557797, "lng": 4.830464964101317, "name": "Kubrickolo.gy", "type": "Office", "now": false}, {"lat": 51.98230050778086, "lng": 5.906777681079501, "name": "Bar Florian", "type": "Bar", "now": false}, {"lat": 51.982615784683915, "lng": 5.904691852085376, "name": "Le Grand Caf\u00e9", "type": "Restaurant", "now": false}, {"lat": 51.98230050778086, "lng": 5.906777681079501, "name": "Bar Florian", "type": "Bar", "now": false}, {"lat": 52.38576324505702, "lng": 4.874711036682129, "name": "De Bakkerswinkel", "type": "Bakery", "now": false}, {"lat": 52.381323, "lng": 4.891156, "name": "Fit For Free", "type": "Gym / Fitness Center", "now": false}, {"lat": 50.84884060211883, "lng": 4.366006533864883, "name": "Cirque Royal / Koninklijk Circus (Koninklijk Circus)", "type": "Concert Hall", "now": false}, {"lat": 50.83601179838207, "lng": 4.3365206163458945, "name": "Brussels-South Railway Station (ZYR) (Station Brussel-Zuid)", "type": "Train Station", "now": false}, {"lat": 52.37878224866535, "lng": 4.900374412536621, "name": "Amsterdam Central Railway Station (Station Amsterdam Centraal)", "type": "Train Station", "now": false}, {"lat": 52.37898061166784, "lng": 4.899619024607492, "name": "Starbucks", "type": "Coffee Shop", "now": false}, {"lat": 52.39093650557797, "lng": 4.830464964101317, "name": "Kubrickolo.gy", "type": "Office", "now": false}, {"lat": 52.374050129615064, "lng": 4.882671833038329, "name": "De Oude Wester", "type": "Caf\u00e9", "now": false}, {"lat": 52.381323, "lng": 4.891156, "name": "Fit For Free", "type": "Gym / Fitness Center", "now": false}, {"lat": 52.379522312779656, "lng": 4.894334077835083, "name": "Caf\u00e9 Kobalt", "type": "Caf\u00e9", "now": false}, {"lat": 52.37367647640282, "lng": 4.894392057276645, "name": "De Bijenkorf", "type": "Department Store", "now": false}, {"lat": 52.368852511633456, "lng": 4.889081321504096, "name": "Athenaeum Boekhandel", "type": "Bookstore", "now": false}]