[{"lng": 39.80360971300479, "lat": 47.25545381275797, "name": "Rostov-on-Don Airport (ROV) (\u0410\u044d\u0440\u043e\u043f\u043e\u0440\u0442 \u0420\u043e\u0441\u0442\u043e\u0432-\u043d\u0430-\u0414\u043e\u043d\u0443)"}, {"lng": 37.406089185888405, "lat": 55.9636025861622, "name": "Sheremetyevo International Airport (SVO) (\u041c\u0435\u0436\u0434\u0443\u043d\u0430\u0440\u043e\u0434\u043d\u044b\u0439 \u0430\u044d\u0440\u043e\u043f\u043e\u0440\u0442 \u0428\u0435\u0440\u0435\u043c\u0435\u0442\u044c\u0435\u0432\u043e)"}, {"lng": 4.7625577372555465, "lat": 52.30923267175452, "name": "Amsterdam Airport Schiphol (AMS)"}, {"lng": 4.7625577372555465, "lat": 52.30923267175452, "name": "Amsterdam Airport Schiphol (AMS)"}, {"lng": 19.801819359365993, "lat": 50.07223010071994, "name": "John Paul II International Airport Krak\u00f3w\u2013Balice (KRK) (Mi\u0119dzynarodowy Port Lotniczy im. Jana Paw\u0142a II Krak\u00f3w-Balice)"}, {"lng": 4.7625577372555465, "lat": 52.30923267175452, "name": "Amsterdam Airport Schiphol (AMS)"}, {"lng": 6.048317551365021, "lat": 52.24111846696927, "name": "Teuge International Airport (EHTE)"}, {"lng": 5.152907255548942, "lat": 52.193148539617674, "name": "Hilversum Airport (Vliegveld Hilversum)"}, {"lng": -22.622909545898438, "lat": 63.99117062931456, "name": "Keflavik International Airport (KEF) (Keflav\u00edkurflugv\u00f6llur)"}, {"lng": -22.622909545898438, "lat": 63.99117062931456, "name": "Keflavik International Airport (KEF) (Keflav\u00edkurflugv\u00f6llur)"}, {"lng": 4.7625577372555465, "lat": 52.30923267175452, "name": "Amsterdam Airport Schiphol (AMS)"}, {"lng": 4.7625577372555465, "lat": 52.30923267175452, "name": "Amsterdam Airport Schiphol (AMS)"}, {"lng": 0.04976896880526665, "lat": 51.50396412422985, "name": "London City Airport (LCY)"}, {"lng": 0.04976896880526665, "lat": 51.50396412422985, "name": "London City Airport (LCY)"}, {"lng": 4.7625577372555465, "lat": 52.30923267175452, "name": "Amsterdam Airport Schiphol (AMS)"}, {"lng": 4.7625577372555465, "lat": 52.30923267175452, "name": "Amsterdam Airport Schiphol (AMS)"}, {"lng": 2.5702929199346776, "lat": 49.004685160970574, "name": "Paris Charles de Gaulle Airport (CDG) (A\u00e9roport Paris-Charles de Gaulle)"}, {"lng": -73.7834624434656, "lat": 40.64505809053733, "name": "John F. Kennedy International Airport (JFK)"}, {"lng": -73.7834624434656, "lat": 40.64505809053733, "name": "John F. Kennedy International Airport (JFK)"}, {"lng": 4.7625577372555465, "lat": 52.30923267175452, "name": "Amsterdam Airport Schiphol (AMS)"}, {"lng": 4.7625577372555465, "lat": 52.30923267175452, "name": "Amsterdam Airport Schiphol (AMS)"}, {"lng": -122.38885916361724, "lat": 37.61692481575441, "name": "San Francisco International Airport (SFO)"}, {"lng": -122.38885916361724, "lat": 37.61692481575441, "name": "San Francisco International Airport (SFO)"}, {"lng": -111.9813333185899, "lat": 40.78693504261269, "name": "Salt Lake City International Airport (SLC)"}, {"lng": 4.7625577372555465, "lat": 52.30923267175452, "name": "Amsterdam Airport Schiphol (AMS)"}, {"lng": 12.645695264827953, "lat": 55.62833695998232, "name": "Copenhagen Airport (CPH) (K\u00f8benhavns Lufthavn)"}, {"lng": -111.9813333185899, "lat": 40.78693504261269, "name": "Salt Lake City International Airport (SLC)"}, {"lng": -115.14644926715971, "lat": 36.0829846406578, "name": "McCarran International Airport (LAS)"}, {"lng": -115.14644926715971, "lat": 36.0829846406578, "name": "McCarran International Airport (LAS)"}, {"lng": -118.405601978302, "lat": 33.94332434443264, "name": "Los Angeles International Airport (LAX)"}, {"lng": -122.38885916361724, "lat": 37.61692481575441, "name": "San Francisco International Airport (SFO)"}, {"lng": -122.38885916361724, "lat": 37.61692481575441, "name": "San Francisco International Airport (SFO)"}, {"lng": -118.405601978302, "lat": 33.94332434443264, "name": "Los Angeles International Airport (LAX)"}, {"lng": -97.6668415425308, "lat": 30.202310129239955, "name": "Austin Bergstrom International Airport (AUS)"}, {"lng": -97.6668415425308, "lat": 30.202310129239955, "name": "Austin Bergstrom International Airport (AUS)"}, {"lng": -111.9813333185899, "lat": 40.78693504261269, "name": "Salt Lake City International Airport (SLC)"}, {"lng": -122.38885916361724, "lat": 37.61692481575441, "name": "San Francisco International Airport (SFO)"}, {"lng": -122.38885916361724, "lat": 37.61692481575441, "name": "San Francisco International Airport (SFO)"}, {"lng": 4.7625577372555465, "lat": 52.30923267175452, "name": "Amsterdam Airport Schiphol (AMS)"}, {"lng": 4.7625577372555465, "lat": 52.30923267175452, "name": "Amsterdam Airport Schiphol (AMS)"}, {"lng": -122.38885916361724, "lat": 37.61692481575441, "name": "San Francisco International Airport (SFO)"}, {"lng": -122.38885916361724, "lat": 37.61692481575441, "name": "San Francisco International Airport (SFO)"}, {"lng": 4.7625577372555465, "lat": 52.30923267175452, "name": "Amsterdam Airport Schiphol (AMS)"}, {"lng": 16.563956981297576, "lat": 48.11945479013332, "name": "Vienna International Airport (VIE) (Flughafen Wien-Schwechat)"}, {"lng": 4.7625577372555465, "lat": 52.30923267175452, "name": "Amsterdam Airport Schiphol (AMS)"}, {"lng": -2.9059542035252615, "lat": 43.305375778120755, "name": "Aeropuerto de Bilbao (BIO)"}, {"lng": -2.9059542035252615, "lat": 43.305375778120755, "name": "Aeropuerto de Bilbao (BIO)"}, {"lng": 4.7625577372555465, "lat": 52.30923267175452, "name": "Amsterdam Airport Schiphol (AMS)"}, {"lng": 0.04976896880526665, "lat": 51.50396412422985, "name": "London City Airport (LCY)"}, {"lng": 0.04976896880526665, "lat": 51.50396412422985, "name": "London City Airport (LCY)"}, {"lng": 4.7625577372555465, "lat": 52.30923267175452, "name": "Amsterdam Airport Schiphol (AMS)"}, {"lng": 17.93097496032715, "lat": 59.650527933419625, "name": "Stockholm-Arlanda Airport (ARN)"}, {"lng": 16.628351651724433, "lat": 59.60183262632053, "name": "Stockholm V\u00e4ster\u00e5s Flygplats (VST)"}, {"lng": 24.96758259012695, "lat": 60.318320554472244, "name": "Helsinki Airport  (HEL) (Helsinki Airport (HEL))"}, {"lng": 4.7625577372555465, "lat": 52.30923267175452, "name": "Amsterdam Airport Schiphol (AMS)"}, {"lng": 14.282985155394492, "lat": 40.87793275611709, "name": "Naples International Airport \"Ugo Niutta\" (NAP) (Aeroporto Internazionale di Napoli Capodichino \"Ugo Niutta\")"}, {"lng": 14.282985155394492, "lat": 40.87793275611709, "name": "Naples International Airport \"Ugo Niutta\" (NAP) (Aeroporto Internazionale di Napoli Capodichino \"Ugo Niutta\")"}, {"lng": 4.7625577372555465, "lat": 52.30923267175452, "name": "Amsterdam Airport Schiphol (AMS)"}, {"lng": 4.7625577372555465, "lat": 52.30923267175452, "name": "Amsterdam Airport Schiphol (AMS)"}, {"lng": 30.273572934764662, "lat": 59.79963388793562, "name": "Pulkovo International Airport (LED) (\u041c\u0435\u0436\u0434\u0443\u043d\u0430\u0440\u043e\u0434\u043d\u044b\u0439 \u0430\u044d\u0440\u043e\u043f\u043e\u0440\u0442 \u041f\u0443\u043b\u043a\u043e\u0432\u043e)"}, {"lng": 30.273572934764662, "lat": 59.79963388793562, "name": "Pulkovo International Airport (LED) (\u041c\u0435\u0436\u0434\u0443\u043d\u0430\u0440\u043e\u0434\u043d\u044b\u0439 \u0430\u044d\u0440\u043e\u043f\u043e\u0440\u0442 \u041f\u0443\u043b\u043a\u043e\u0432\u043e)"}, {"lng": 4.7625577372555465, "lat": 52.30923267175452, "name": "Amsterdam Airport Schiphol (AMS)"}, {"lng": -122.38885916361724, "lat": 37.61692481575441, "name": "San Francisco International Airport (SFO)"}, {"lng": -122.38885916361724, "lat": 37.61692481575441, "name": "San Francisco International Airport (SFO)"}, {"lng": 4.7625577372555465, "lat": 52.30923267175452, "name": "Amsterdam Airport Schiphol (AMS)"}, {"lng": 140.38687589242883, "lat": 35.77190522612856, "name": "Narita International Airport (NRT) (\u6210\u7530\u56fd\u969b\u7a7a\u6e2f)"}, {"lng": 4.7625577372555465, "lat": 52.30923267175452, "name": "Amsterdam Airport Schiphol (AMS)"}, {"lng": 4.7625577372555465, "lat": 52.30923267175452, "name": "Amsterdam Airport Schiphol (AMS)"}, {"lng": -122.38885916361724, "lat": 37.61692481575441, "name": "San Francisco International Airport (SFO)"}, {"lng": -122.38885916361724, "lat": 37.61692481575441, "name": "San Francisco International Airport (SFO)"}, {"lng": 4.7625577372555465, "lat": 52.30923267175452, "name": "Amsterdam Airport Schiphol (AMS)"}, {"lng": 4.7625577372555465, "lat": 52.30923267175452, "name": "Amsterdam Airport Schiphol (AMS)"}, {"lng": -0.46234846115112305, "lat": 51.469407923261336, "name": "London Heathrow Airport (LHR)"}, {"lng": 0.04976896880526665, "lat": 51.50396412422985, "name": "London City Airport (LCY)"}, {"lng": 4.7625577372555465, "lat": 52.30923267175452, "name": "Amsterdam Airport Schiphol (AMS)"}, {"lng": -6.243851173903524, "lat": 53.42643943630694, "name": "Dublin Airport (DUB)"}, {"lng": 4.7625577372555465, "lat": 52.30923267175452, "name": "Amsterdam Airport Schiphol (AMS)"}, {"lng": 0.04976896880526665, "lat": 51.50396412422985, "name": "London City Airport (LCY)"}, {"lng": 4.7625577372555465, "lat": 52.30923267175452, "name": "Amsterdam Airport Schiphol (AMS)"}, {"lng": 4.7625577372555465, "lat": 52.30923267175452, "name": "Amsterdam Airport Schiphol (AMS)"}, {"lng": -0.46234846115112305, "lat": 51.469407923261336, "name": "London Heathrow Airport (LHR)"}, {"lng": 4.7625577372555465, "lat": 52.30923267175452, "name": "Amsterdam Airport Schiphol (AMS)"}, {"lng": 4.7625577372555465, "lat": 52.30923267175452, "name": "Amsterdam Airport Schiphol (AMS)"}, {"lng": -84.22042429447174, "lat": 39.899160357131585, "name": "Dayton International Airport (DAY)"}, {"lng": -83.35678162246185, "lat": 42.20819442185789, "name": "Detroit Metropolitan Wayne County Airport (DTW)"}, {"lng": 4.7625577372555465, "lat": 52.30923267175452, "name": "Amsterdam Airport Schiphol (AMS)"}, {"lng": -0.46234846115112305, "lat": 51.469407923261336, "name": "London Heathrow Airport (LHR)"}, {"lng": 4.7625577372555465, "lat": 52.30923267175452, "name": "Amsterdam Airport Schiphol (AMS)"}, {"lng": 140.38687589242883, "lat": 35.77190522612856, "name": "Narita International Airport (NRT) (\u6210\u7530\u56fd\u969b\u7a7a\u6e2f)"}, {"lng": 4.7625577372555465, "lat": 52.30923267175452, "name": "Amsterdam Airport Schiphol (AMS)"}, {"lng": 5.152907255548942, "lat": 52.193148539617674, "name": "Hilversum Airport (Vliegveld Hilversum)"}, {"lng": 5.686102758128594, "lat": 53.44855094529289, "name": "Ameland Airport Ballum"}, {"lng": 5.152907255548942, "lat": 52.193148539617674, "name": "Hilversum Airport (Vliegveld Hilversum)"}, {"lng": 4.7625577372555465, "lat": 52.30923267175452, "name": "Amsterdam Airport Schiphol (AMS)"}]