[{"lng": 37.4090324505796, "name": "Sheremetyevo International Airport (SVO) (\u041c\u0435\u0436\u0434\u0443\u043d\u0430\u0440\u043e\u0434\u043d\u044b\u0439 \u0430\u044d\u0440\u043e\u043f\u043e\u0440\u0442 \u0428\u0435\u0440\u0435\u043c\u0435\u0442\u044c\u0435\u0432\u043e)", "lat": 55.96422282026074, "type": "Airport", "now": true}, {"lng": 39.80360971300479, "name": "Rostov-on-Don Airport (ROV) (\u0410\u044d\u0440\u043e\u043f\u043e\u0440\u0442 \u0420\u043e\u0441\u0442\u043e\u0432-\u043d\u0430-\u0414\u043e\u043d\u0443)", "lat": 47.25545381275797, "type": "Airport", "now": false}, {"lng": 39.70411510165484, "name": "\u0420\u0418\u0421-54", "lat": 47.226186655230286, "type": "Asian Restaurant", "now": false}, {"lng": 39.70369530468808, "name": "Marins Park Hotel", "lat": 47.226946865978356, "type": "Hotel", "now": false}, {"lng": 39.80360971300479, "name": "Rostov-on-Don Airport (ROV) (\u0410\u044d\u0440\u043e\u043f\u043e\u0440\u0442 \u0420\u043e\u0441\u0442\u043e\u0432-\u043d\u0430-\u0414\u043e\u043d\u0443)", "lat": 47.25545381275797, "type": "Airport", "now": false}, {"lng": 37.4090324505796, "name": "Sheremetyevo International Airport (SVO) (\u041c\u0435\u0436\u0434\u0443\u043d\u0430\u0440\u043e\u0434\u043d\u044b\u0439 \u0430\u044d\u0440\u043e\u043f\u043e\u0440\u0442 \u0428\u0435\u0440\u0435\u043c\u0435\u0442\u044c\u0435\u0432\u043e)", "lat": 55.96422282026074, "type": "Airport", "now": false}, {"lng": 4.762524617656444, "name": "Amsterdam Airport Schiphol (AMS)", "lat": 52.30968706243106, "type": "Airport", "now": false}, {"lng": 4.762524617656444, "name": "Amsterdam Airport Schiphol (AMS)", "lat": 52.30968706243106, "type": "Airport", "now": false}, {"lng": 19.801819359365993, "name": "John Paul II International Airport Krak\u00f3w\u2013Balice (KRK) (Mi\u0119dzynarodowy Port Lotniczy im. Jana Paw\u0142a II Krak\u00f3w-Balice)", "lat": 50.07223010071994, "type": "Airport", "now": false}, {"lng": 19.788118, "name": "Krakow", "lat": 50.076977, "type": "Airport Service", "now": false}, {"lng": 4.762524617656444, "name": "Amsterdam Airport Schiphol (AMS)", "lat": 52.30968706243106, "type": "Airport", "now": false}, {"lng": 6.048317551365021, "name": "Teuge International Airport (EHTE)", "lat": 52.24111846696927, "type": "Airport", "now": false}, {"lng": 5.152907255548942, "name": "Hilversum Airport (Vliegveld Hilversum)", "lat": 52.193148539617674, "type": "Airport", "now": false}, {"lng": -22.622909545898438, "name": "Keflavik International Airport (KEF) (Keflav\u00edkurflugv\u00f6llur)", "lat": 63.99117062931456, "type": "Airport", "now": false}, {"lng": -22.622909545898438, "name": "Keflavik International Airport (KEF) (Keflav\u00edkurflugv\u00f6llur)", "lat": 63.99117062931456, "type": "Airport", "now": false}, {"lng": 4.762524617656444, "name": "Amsterdam Airport Schiphol (AMS)", "lat": 52.30968706243106, "type": "Airport", "now": false}, {"lng": 4.762524617656444, "name": "Amsterdam Airport Schiphol (AMS)", "lat": 52.30968706243106, "type": "Airport", "now": false}, {"lng": 0.04976896880526665, "name": "London City Airport (LCY)", "lat": 51.50396412422985, "type": "Airport", "now": false}, {"lng": 0.04976896880526665, "name": "London City Airport (LCY)", "lat": 51.50396412422985, "type": "Airport", "now": false}, {"lng": 4.762524617656444, "name": "Amsterdam Airport Schiphol (AMS)", "lat": 52.30968706243106, "type": "Airport", "now": false}, {"lng": 4.762524617656444, "name": "Amsterdam Airport Schiphol (AMS)", "lat": 52.30968706243106, "type": "Airport", "now": false}, {"lng": 2.5702929199346776, "name": "Paris Charles de Gaulle Airport (CDG) (A\u00e9roport Paris-Charles de Gaulle)", "lat": 49.004685160970574, "type": "Airport", "now": false}, {"lng": -73.78578915437089, "name": "John F. Kennedy International Airport (JFK)", "lat": 40.64474948407768, "type": "Airport", "now": false}, {"lng": -73.78578915437089, "name": "John F. Kennedy International Airport (JFK)", "lat": 40.64474948407768, "type": "Airport", "now": false}, {"lng": 4.762524617656444, "name": "Amsterdam Airport Schiphol (AMS)", "lat": 52.30968706243106, "type": "Airport", "now": false}, {"lng": 4.762524617656444, "name": "Amsterdam Airport Schiphol (AMS)", "lat": 52.30968706243106, "type": "Airport", "now": false}, {"lng": -122.38868766545275, "name": "San Francisco International Airport (SFO)", "lat": 37.61750591579182, "type": "Airport", "now": false}, {"lng": -122.38868766545275, "name": "San Francisco International Airport (SFO)", "lat": 37.61750591579182, "type": "Airport", "now": false}, {"lng": -111.9813333185899, "name": "Salt Lake City International Airport (SLC)", "lat": 40.78693504261269, "type": "Airport", "now": false}, {"lng": 4.762524617656444, "name": "Amsterdam Airport Schiphol (AMS)", "lat": 52.30968706243106, "type": "Airport", "now": false}, {"lng": 12.645695264827953, "name": "Copenhagen Airport (CPH) (K\u00f8benhavns Lufthavn)", "lat": 55.62833695998232, "type": "Airport", "now": false}, {"lng": -111.9813333185899, "name": "Salt Lake City International Airport (SLC)", "lat": 40.78693504261269, "type": "Airport", "now": false}, {"lng": -115.14663455911995, "name": "McCarran International Airport (LAS)", "lat": 36.08435326385343, "type": "Airport", "now": false}, {"lng": -115.14663455911995, "name": "McCarran International Airport (LAS)", "lat": 36.08435326385343, "type": "Airport", "now": false}, {"lng": -118.405601978302, "name": "Los Angeles International Airport (LAX)", "lat": 33.94332434443264, "type": "Airport", "now": false}, {"lng": -122.38868766545275, "name": "San Francisco International Airport (SFO)", "lat": 37.61750591579182, "type": "Airport", "now": false}, {"lng": -122.38868766545275, "name": "San Francisco International Airport (SFO)", "lat": 37.61750591579182, "type": "Airport", "now": false}, {"lng": -118.405601978302, "name": "Los Angeles International Airport (LAX)", "lat": 33.94332434443264, "type": "Airport", "now": false}, {"lng": -97.6668415425308, "name": "Austin Bergstrom International Airport (AUS)", "lat": 30.202310129239955, "type": "Airport", "now": false}, {"lng": -97.6668415425308, "name": "Austin Bergstrom International Airport (AUS)", "lat": 30.202310129239955, "type": "Airport", "now": false}, {"lng": -111.9813333185899, "name": "Salt Lake City International Airport (SLC)", "lat": 40.78693504261269, "type": "Airport", "now": false}, {"lng": -122.38868766545275, "name": "San Francisco International Airport (SFO)", "lat": 37.61750591579182, "type": "Airport", "now": false}, {"lng": -122.38868766545275, "name": "San Francisco International Airport (SFO)", "lat": 37.61750591579182, "type": "Airport", "now": false}, {"lng": 4.762524617656444, "name": "Amsterdam Airport Schiphol (AMS)", "lat": 52.30968706243106, "type": "Airport", "now": false}, {"lng": 4.762524617656444, "name": "Amsterdam Airport Schiphol (AMS)", "lat": 52.30968706243106, "type": "Airport", "now": false}, {"lng": -122.38868766545275, "name": "San Francisco International Airport (SFO)", "lat": 37.61750591579182, "type": "Airport", "now": false}, {"lng": -122.38868766545275, "name": "San Francisco International Airport (SFO)", "lat": 37.61750591579182, "type": "Airport", "now": false}, {"lng": 4.762524617656444, "name": "Amsterdam Airport Schiphol (AMS)", "lat": 52.30968706243106, "type": "Airport", "now": false}, {"lng": 16.563157568569935, "name": "Vienna International Airport (VIE) (Flughafen Wien-Schwechat)", "lat": 48.119663888271745, "type": "Airport", "now": false}, {"lng": 4.762524617656444, "name": "Amsterdam Airport Schiphol (AMS)", "lat": 52.30968706243106, "type": "Airport", "now": false}, {"lng": -2.9059542035252615, "name": "Aeropuerto de Bilbao (BIO)", "lat": 43.305375778120755, "type": "Airport", "now": false}, {"lng": -2.9059542035252615, "name": "Aeropuerto de Bilbao (BIO)", "lat": 43.305375778120755, "type": "Airport", "now": false}, {"lng": 4.762524617656444, "name": "Amsterdam Airport Schiphol (AMS)", "lat": 52.30968706243106, "type": "Airport", "now": false}, {"lng": 0.04976896880526665, "name": "London City Airport (LCY)", "lat": 51.50396412422985, "type": "Airport", "now": false}, {"lng": 0.04976896880526665, "name": "London City Airport (LCY)", "lat": 51.50396412422985, "type": "Airport", "now": false}, {"lng": 4.762524617656444, "name": "Amsterdam Airport Schiphol (AMS)", "lat": 52.30968706243106, "type": "Airport", "now": false}, {"lng": 17.93097496032715, "name": "Stockholm-Arlanda Airport (ARN)", "lat": 59.650527933419625, "type": "Airport", "now": false}, {"lng": 16.628351651724433, "name": "Stockholm V\u00e4ster\u00e5s Flygplats (VST)", "lat": 59.60183262632053, "type": "Airport", "now": false}, {"lng": 24.966536753212342, "name": "Helsinki Airport  (HEL) (Helsinki Airport (HEL))", "lat": 60.31816217381988, "type": "Airport", "now": false}, {"lng": 4.762524617656444, "name": "Amsterdam Airport Schiphol (AMS)", "lat": 52.30968706243106, "type": "Airport", "now": false}, {"lng": 14.282695517041821, "name": "Naples International Airport \"Ugo Niutta\" (NAP) (Aeroporto Internazionale di Napoli Capodichino \"Ugo Niutta\")", "lat": 40.877845304694155, "type": "Airport", "now": false}, {"lng": 14.282695517041821, "name": "Naples International Airport \"Ugo Niutta\" (NAP) (Aeroporto Internazionale di Napoli Capodichino \"Ugo Niutta\")", "lat": 40.877845304694155, "type": "Airport", "now": false}, {"lng": 4.762524617656444, "name": "Amsterdam Airport Schiphol (AMS)", "lat": 52.30968706243106, "type": "Airport", "now": false}, {"lng": 4.762524617656444, "name": "Amsterdam Airport Schiphol (AMS)", "lat": 52.30968706243106, "type": "Airport", "now": false}, {"lng": 30.273572934764662, "name": "Pulkovo International Airport (LED) (\u041c\u0435\u0436\u0434\u0443\u043d\u0430\u0440\u043e\u0434\u043d\u044b\u0439 \u0430\u044d\u0440\u043e\u043f\u043e\u0440\u0442 \u041f\u0443\u043b\u043a\u043e\u0432\u043e)", "lat": 59.79963388793562, "type": "Airport", "now": false}, {"lng": 30.273572934764662, "name": "Pulkovo International Airport (LED) (\u041c\u0435\u0436\u0434\u0443\u043d\u0430\u0440\u043e\u0434\u043d\u044b\u0439 \u0430\u044d\u0440\u043e\u043f\u043e\u0440\u0442 \u041f\u0443\u043b\u043a\u043e\u0432\u043e)", "lat": 59.79963388793562, "type": "Airport", "now": false}, {"lng": 4.762524617656444, "name": "Amsterdam Airport Schiphol (AMS)", "lat": 52.30968706243106, "type": "Airport", "now": false}, {"lng": -122.38868766545275, "name": "San Francisco International Airport (SFO)", "lat": 37.61750591579182, "type": "Airport", "now": false}, {"lng": -122.38868766545275, "name": "San Francisco International Airport (SFO)", "lat": 37.61750591579182, "type": "Airport", "now": false}, {"lng": 4.762524617656444, "name": "Amsterdam Airport Schiphol (AMS)", "lat": 52.30968706243106, "type": "Airport", "now": false}, {"lng": 4.907260213346564, "name": "Choux", "lat": 52.377693060623656, "type": "Restaurant", "now": false}, {"lng": 4.902465220123396, "name": "Spaghetteria", "lat": 52.35349776449129, "type": "Italian Restaurant", "now": false}, {"lng": 139.6906391, "name": "Park Hyatt Tokyo (\u30d1\u30fc\u30af\u30cf\u30a4\u30a2\u30c3\u30c8\u6771\u4eac)", "lat": 35.68557476, "type": "Hotel", "now": false}, {"lng": 139.771525, "name": "HOTEL COCOGRAND UENOSHINOBAZU (\u30db\u30c6\u30eb \u30b3\u30b3\u30fb\u30b0\u30e9\u30f3\u4e0a\u91ce\u4e0d\u5fcd)", "lat": 35.709444, "type": "Hotel", "now": false}, {"lng": 140.38687589242883, "name": "Narita International Airport (NRT) (\u6210\u7530\u56fd\u969b\u7a7a\u6e2f)", "lat": 35.77190522612856, "type": "Airport", "now": false}, {"lng": 4.762524617656444, "name": "Amsterdam Airport Schiphol (AMS)", "lat": 52.30968706243106, "type": "Airport", "now": false}, {"lng": 4.905077493675435, "name": "DoubleTree by Hilton Hotel", "lat": 52.37678563024838, "type": "Hotel", "now": false}, {"lng": 4.902465220123396, "name": "Spaghetteria", "lat": 52.35349776449129, "type": "Italian Restaurant", "now": false}, {"lng": 4.906507679690257, "name": "De Ysbreeker", "lat": 52.35746646338605, "type": "Restaurant", "now": false}, {"lng": 4.88324214354567, "name": "Hosokawa", "lat": 52.36277849511845, "type": "Japanese Restaurant", "now": false}, {"lng": 4.878992977693823, "name": "Conservatorium Hotel", "lat": 52.35862410711441, "type": "Hotel", "now": false}, {"lng": 5.06915, "name": "Brasserie Herengracht 75", "lat": 52.329746, "type": "French Restaurant", "now": false}, {"lng": 5.043145874117438, "name": "Grieks restaurant Niki", "lat": 52.30809477675751, "type": "Greek Restaurant", "now": false}, {"lng": 4.853131516068616, "name": "Gent aan de Schinkel", "lat": 52.35475521974998, "type": "Belgian Restaurant", "now": false}, {"lng": 4.855798129255578, "name": "Franklin Bar & Kitchen", "lat": 52.35364083588143, "type": "Restaurant", "now": false}, {"lng": 4.860007776364371, "name": "Fa. Speijkervet", "lat": 52.37127227602769, "type": "French Restaurant", "now": false}, {"lng": 4.762524617656444, "name": "Amsterdam Airport Schiphol (AMS)", "lat": 52.30968706243106, "type": "Airport", "now": false}, {"lng": -122.38868766545275, "name": "San Francisco International Airport (SFO)", "lat": 37.61750591579182, "type": "Airport", "now": false}, {"lng": -122.3938000202179, "name": "Slanted Door", "lat": 37.79619516102866, "type": "Vietnamese Restaurant", "now": false}, {"lng": -122.38868766545275, "name": "San Francisco International Airport (SFO)", "lat": 37.61750591579182, "type": "Airport", "now": false}, {"lng": 4.762524617656444, "name": "Amsterdam Airport Schiphol (AMS)", "lat": 52.30968706243106, "type": "Airport", "now": false}, {"lng": 4.762524617656444, "name": "Amsterdam Airport Schiphol (AMS)", "lat": 52.30968706243106, "type": "Airport", "now": false}, {"lng": -0.46234846115112305, "name": "London Heathrow Airport (LHR)", "lat": 51.469407923261336, "type": "Airport", "now": false}, {"lng": 0.04976896880526665, "name": "London City Airport (LCY)", "lat": 51.50396412422985, "type": "Airport", "now": false}, {"lng": 4.762524617656444, "name": "Amsterdam Airport Schiphol (AMS)", "lat": 52.30968706243106, "type": "Airport", "now": false}, {"lng": -6.243851173903524, "name": "Dublin Airport (DUB)", "lat": 53.42643943630694, "type": "Airport", "now": false}, {"lng": 4.762524617656444, "name": "Amsterdam Airport Schiphol (AMS)", "lat": 52.30968706243106, "type": "Airport", "now": false}, {"lng": 0.04976896880526665, "name": "London City Airport (LCY)", "lat": 51.50396412422985, "type": "Airport", "now": false}, {"lng": 4.762524617656444, "name": "Amsterdam Airport Schiphol (AMS)", "lat": 52.30968706243106, "type": "Airport", "now": false}, {"lng": 4.762524617656444, "name": "Amsterdam Airport Schiphol (AMS)", "lat": 52.30968706243106, "type": "Airport", "now": false}, {"lng": -0.46234846115112305, "name": "London Heathrow Airport (LHR)", "lat": 51.469407923261336, "type": "Airport", "now": false}, {"lng": -1.1515311995626192, "name": "Heathrow Terminal 4", "lat": 51.75924697957355, "type": "Airport Terminal", "now": false}, {"lng": 4.762524617656444, "name": "Amsterdam Airport Schiphol (AMS)", "lat": 52.30968706243106, "type": "Airport", "now": false}, {"lng": 4.762524617656444, "name": "Amsterdam Airport Schiphol (AMS)", "lat": 52.30968706243106, "type": "Airport", "now": false}, {"lng": -84.22042429447174, "name": "Dayton International Airport (DAY)", "lat": 39.899160357131585, "type": "Airport", "now": false}, {"lng": -83.35632759523003, "name": "Detroit Metropolitan Wayne County Airport (DTW)", "lat": 42.20884127054663, "type": "Airport", "now": false}, {"lng": 4.762524617656444, "name": "Amsterdam Airport Schiphol (AMS)", "lat": 52.30968706243106, "type": "Airport", "now": false}, {"lng": -0.46234846115112305, "name": "London Heathrow Airport (LHR)", "lat": 51.469407923261336, "type": "Airport", "now": false}, {"lng": 4.762524617656444, "name": "Amsterdam Airport Schiphol (AMS)", "lat": 52.30968706243106, "type": "Airport", "now": false}, {"lng": 5.904732181790947, "name": "Zappa's", "lat": 51.98306223905086, "type": "Italian Restaurant", "now": false}, {"lng": 5.903859123377906, "name": "Hotel Arnhem Centraal", "lat": 51.98334436464271, "type": "Hotel Bar", "now": false}, {"lng": 5.043145874117438, "name": "Grieks restaurant Niki", "lat": 52.30809477675751, "type": "Greek Restaurant", "now": false}, {"lng": -73.95575441021364, "name": "Uva", "lat": 40.7722435782595, "type": "Italian Restaurant", "now": false}, {"lng": 4.758798254443129, "name": "Grand Hotel Opduin", "lat": 53.0979555766938, "type": "Hotel", "now": false}, {"lng": 4.902465220123396, "name": "Spaghetteria", "lat": 52.35349776449129, "type": "Italian Restaurant", "now": false}, {"lng": 140.38687589242883, "name": "Narita International Airport (NRT) (\u6210\u7530\u56fd\u969b\u7a7a\u6e2f)", "lat": 35.77190522612856, "type": "Airport", "now": false}, {"lng": 12.459096, "name": "Hotel Silla", "lat": 41.909199, "type": "Hotel", "now": false}, {"lng": 4.890473, "name": "Vis aan de Schelde", "lat": 52.344414, "type": "Seafood Restaurant", "now": false}, {"lng": 4.762524617656444, "name": "Amsterdam Airport Schiphol (AMS)", "lat": 52.30968706243106, "type": "Airport", "now": false}, {"lng": 5.532025314649446, "name": "Postillion Hotel Amersfoort Veluwemeer", "lat": 52.26817145828311, "type": "Hotel", "now": false}, {"lng": 4.877296694005315, "name": "The Seafood Bar", "lat": 52.35997758410264, "type": "Seafood Restaurant", "now": false}, {"lng": 4.877296694005315, "name": "The Seafood Bar", "lat": 52.35997758410264, "type": "Seafood Restaurant", "now": false}, {"lng": 4.886164544346121, "name": "Duende", "lat": 52.38051919611826, "type": "Spanish Restaurant", "now": false}, {"lng": 4.877296694005315, "name": "The Seafood Bar", "lat": 52.35997758410264, "type": "Seafood Restaurant", "now": false}, {"lng": 4.877296694005315, "name": "The Seafood Bar", "lat": 52.35997758410264, "type": "Seafood Restaurant", "now": false}, {"lng": 5.116977834176556, "name": "Stairway", "lat": 52.08994469336466, "type": "Restaurant", "now": false}, {"lng": 4.877296694005315, "name": "The Seafood Bar", "lat": 52.35997758410264, "type": "Seafood Restaurant", "now": false}, {"lng": 4.880129843307251, "name": "Solo Eten & Drinken", "lat": 52.3561997940526, "type": "Mediterranean Restaurant", "now": false}, {"lng": 4.870025764727189, "name": "B&B", "lat": 52.33750345633959, "type": "Restaurant", "now": false}, {"lng": 5.907118685942359, "name": "Graave Eten & Drinken", "lat": 51.979587014391136, "type": "Restaurant", "now": false}, {"lng": 4.891021, "name": "Restaurant caf\u00e9 de IJ-kantine", "lat": 52.401495, "type": "Restaurant", "now": false}, {"lng": 5.152907255548942, "name": "Hilversum Airport (Vliegveld Hilversum)", "lat": 52.193148539617674, "type": "Airport", "now": false}, {"lng": 5.686102758128594, "name": "Ameland Airport Ballum", "lat": 53.44855094529289, "type": "Airport", "now": false}, {"lng": 5.152907255548942, "name": "Hilversum Airport (Vliegveld Hilversum)", "lat": 52.193148539617674, "type": "Airport", "now": false}, {"lng": 5.038626567352132, "name": "Carlton President Hotel Utrecht", "lat": 52.12080618365361, "type": "Hotel", "now": false}, {"lng": 4.902465220123396, "name": "Spaghetteria", "lat": 52.35349776449129, "type": "Italian Restaurant", "now": false}, {"lng": 4.988679206045916, "name": "De Oude Taveerne", "lat": 52.3774770216862, "type": "Restaurant", "now": false}, {"lng": 5.159725713647212, "name": "El Verano", "lat": 52.27332321278238, "type": "Italian Restaurant", "now": false}, {"lng": 4.874088, "name": "Pastis", "lat": 52.364862, "type": "French Restaurant", "now": false}, {"lng": 5.116218477487564, "name": "Straks", "lat": 52.092068326987, "type": "Restaurant", "now": false}, {"lng": 4.902465220123396, "name": "Spaghetteria", "lat": 52.35349776449129, "type": "Italian Restaurant", "now": false}, {"lng": 4.902465220123396, "name": "Spaghetteria", "lat": 52.35349776449129, "type": "Italian Restaurant", "now": false}, {"lng": 4.872830208345636, "name": "Razmataz", "lat": 52.374531662802255, "type": "French Restaurant", "now": false}, {"lng": 4.762524617656444, "name": "Amsterdam Airport Schiphol (AMS)", "lat": 52.30968706243106, "type": "Airport", "now": false}, {"lng": 2.352915032199677, "name": "H\u00f4tel de Roubaix", "lat": 48.865447411624466, "type": "Hotel", "now": false}, {"lng": 15.625345985714288, "name": "Hotel Metropol", "lat": 48.20248, "type": "Hotel", "now": false}, {"lng": 8.258091895158243, "name": "InterCityHotel Mainz", "lat": 49.999296829135986, "type": "Hotel", "now": false}, {"lng": 9.459918483726456, "name": "H4 Hotel Kassel", "lat": 51.31662198799767, "type": "Hotel", "now": false}, {"lng": 8.016133244053206, "name": "Hotel Braun", "lat": 49.665269266586265, "type": "Hotel", "now": false}, {"lng": 6.156761852045855, "name": "Restaurant Jackies", "lat": 52.25210292704504, "type": "American Restaurant", "now": false}, {"lng": 5.225149597463314, "name": "Bodega-Bodega", "lat": 52.25621416576005, "type": "Tapas Restaurant", "now": false}, {"lng": 4.399359833489032, "name": "'t Hofke", "lat": 51.21999839716136, "type": "French Restaurant", "now": false}, {"lng": 4.406642407667383, "name": "Zeemanshuis Hotel", "lat": 51.22564836683305, "type": "Hotel", "now": false}, {"lng": 4.402365613553338, "name": "Grote Gans", "lat": 51.220673124093594, "type": "Restaurant", "now": false}, {"lng": 4.894897565548369, "name": "NH Collection Amsterdam Grand Hotel Krasnapolsky", "lat": 52.37279019614373, "type": "Hotel", "now": false}, {"lng": 12.582041728884308, "name": "Pastis", "lat": 55.68242253662171, "type": "French Restaurant", "now": false}, {"lng": 9.879510376768918, "name": "Landhotel M\u00f6llhagen", "lat": 54.16433899093954, "type": "Hotel", "now": false}, {"lng": 5.1174190274194284, "name": "Konnichi Wa", "lat": 52.08998813378618, "type": "Sushi Restaurant", "now": false}, {"lng": 5.907581985417506, "name": "ZILLI", "lat": 51.98242066698302, "type": "Italian Restaurant", "now": false}, {"lng": 5.532025314649446, "name": "Postillion Hotel Amersfoort Veluwemeer", "lat": 52.26817145828311, "type": "Hotel", "now": false}, {"lng": 5.904691852085376, "name": "Le Grand Caf\u00e9", "lat": 51.982615784683915, "type": "Restaurant", "now": false}]